[
    {
        "id": 1,
        "name": "王記天婦羅",
        "star": 3.7,
        "info": "位在基隆廟口16號攤位的王記天婦羅，經營已超過一甲子，是著名的基隆名產！使用新鮮魚漿現炸的天婦羅，嚐起來口感Ｑ軟，沾上甜甜辣辣的醬汁，配上酸甜脆口的小黃瓜，開胃又解膩，吃完還想再來一碗，只要銅板價就能嚐到古早味的甜不辣！",
        "address": "基隆市仁愛區愛四路20號\n基隆廟口攤位16號",
        "time": "11:00-00:00",
        "city": "基隆市",
        "region": "仁愛區",
        "place_id": "ChIJzZiNZz5OXTQRKFM2S189aCw",
        "lat": 25.1286292,
        "lng": 121.7429704
    },
    {
        "id": 2,
        "name": "世盛一口吃香腸",
        "star": 3.5,
        "info": "逛夜市就是要吃香腸，每次經過都會被香腸的香味吸引。一口吃小香腸一顆7塊錢，小巧玲瓏好可愛，配上店家提供的蒜頭，這美味程度太逼人了，讓人忍不住一口接著一口！",
        "address": "基隆市仁愛區愛四路20號\n基隆廟口攤位43-1號",
        "time": "11:00-23:45",
        "city": "基隆市",
        "region": "仁愛區",
        "place_id": "ChIJNa5rFD5OXTQRp_8Gvr0eAEM",
        "lat": 25.128231,
        "lng": 121.7434541
    },
    {
        "id": 3,
        "name": "天一香肉羹順",
        "star": 4.3,
        "info": "天一香肉羹順的肉羹湯和滷肉飯，都是超級美味，就連在地人都很愛！肉羹外層裹著一層薄薄的太白粉，咬下時扎實有嚼勁，湯頭嘗起來有些偏甜，但仍是美味；滷肉飯嚐起來鹹鹹甜甜，瘦肉與肥肉燥混和著，加上油蔥酥的香氣，看似普普通通，但吃完感覺還是意猶未盡呀～",
        "address": "基隆市仁愛區愛四路20號\n基隆廟口攤位31號",
        "time": "10:00-00:30",
        "city": "基隆市",
        "region": "仁愛區",
        "place_id": "ChIJKybdGT5OXTQRKjrGMZ9BeFk",
        "lat": 25.1284166,
        "lng": 121.7430616
    },
    {
        "id": 4,
        "name": "天盛舖營養三明治",
        "star": 2.8,
        "info": "基隆廟口知名小吃店之一，是間超人氣排隊美食，每到假日都得抽號碼牌，小編建議大家平日來比較好XD外層麵包炸得酥酥香香卻不油膩，中間夾入餡料，像是番茄、小黃瓜、滷蛋及火腿，最後擠入美乃滋醬，吃起來爽口又開胃！記得要趁熱吃才好吃唷～",
        "address": "基隆市仁愛區愛四路20號\n基隆廟口攤位58號",
        "time": "11:30-00:00",
        "city": "基隆市",
        "region": "仁愛區",
        "place_id": "ChIJjf5uQD5OXTQRHqmTlqYaj8c",
        "lat": 25.1284217,
        "lng": 121.7438248
    },
    {
        "id": 5,
        "name": "天天鮮排骨飯",
        "star": 3.8,
        "info": "位在孝三路的天天鮮排骨飯，是一間排隊名店，內用排隊較耗時，可以選擇外帶，省去冗長隊伍的困擾。便當口味有魚排、雞腿、排骨和蝦仁四種，也可以點雙拼唷。每份主餐都會附上高麗菜、酸菜，和一顆半熟炸蛋（也有全熟），記得戳破讓蛋液和米飯融合，口感更滑順，還有淋上特製的酸甜醬，減去一些油膩感！光是看到照片就足以讓人流口水呀～",
        "address": "基隆市仁愛區孝三路42巷4號",
        "time": "11:00-20:00",
        "city": "基隆市",
        "region": "仁愛區",
        "place_id": "ChIJRfXPKxROXTQRVIvS_Kd89-c",
        "lat": 25.1298197,
        "lng": 121.7393137
    },
    {
        "id": 6,
        "name": "孝三路紅糟肉圓魷魚羹",
        "star": 3.9,
        "info": "隱身在小巷弄中的小攤販們，內用座位不多，外帶人潮不間斷。靠近巷口處的第一攤販賣的是肉圓，第二攤則是魷魚羹，道地吃法就是要兩間一起吃！魷魚羹湯頭嚐起來清甜且魷魚香氣很夠，來幾碗都沒問題，魷魚羹好吃又彈牙；肉羹的表皮Q彈有勁，裡頭是紅糟肉與筍乾，加上香甜的醬汁，搭在一起真是絕配！",
        "address": "基隆市仁愛區孝三路97號",
        "time": "08:00-20:00；週日08:00-18:00",
        "city": "基隆市",
        "region": "仁愛區",
        "place_id": "ChIJz310ARVOXTQRGYoDACv5Wys",
        "lat": 25.1307166,
        "lng": 121.7396335
    },
    {
        "id": 7,
        "name": "豬肝湯海鮮店",
        "star": 4.1,
        "info": "這道基隆特色美食千萬別錯過！店內販賣豬肝腸、紅燒肉、豬肝、小腸、豬皮和豬耳朵等滷味，每天當日現做，所以買了之後要盡快食用唷～食材處理得相當乾淨且滷的很入味，小腸嚐起來Ｑ軟有嚼勁；豬肝腸口味獨特，烤得焦脆的香腸裏頭夾了豬肝，除了有香腸炙烤的美味還多了內臟的香氣，超級特別~~",
        "address": "基隆市仁愛區孝三路65巷7號",
        "time": "07:00-20:00（週一公休）",
        "city": "基隆市",
        "region": "仁愛區",
        "place_id": "ChIJPSRyTxROXTQRAQDkxzRruuE",
        "lat": 25.129973,
        "lng": 121.738818
    },
    {
        "id": 8,
        "name": "孝三路大腸圈",
        "star": 4.1,
        "info": "大腸圈也是孝三路必吃的美食之一，每到假日總是排滿客人。新鮮豬大腸做成的脆口腸衣一咬就斷，內餡有蝦米、油蔥與糯米，香氣十足；豬肺也是孝三路大腸圈的招牌，口感厚實Q彈，原味鮮甜，若淋上醬油膏別有一番風味；還有一樣基隆必吃的－吉古拉，厚厚的魚漿很有口感，加上炭烤的焦香味，來到基隆就是要吃海味啊！",
        "address": "基隆市仁愛區孝三路99巷3號",
        "time": "10:00-17:30（週一公休）",
        "city": "基隆市",
        "region": "仁愛區",
        "place_id": "ChIJAXjGBhVOXTQRr8TuDXRjIXU",
        "lat": 25.1309103,
        "lng": 121.7394079
    },
    {
        "id": 9,
        "name": "長腳麵食",
        "star": 4.1,
        "info": "長腳麵食是一家古早味麵店，是許多在地人從小吃到大的麵鋪，來到基隆絕對不能錯過！這裡的招牌料理－豬腳麵，選用寬厚的廣東麵，麵條吃起來Q彈，大骨熬煮的湯頭加入油蔥、豆芽菜與芹菜提味，清甜又順口，而豬腳身為這碗麵的主角，去骨切片且入味軟嫩。就是古早味的好滋味！",
        "address": "基隆市仁愛區孝三路99巷1號",
        "time": "07:00-22:00（週日公休）",
        "city": "基隆市",
        "region": "仁愛區",
        "place_id": "ChIJ24plARVOXTQRodMK8-A8R8c",
        "lat": 25.1308619,
        "lng": 121.7396813
    },
    {
        "id": 10,
        "name": "李家貼鍋饅頭",
        "star": 4.1,
        "info": "近60多年歷史的李家貼鍋饅頭，承襲了山東的美味，是連在地人都愛的一道美食，店內除了販賣菜肉包子、韭菜盒子、豆腐捲及冷凍水餃等，還有最具人氣的貼鍋饅頭，純手工製作，你一定要來試看看（記得先預約，並於一小時內取貨唷）！將表面煎得焦香、內部札實，越嚼越順口，一不小心就吃完一個了！",
        "address": "基隆市仁愛區孝三路99巷3-1號",
        "time": "08:00-15:00（週日公休）",
        "city": "基隆市",
        "region": "仁愛區",
        "place_id": "ChIJI1Mf_hROXTQRfcQRdpMrwtQ",
        "lat": 25.1309389,
        "lng": 121.7394229
    },
    {
        "id": 11,
        "name": "遠東泡泡冰",
        "star": 4.1,
        "info": "基隆的老字號泡泡冰店－遠東泡泡冰，很推薦你去品嚐！冰品口味有9種，經典花生、鳳梨、芒果、芋頭與雞蛋牛奶等，精選台灣各地的天然食材，吃得新鮮又安心，綿密的口感讓人好滿足，還能吃到果粒～夏天來一杯真是大快人心！",
        "address": "基隆市仁愛區仁三路5號",
        "time": "10:30-22:30",
        "city": "基隆市",
        "region": "仁愛區",
        "place_id": "ChIJNascZD5OXTQRtLATruVzPsE",
        "lat": 25.1277668,
        "lng": 121.7448074
    },
    {
        "id": 12,
        "name": "周家豆漿店",
        "star": 4.2,
        "info": "在地友人熱情推薦！熱騰騰的現煎雞蛋搭配上蔥油餅，光是用聞的就能感受到它的美味，一口咬下外酥內軟。蔥香、麵香與油香在嘴裡爆開，重點是鮮嫩多汁到不行，好吃得無法自拔！即使沒有現吃，帶回家冰凍後再重新加熱，美味程度一點也不減。",
        "address": "基隆市中正區信二路309號",
        "time": "04:30-12:30（週一公休）",
        "city": "基隆市",
        "region": "中正區",
        "place_id": "ChIJVYWMej9OXTQR_AzpuAcFE40",
        "lat": 25.13120649999999,
        "lng": 121.74572
    },
    {
        "id": 13,
        "name": "榮生魚片",
        "star": 4.2,
        "info": "來到基隆就要吃海產，就連在地人也推薦這間海鮮店！隱身在基隆成功市場內的榮生魚片，其實也是間熱炒店，不僅用餐空間明亮舒適，供應的海鮮新鮮，分量足夠且價格平價，大家都推薦甜蝦，有機會一定要試試！無論是現切的生魚片還是店家烹煮的海鮮料理，各個都是美味到爆炸呀，幾乎不踩雷～",
        "address": "基隆市仁愛區成功一路118巷3弄2號",
        "time": "11:00-21:00（週一休息）",
        "city": "基隆市",
        "region": "仁愛區",
        "place_id": "ChIJjQpgpRZOXTQRuMgnJdFOMHc",
        "lat": 25.1278282,
        "lng": 121.7373368
    },
    {
        "id": 14,
        "name": "阿山哥雙胞胎",
        "star": 4.3,
        "info": "飄香40多年的在地古早味，是許多基隆人從小吃到大的回憶，阿山哥雙胞胎雖然只是台發財車攤位，但仍吸引許多客人爭相前來。銅板價就能吃到大大美味。「一口吃發財蛋」名字不僅趣味，美味程度也是有保證的，外皮炸得金黃酥脆並撒上白芝麻，裡面則是又香又Ｑ、也不油膩；特別的是，這裡還有販賣單顆的，只要10塊錢，一樣超美味！",
        "address": "【信義店】\n基隆市信義區信二路178號\n【忠三店】\n基隆市仁愛區忠三路52號",
        "time": "【信義店】\n08:30-13:00\n【忠三店】\n營業時間：08:00-18:00",
        "city": "基隆市",
        "region": "信義區",
        "place_id": "ChIJg975NxROXTQRGrFU-gO65M4",
        "lat": 25.1295813,
        "lng": 121.7388284
    },
    {
        "id": 15,
        "name": "益心居龍蝦麻糬",
        "star": 3.6,
        "info": "位於基隆外木山的益心居龍蝦麻糬，除了有普通的麻糬，像是黑糖和紅豆等，還有四款超霸氣的鹹味麻糬，包的分別是龍蝦、干貝、魚翅和烏魚子，每天現點現做，怕影響海鮮風味所以不提供混搭。超人氣的商品就是龍蝦麻糬，新鮮的蝦肉，配上鮮脆的黃瓜香菜，麻糬嚐起來水潤不乾，加上麻糬外層的芝麻與花生，口感層次超豐富～",
        "address": "基隆市中山區湖海路一段37號",
        "time": "11:00-18:00",
        "city": "基隆市",
        "region": "中山區",
        "place_id": "ChIJAb1-A4ROXTQRjz8efE4v0W0",
        "lat": 25.1633419,
        "lng": 121.7256599
    },
    {
        "id": 16,
        "name": "玥成上海美味鮮湯包",
        "star": 4.1,
        "info": "玥成上海美味鮮湯包位在基隆八斗子，也是間非常有名氣的餐廳，每到用餐時間總是高朋滿座，大部分人都為了它的「上海美味鮮湯包」而來，新鮮現蒸的湯包香味撲鼻，皮薄到幾乎可以看到內餡，咬下去瞬間鮮美的肉汁流在口裡，越吃越上癮，重點是價格超實惠，多點一籠也不怕！",
        "address": "基隆市中正區北寧路317-6號",
        "time": "11:00-15:00；16:30-21:00",
        "city": "基隆市",
        "region": "中正區",
        "place_id": "ChIJJ0QLv51PXTQRIHms305O08A",
        "lat": 25.1397301,
        "lng": 121.795309
    },
    {
        "id": 17,
        "name": "七彩雲南",
        "star": 4.2,
        "info": "七彩雲南是不少桃園人聚餐的心頭好愛店，在桃園有多家分店，多種民族融合的雲南料理CP值極高，價格平實料理卻非常豐盛好吃，過橋米線、奶香黃薑蝦、剁椒芝麻雞、都是人氣必點，麻辣鍋米干椒香濃郁，肉片鮮甜滑嫩，想要飯後來點甜食的話可以點雲南雙寶，糯米粑粑和甩餅配上煉乳不膩口卻甜上心頭。不踩雷大推的一間店，下次誰再說桃園沒美食，這間店可以霸氣打臉～",
        "address": "325台灣桃園市龍潭區中正路596號",
        "time": "11:00–14:00, 17:00–21:00",
        "city": "桃園縣",
        "region": "龍潭鄉",
        "place_id": "ChIJDzloUaofaDQRRqFcnk9LqR0",
        "lat": 24.8548928,
        "lng": 121.2198461
    },
    {
        "id": 18,
        "name": "小阿姨大湯圓",
        "star": 3.6,
        "info": "要說桃園在地楊梅人每天都吃什麼，有好大一部份的人大概會說小阿姨大湯圓。這間客家湯圓原本是位在楊新北路街角的一間小店，但因為太受歡迎，近年在黃金地段開了大間的新店面。小阿姨大湯圓的客家湯圓飽滿Q彈，湯面還浮有滿滿的韭菜和蔥，讓每一口都香氣十足，最厲害的是它的油蔥酥，油蔥的香氣結合客家口味，輕輕淋上一匙，餛飩、油豆腐、燙青菜這些平民小吃瞬間變得超美味，無敵的客家風味讓這間店多年來人氣高居楊梅之冠！",
        "address": "桃園市楊梅區新農街242號",
        "time": "10:30–14:00, 16:30–20:00(週二公休)",
        "city": "桃園縣",
        "region": "楊梅區",
        "place_id": "ChIJ364lDSZ-DhQRk5wr5KX_M80",
        "lat": 24.9095565,
        "lng": 121.1528203
    },
    {
        "id": 19,
        "name": "東街日本料理",
        "star": 4.2,
        "info": "高評價超平價！這間東街日本料理是小編閱吃無數後（？）心中CP值最高的日式料理店！食材吃得出來非常新鮮，從基隆崁仔頂當日直送，生海鮮實力滿滿，炙烤後鮮度更盛，極上海鮮火鍋用料澎派，是店內人氣必點，魚類和貝類鮮嫩肥美，壽司更是魚油香味衝鼻，大大推薦來到桃園可以吃東街。",
        "address": "桃園市桃園區溫州一路61號",
        "time": "11:00–14:00, 17:00–21:00",
        "city": "桃園縣",
        "region": "桃園區",
        "place_id": "ChIJv5uq_rsfaDQRNbNyZZiDaQo",
        "lat": 25.0038235,
        "lng": 121.2942545
    },
    {
        "id": 20,
        "name": "老賊壽司",
        "star": 4.2,
        "info": "老賊壽司在1998年就已經開始營業，時間足以證明這間店的實力！口味選擇超多樣，蒲燒鯛、牛蒡、蘆筍、咖哩等都相當熱門，還有百香、山蘇魷魚，你說特別不特別？重點是！一盒從35元到45元不等，超親民的啦！餡料滿滿滿到感動人，小資族還不快衝！",
        "address": "桃園市桃園區中正路328號",
        "time": "06:00–20:00",
        "city": "桃園縣",
        "region": "桃園區",
        "place_id": "ChIJXwb1Kf4eaDQRG05sWy1vobo",
        "lat": 24.9979402,
        "lng": 121.3092329
    },
    {
        "id": 21,
        "name": "張豐盛花生之家",
        "star": 3.8,
        "info": "正餐吃完了，就來找甜點吃囉～這家甜點店是中壢在地人推薦，張豐盛以販賣花生糖、花生油起家，已經有超過一百年的歷史，近期店家開始販售霜淇淋，將方塊酥、南瓜子、花生粉、黑芝麻粒等台灣道地的味道融入冰淇淋，再加上杏仁片、巧克力、抹茶醬，打造另外一種特殊風味！",
        "address": "桃園市桃園區中山路133號",
        "time": "09:00–21:00",
        "city": "桃園縣",
        "region": "桃園區",
        "place_id": "ChIJLXoQkAIfaDQRs9ZQCAAlcGA",
        "lat": 24.9936613,
        "lng": 121.3098727
    },
    {
        "id": 22,
        "name": "GOGOBOX餐車誌in樂灣基地",
        "star": 4.4,
        "info": "誰說網美店沒有美食？桃園的餐車能顛覆你的想像！「GOGOBOX餐車誌in樂灣基地」是個戶外餐車基地，主打美式鄉村風，是IG上超熱門的打卡熱點，美是餐車和野餐風格怎麼拍怎麼精緻，重點是這裡的餐食簡直超越網美店的水準！美式漢堡肉厚實多汁，玉米餅的調醬香氣十足，把肉質的鮮甜提升到另一個層次，蛋糕厚實濃郁不甜膩，特別的是店家還會用木盒裝盤，好拍又好吃太厲害啦（眼冒愛心）。",
        "address": "桃園市大溪區復興路二段138號",
        "time": "09:00–17:00",
        "city": "桃園縣",
        "region": "大溪區",
        "place_id": "ChIJ2Rc-pPgWaDQRMi0iC-SqxKw",
        "lat": 24.8250728,
        "lng": 121.306979
    },
    {
        "id": 23,
        "name": "龍岡米干",
        "star": 4.4,
        "info": "米干的故事是這樣的，在第二次國共內戰的時候，有一支雲南隊伍不願意投降共產黨，流亡到緬甸邊境，直到聯合國施壓才遷徙來台灣，並且定居在桃園龍岡的忠貞新村，因此也帶來了緬甸和雲南的味道。\n\n龍岡米干在桃園龍岡的勝景簡直可以用百家爭鳴來形容，桃園每年還會舉辦龍岡米干節，各家憑本事切磋，熱騰騰的米干，搭上超彭湃的肉片、豬肝、蛋花，還有各店家特製的辣椒醬和酸菜，每一口都超豐富，清燉湯頭卻非常濃郁，帶有雲南料理酸爽的香氣，十分好吃！",
        "address": "桃園市中壢區龍東路214號",
        "time": "07:00–21:30",
        "city": "桃園縣",
        "region": "中壢區",
        "place_id": "ChIJVTA4F3wiaDQRJdpEHHm5qJI",
        "lat": 24.9328472,
        "lng": 121.2558058
    },
    {
        "id": 24,
        "name": "榕樹下綿綿冰",
        "star": 4.5,
        "info": "榕樹下綿綿冰是間中壢在地人從小吃到大的老字號冰店，招牌品項超級芒果雙爽名符其實，芒果塊整杯堆滿滿，用料實在大方外還淋上了煉乳，上頭的芒果冰淇淋細緻清爽，中和了煉乳的甜味，濃郁和清甜兩種享受～榕樹下綿綿冰店內常有滿滿人潮，足以證明它的超人氣，來到中壢車站一定要去品嘗夏天的美好滋味～",
        "address": "桃園市中壢區中山路6號",
        "time": "10:30–22:00",
        "city": "桃園縣",
        "region": "中壢區",
        "place_id": "ChIJEX5_SEgiaDQR3Klqwo8NtvQ",
        "lat": 24.95515749999999,
        "lng": 121.2262142
    },
    {
        "id": 25,
        "name": "托斯卡尼尼義大利餐廳",
        "star": 3.9,
        "info": "如果台灣各縣市的義大利餐廳要來場PK賽，不少桃園人一定會推托斯卡尼尼出去當桃園代表！托斯卡尼尼主打經典義大利菜，義大利麵是屬於醬料濃郁的那種，有在吃義大利麵的就知道，一般醬濃的話吃起來就會比較乾，但托斯卡尼尼的醬汁除了非常道地外，還給得很多，每一口的麵條都能沾附滿滿的醬汁，香氣十足且濃郁不膩口，是來桃園大推的一間店！",
        "address": "33071台灣桃園市桃園區中正路1473號",
        "time": "11:30–15:00, 17:00–21:00",
        "city": "桃園縣",
        "region": "桃園區",
        "place_id": "ChIJ91UiGjsfaDQRBzng4kHAxBI",
        "lat": 25.0264952,
        "lng": 121.2933082
    },
    {
        "id": 26,
        "name": "廟口鴨香飯",
        "star": 4.1,
        "info": "每次經過總是大排長龍的廟口鴨香飯，是許多人來新竹必吃的美食之一。而他們家的鴨香飯，選用的鴨肉部位都是皮薄油脂少的部分，在鋪上白飯後，還會淋上獨門的秘製醬汁，最後再加上油蔥與醃漬小黃瓜，鹹香的滋味中帶有一點酸甜的風味，真的是百吃不膩～小編也建議大家可以多點一份香煎半熟蛋搭配著吃，滿滿的蛋香與鴨肉香，一口吃下簡直不要太幸福！",
        "time": "週一～週日11:00-15:00；15:30-21:00（週二、三公休）",
        "address": "新竹市北區中山路142號",
        "city": "新竹市",
        "region": "北區",
        "place_id": "ChIJDXIE_781aDQRqmf_04ObosU",
        "lat": 24.80411389999999,
        "lng": 120.9645083
    },
    {
        "id": 27,
        "name": "原夜市鴨肉麵",
        "star": 4,
        "info": "位在城隍廟旁的原夜市鴨肉麵，是許多在地人從小吃到大的鴨肉麵店。店內主打的湯頭，主要是由大骨與鴨肉熬煮而成，喝起來非常清甜且不油膩～而他們的鴨肉，是帶有煙燻風味的，整體吃起來軟嫩不乾柴，也能依食量點選半隻或1/4隻，再搭配著脆甜的小黃瓜一起吃，整個超解膩。另外，小編也很推薦炒鴨血，以烏醋與韭菜下去快炒，軟嫩的口感真的超級開胃，有經過的朋友，絕對不能錯過！",
        "time": "週一～週日10:30-22:30",
        "address": "新竹市東區中央路30號",
        "city": "新竹市",
        "region": "東區",
        "place_id": "ChIJo5U_Teo1aDQRE0Mxxh3ZI7w",
        "lat": 24.8046072,
        "lng": 120.9672285
    },
    {
        "id": 28,
        "name": "阿婆早餐麵店",
        "star": 4.1,
        "info": "阿婆早餐麵店位在新竹高中對面，以超高的cp值受到當地學生喜愛。而店內餐點也超多元，不只有蛋餅、油條、包子、豆漿，還有各式經典麵類像是陽春麵、炸醬麵、牛肉麵以及炒手麵，每種分量都超實在！其中小編最喜歡的就是原味炒手麵，以Q彈的麵條加上皮薄餡多的炒手，搭配著醬汁一起吃，真的超級滿足～所以現在就跟著小編一起體驗不一樣的早晨吧！",
        "time": "週二～週日6:00-14:00",
        "address": "新竹市東區東山街6號",
        "city": "新竹市",
        "region": "東區",
        "place_id": "ChIJQ4a1ouY1aDQROl6yOqnEOAk",
        "lat": 24.7956745,
        "lng": 120.980467
    },
    {
        "id": 29,
        "name": "木木食堂",
        "star": 4.3,
        "info": "位在竹北的木木食堂，是間充滿文青質感的傳統餐館。他們家的餐點主要以傳統家常菜為主，麵食、米食、特色湯品以及各式小菜等，其中曼谷打拋飯更是熱門餐點之一，在天然的檸檬葉下去調味後，檸檬的清香與豬肉的香氣簡直完美融合，在與半熟蛋搭配著吃，豐富又層次的滋味，真的超幸福～另外他們家的胡椒豬肚雞湯與蒜頭蛤蜊雞湯也是必吃的招牌美食，若想品嚐不同的家常料理，那木木食堂絕對是你的最佳選擇！",
        "time": "週一～週日11:30-14:00；17:00-20:30",
        "address": "新竹縣竹北市文興路二段162號",
        "city": "新竹縣",
        "region": "竹北市",
        "place_id": "ChIJvbj9QC83aDQRmY71AQoCQkY",
        "lat": 24.8063895,
        "lng": 121.0374297
    },
    {
        "id": 30,
        "name": "JiNHer_今鶴_義式餐酒館",
        "star": 4.8,
        "info": "位在新竹高鐵站附近的今鶴義式餐酒館，是今年新開幕的複合式餐酒館。店內主要以木質現代風格打造，加上氣派的水晶吊飾，使整間店充滿高級奢華感。餐點選擇上也非常豐富多元，像是早午餐、義大利麵、燉飯、排餐、PIZZA、開胃小點及糕點舒芙蕾等，滿足各式需求！店內人氣招牌「泡澡熊飲品」，以立體拉花的形式呈現小熊泡澡的模樣，讓飲品變得更加誘人，真的超級療癒！喜歡拍照跟品嘗美食的朋友，一定要試試～",
        "time": "週一～週日11:00-21:00",
        "address": "新竹縣竹北市嘉豐五路二段68號",
        "city": "新竹縣",
        "region": "竹北市",
        "place_id": "ChIJAwhmFP83aDQRd0tUeWrm-a0",
        "lat": 24.8097174,
        "lng": 121.0260138
    },
    {
        "id": 31,
        "name": "Musha_Musha",
        "star": 4.1,
        "info": "Musha Musha是間位在新竹東門市場內的咖哩專賣店，店內的咖哩主要加入新鮮蔬菜與鮮肉低溫熬煮48小時而成，濃郁的口感，吃起來跟一般的咖哩不太一樣，比較偏向印度咖哩的感覺～再加上多力多滋碎片、蔥花與半熟蛋增添口感，整體吃起來超有層次！他們家的咖哩本身就帶有微辣，如果不敢吃辣的朋友可能要斟酌一下，至於喜歡重口味的朋友，也能依據喜好調整辣度，是不是非常心動呀～",
        "time": "週一～週日12:00-14:00；17:00-20:30（週四公休）",
        "address": "新竹市東區中央路102巷19號",
        "city": "新竹市",
        "region": "東區",
        "place_id": "ChIJZ2nrJQA1aDQRY1RTxdUd5d0",
        "lat": 24.8054029,
        "lng": 120.9692782
    },
    {
        "id": 32,
        "name": "沐嵐_Moonlight",
        "star": 4.8,
        "info": "位在南門市場裡的沐嵐，是間日式老宅的咖哩定食專賣店。一進店就能看見吧檯上擺滿的12種老闆自製醬料，有四川麻辣、咖哩油蔥、麻辣炸醬、蒜蓉辣椒、韓式麻油與柚子桂花等豐富的秘製醬料，每種都能依據喜好搭配著餐點一起品嘗。而主餐的部分，小編最推薦的就是美國舒肥牛咖哩，滿滿的舒肥牛排，在大火香煎後炙燒，牛肉的甜味與香氣，搭配著日式咖哩真的超級下飯！非常推薦給喜歡特色咖哩的朋友，絕對讓你沒齒難忘！",
        "time": "週一～週日11:00-14:30；17:00-21:30（週二公休、週三17:00-21:30）",
        "address": "新竹市東區西大路247號南門市場第0012店鋪",
        "city": "新竹市",
        "region": "東區",
        "place_id": "ChIJoVxJluA1aDQRHY63emw8_Qw",
        "lat": 24.7997778,
        "lng": 120.9671414
    },
    {
        "id": 33,
        "name": "微生咖啡_Float_Dept",
        "star": 4.4,
        "info": "位在新竹巨城附近巷弄裡的微生，是間老宅改造的文青咖啡廳。主要販售早午餐、飯糰、煎餃、咖哩及各式飲品，豐富的餐點非常適合家庭聚餐或是情侶約會～其中豪華飯糰套餐更是店內的熱門餐點，不僅有季節飯糰，還有各式小菜、開胃湯品與酥脆炸雞，店家也會不定時更換飯糰口味，讓大家都能品嘗到充滿驚喜的特色料理！店內除了正餐以外，也有提供茶及咖啡，就算只是路過也能進來喝杯咖啡享受悠悠的休閒時光～",
        "time": "週一～週日10:00-18:00",
        "address": "新竹市東區民權路111巷23號",
        "city": "新竹市",
        "region": "東區",
        "place_id": "ChIJk7BAC9E1aDQRcKhHolfreyo",
        "lat": 24.8073311,
        "lng": 120.974516
    },
    {
        "id": 34,
        "name": "火車站梅花雞蛋糕",
        "star": 4.5,
        "info": "置身於火車站對面的梅花雞蛋糕，是許多在地人從小到大必吃的古早味小點心。每到起鍋時刻，就能看見滿滿的人潮與隊伍。梅花造型的蛋糕包覆著香醇不膩的奶油餡料，整體吃起來酥脆又柔軟，香香甜甜的就算冷掉也超好吃！比較特別的是，這裡的雞蛋糕主要採取自助式，老闆除了負責製作雞蛋糕以外，其餘付錢、裝袋，甚至是拿著扇子替雞蛋糕弄涼都是自己來～也是滿有趣的吧！",
        "time": "週一～週日10:00-18:00",
        "address": "新竹市東區中正路28號",
        "city": "新竹市",
        "region": "東區",
        "place_id": "ChIJtUt-EMI1aDQRuydTfTVAtCI",
        "lat": 24.8032624,
        "lng": 120.9713197
    },
    {
        "id": 35,
        "name": "立晉傳統豆花",
        "star": 4.1,
        "info": "立晉傳統豆花是清華大學附近的老字號甜品專賣店，不管是夏天還是冬天，都有季節限定的專屬品項，像是夏天主要販賣冰和冬瓜茶，冬天則是販賣薑母茶、燒仙草與紅豆湯。而他們家最特別的就是自製糖水冰沙，將冰沙代替糖水，使整體口感大大提升，吃起來不僅綿密還不會過於甜膩，放在豆花與佐料上層真的超級大加分！炎炎夏日來上一碗，絕對超幸福的呀～",
        "time": "週一～週日11:30-23:50",
        "address": "新竹市東區建功一路6號",
        "city": "新竹市",
        "region": "東區",
        "place_id": "ChIJayjir3I2aDQR0TGPgfctBdI",
        "lat": 24.7968636,
        "lng": 120.9983978
    },
    {
        "id": 36,
        "name": "黑瓦鬆餅HEYWOW",
        "star": 4.1,
        "info": "竹北知名的鬆餅販賣店黑瓦鬆餅，從早期創始於東海大學內就小有人氣，不僅提供多達40種的創意鬆餅及各式飲品，老闆娘更是堅持採用東海大學鮮乳製作，全程不加任何一滴水，使鬆餅皮吃起來格外香濃可口。而店內的鬆餅除了是每日現調漿外，餐點內的水果也都是當季嚴選的新鮮水果，自製的果醬裡面也完全不添加除了果肉、糖及檸檬以外的東西，從裡到外的天然無負擔～現在就好好放鬆心情，來份好吃不甜膩的鬆餅吧！",
        "time": "週二～週日11:30-18:30（週六、日10:30開始營業）",
        "address": "新竹縣竹北市嘉豐五路一段100巷5號",
        "city": "新竹縣",
        "region": "竹北市",
        "place_id": "ChIJw6JUFfo2aDQRnRebF0jGawo",
        "lat": 24.8147216,
        "lng": 121.0299005
    },
    {
        "id": 37,
        "name": "覓雪Mixshare手作雪花冰",
        "star": 4.7,
        "info": "位在城隍廟附近的覓雪，是間手作雪花冰店。店外木質色調的大門加上店內明亮寬敞的設計，給人滿滿復古的樸實感～而餐點方面，主要販售特色雪花冰及季節雪花冰，其中小編最推的就是寶山黑糖麵茶冰，以新竹寶山黑糖製成的冰磚，再加上鹿港在地無糖麵茶，冰甜的口感中帶有香濃的麵茶香氣，吃起來完全不甜膩！若有喜歡茶香的朋友，也能試試炭焙鐵觀音，濃郁的茶香裡帶有淡淡的奶香味，每吃一口就能感受到滿滿的茶香，喜歡吃冰的朋友，一定要來試試～",
        "time": "14:00-20:30（週二公休）\n週五14:00-21:00\n週六13:00-21:00n週日13:00-20:30",
        "address": "新竹市東區中央路43號",
        "city": "新竹市",
        "region": "東區",
        "place_id": "ChIJY0m9Rbo1aDQRRru7qDXp7l0",
        "lat": 24.8048917,
        "lng": 120.9674428
    },
    {
        "id": 38,
        "name": "hecho做咖啡",
        "star": 4.5,
        "info": "hecho做咖啡在誠品綠園道附近開了三間分店，光看分店的數量就知道它有多受歡迎，1店與2店同樣位在美村路上，3店則在公益路163號。做咖啡的手做餐點，義大利麵、燉牛肉和果汁都是熱門品項，離誠品又近又好吃讓「逛完誠品後到做咖啡坐坐」成為不少旅客的標準配備行程。",
        "time": "10:30-22:00",
        "address": "台中市西區美村路一段133巷22號2F（1店）",
        "city": "台中市",
        "region": "西區",
        "place_id": "ChIJnZkaL5w9aTQRGDemXt4Xqx0",
        "lat": 24.1517157,
        "lng": 120.662531
    },
    {
        "id": 39,
        "name": "書報館",
        "star": 4.2,
        "info": "書報館位在小巷弄裡，整間店被綠意盎然的植栽包裹，宛如都市中的綠洲。書報館是義大利麵專門店，旅客對義大利麵的評價自然不在話下，物美價廉外也提供加麵服務，兒童餐份量也很足夠，很適合全家大小一起共食，飽餐一頓外也遠離城市喧囂。",
        "time": "11:30-20:30",
        "address": "台中市西區美村路一段83巷9號",
        "city": "台中市",
        "region": "西區",
        "place_id": "ChIJncYVRJw9aTQRF8Rh-50fpHo",
        "lat": 24.1531577,
        "lng": 120.6622889
    },
    {
        "id": 40,
        "name": "台中麻辣大腸麵線香雞排花枝丸",
        "star": 4.1,
        "info": "老饕都知道一家餐廳賣的品項越少，東西就越好吃，這句話在「台中麻辣大腸麵線香雞排花枝丸」絕對能應證，店裡就賣大腸麵線、雞排和花枝丸三個品項，每樣都是銅板價，炸物香酥爽口，店裡的辣菜脯和大腸麵線更是絕配。",
        "time": "15:00-22:00",
        "address": "台中市西區美村路一段21巷2號",
        "city": "台中市",
        "region": "西區",
        "place_id": "ChIJpRlm6Jw9aTQRWEDcrguyBoY",
        "lat": 24.1545802,
        "lng": 120.6624619
    },
    {
        "id": 41,
        "name": "東沐_食在",
        "star": 4.7,
        "info": "位在英才路上的東沐。食在，號稱是全台灣最文青的紫米鴨肉飯店，從外頭看店內裝潢像小文青感的咖啡廳，沒想到竟然是賣鴨肉飯。東沐。食在的紫米選用玉香太極米，上頭鋪上鴨肉切片和油蔥酥醬，香味撲鼻讓人胃口大開，喜歡吃麵的人也有鴨肉麵可以選擇，除了鴨肉，別忘了也點上一碗店內人氣也很高的招牌餛飩喔。",
        "time": "11:30-19:00",
        "address": "台中市北區英才路317號",
        "city": "台中市",
        "region": "北區",
        "place_id": "ChIJK5at3Hk9aTQRmevsCA8LOx4",
        "lat": 24.1555619,
        "lng": 120.6699973
    },
    {
        "id": 42,
        "name": "阿裕壽司",
        "star": 4.4,
        "info": "說到平價壽司絕對就是這間！阿裕壽司是台中鄉民最激推的平價壽司，口味眾多，而且每個都超便宜！平價程度不經讓人想問老闆這樣真的可以嗎？除了便宜外新鮮度也完全沒馬虎，厚實的魚肉吃起來超滿足，難怪店外每次都是長長的排隊人龍。喜歡生魚片和壽司的人，來台中絕對不能錯過這間店。（推薦給你：逢甲超平價住宿大公開）",
        "time": "10:00-22:00",
        "address": "台中市北區西屯路一段361號",
        "city": "台中市",
        "region": "北區",
        "place_id": "ChIJq6wyH4I9aTQRsq11XdW5J9U",
        "lat": 24.16102,
        "lng": 120.6647681
    },
    {
        "id": 43,
        "name": "鵝媽媽鵝肉料理",
        "star": 3.4,
        "info": "接下來要介紹的是一間位在巷弄內的隱藏版美食，這間鵝媽媽鵝肉料理從下午五點開到半夜一點，是在地人的宵夜私藏名店，銅板價格外東西也超好吃，店內人氣最高的屬鵝肉飯和米血，當歸鴨麵線和麻油腰花也很適合冬令進補。",
        "time": "17:00-01:00",
        "address": "台中市西區美村路一段52巷4號",
        "city": "台中市",
        "region": "西區",
        "place_id": "ChIJR8ntaJw9aTQRA9YXB72eB6Q",
        "lat": 24.1533911,
        "lng": 120.6614819
    },
    {
        "id": 44,
        "name": "沒有名字的咖啡館",
        "star": 4.2,
        "info": "儘管沒有店名、沒有招牌、沒有店家電話，這間超低調的咖啡館還是靠著平實的價格和美味甜點打出一片天。老式建築、復古裝潢，店內甜點沒有菜單，以當天為主，老闆會親切的跟你介紹各種當日限定的品項，檸檬塔和千層派是常出現的人氣品項。隱身在巷弄裡，店內氣氛宛若老家般溫暖親切，很適合三五好友一起來發掘限定甜點，吃過一次後絕對會把它加入自己的私藏口袋名單。",
        "time": "12:00-20:00(週三休息)",
        "address": "403台灣台中市西區精明一街73號",
        "city": "台中市",
        "region": "西區",
        "place_id": "ChIJ_axOops9aTQRIG3tUgTdK5o",
        "lat": 24.1556567,
        "lng": 120.6555923
    },
    {
        "id": 45,
        "name": "茶六燒肉堂_公益店",
        "star": 4.4,
        "info": "茶六燒肉堂是台中火鍋店龍頭輕井澤旗下的知名燒肉品牌，不只裝潢大器，肉盤份量也超澎派，一字排開的肉片看了讓人跟著心情激昂XD 分量充足、肉質良好和換網頻率高是茶六最被推崇的特點，肉食者們快揪三五好友一起大烤特烤！",
        "time": "11:00-02:00",
        "address": "台中市西區公益路268號",
        "city": "台中市",
        "region": "西區",
        "place_id": "ChIJJ6o8Qtg9aTQRdPMUo5sVQYY",
        "lat": 24.1510143,
        "lng": 120.6543767
    },
    {
        "id": 46,
        "name": "RÊVE_黑浮咖啡_公益店",
        "star": 4.5,
        "info": "RÊVE黑浮咖啡公益店是高雄起家的黑浮咖啡在台中的第一家分店，店內採挑高設計，以夢幻燈泡和質感黑水管裝飾，唯美的氣氛超適合拍照。黑浮咖啡販售全日早午餐和義式料理，西班牙烤飯是最多人推薦的品項，從店內總是坐了滿滿的人來看，你就知道台中人多喜歡這間店了。（推薦給你：台中必買伴手禮推薦）",
        "time": "9:30-21:30",
        "address": "台中市西區公益路290號",
        "city": "台中市",
        "region": "西區",
        "place_id": "ChIJ4_uAcZc9aTQR9CYLWsOxktc",
        "lat": 24.1510913,
        "lng": 120.6534313
    },
    {
        "id": 47,
        "name": "老豆府麻辣火鍋",
        "star": 4.5,
        "info": "眾多麻辣鍋名店鼎立的台中麻辣鍋戰場裡，老豆府麻辣火鍋標榜湯頭無味精、食材處理品質保證，麻辣鍋湯頭椒香四溢卻不燒辣也不死鹹，湯底香醇順口，即使是怕辣的人也能品嘗到麻辣鍋的美好新世界。",
        "time": "12:00-01:30（週五、六、日營業到02:00）",
        "address": "台中市西屯區東興路三段299號",
        "city": "台中市",
        "region": "西屯區",
        "place_id": "ChIJEzbQfJA9aTQRrKnkPgASIic",
        "lat": 24.1560389,
        "lng": 120.6538033
    },
    {
        "id": 48,
        "name": "一笈壽司",
        "star": 4.2,
        "info": "一樣是輕井澤系列，這次不賣火鍋改賣壽司，一笈壽司和時下流行的連鎖壽司品牌一樣，採用平板點餐，且點滿五盤壽司可玩戳戳樂，有機會戳中壽司公仔、飲料或壽司兌換券，增添用餐時的樂趣；除了壽司品項眾多外，網評這家的焦糖地瓜和唐揚雞也超好吃，且價格實惠，用平價即可享用到媲美高級日式餐廳的餐點，難怪網友都說是CP值很高的好店！（推薦給你：台中必泡溫泉飯店清單）",
        "time": "11:00-23:00",
        "address": "台中市南屯區公益路二段25號",
        "city": "台中市",
        "region": "南屯區",
        "place_id": "ChIJb2HzTI49aTQRE75UtLOPrEA",
        "lat": 24.1507534,
        "lng": 120.6516758
    },
    {
        "id": 49,
        "name": "太初麵食",
        "star": 4.4,
        "info": "太初麵食是輕井澤鍋物底下的麵食名店，從公益路這條路幾乎快被輕井澤包下來，就可以看出台中人有多喜歡他們家的餐廳。太初麵食的麵食有四種麵條可以選擇，最著名的是它的香辣麵，號稱「麻辣鍋變成湯麵」，椒香味濃厚外肉也燉的很軟嫩，隨餐還都會附上冬瓜茶一杯。店內裝潢高級，用便宜價格就可以吃到高品質美味，難怪每到用餐時間店外就都排了滿滿人潮，不想排隊但想一嚐香辣滋味的可以選在宵夜時段來訪喔。（推薦給你：逢甲夜市美食懶人包）",
        "time": "11:00-00:00",
        "address": "台中市南屯區公益路二段115號",
        "city": "台中市",
        "region": "南屯區",
        "place_id": "ChIJ_____5Y9aTQRaZiGrKi1pJw",
        "lat": 24.150661,
        "lng": 120.6492644
    },
    {
        "id": 50,
        "name": "一頭牛日式燒肉_清酒_公益店",
        "star": 4.5,
        "info": "一頭牛日式燒肉．清酒最大的特色是每天都會提供多種日本清酒給客人佐餐，且每桌烤桌都有燒肉管家桌邊服務，隨時控管肉類和烤物能烤到最佳品質。（推薦給你：北中南名燒肉店探查！）最熱門的吃法是點極上套餐，套餐包含安格斯牛、霜降松阪豬、櫻桃鴨等高級肉品，一個人約一千多元左右，肉切片厚實、油花恰到好處、肉質鮮嫩，以這個價位能吃到水準之上的燒肉真的超可以，網友還評價是吃一口就會懷孕的程度XD",
        "time": "11:00-14:00、17:00-00:00",
        "address": "台中市南屯區公益路二段162號",
        "city": "台中市",
        "region": "南屯區",
        "place_id": "ChIJ62PCxpU9aTQR8vj_jMv4wtE",
        "lat": 24.1510029,
        "lng": 120.6476787
    },
    {
        "id": 51,
        "name": "燒肉風間_Kazama",
        "star": 4.5,
        "info": "燒肉風間 Kazama主打關西風燒肉居酒屋，提供A5日本和牛、美國和牛、安格斯黑牛、北海道海鮮等澎派肉品陣容，遇上節慶還會有特殊餐點，像是牛肉聖誕樹造型就超浮誇。這間店最大的特點是無論餐點或是裝潢都以魔法主題包裝，例如提供麻瓜限定套餐、網友大推必點的奶油啤酒等，哈利波特迷來訪絕對會興奮指數破表。（推薦給你：台中租車必備懶人包）",
        "time": "11:30-16:00、17:30-00:00",
        "address": "台中市南屯區公益路二段171-1號",
        "city": "台中市",
        "region": "南屯區",
        "place_id": "ChIJXfp_RV89aTQRUpBDCOMaSRk",
        "lat": 24.150664,
        "lng": 120.647533
    },
    {
        "id": 52,
        "name": "屋馬燒肉_文心店",
        "star": 4.5,
        "info": "在台中的燒肉大戰中，擁有最至高地位的就屬屋馬燒肉！看看這個堆起來的肉盤，實在太～美～啦～在全台各家燒肉店評論底下，都會有人念念不忘烏馬燒肉的好，是台中網友激推的必吃燒肉名店。來屋馬最多人點的雙人套餐價位從1680到2980不等，套餐組合內有安格斯霜降牛、松阪豬、韓風牛小排、北海道干貝等，浮誇的多個願望一次滿足！喜歡牛肉的也有超過癮全牛套餐可以選擇，來到台中絕不能不來屋馬燒肉朝聖一下。",
        "time": "11:00-00:00",
        "address": "台中市南屯區文心路一段436號",
        "city": "台中市",
        "region": "南屯區",
        "place_id": "ChIJ21xYbbc9aTQRaOe7UdKtjgM",
        "lat": 24.1510339,
        "lng": 120.6469958
    },
    {
        "id": 53,
        "name": "湯棧",
        "star": 4.3,
        "info": "有別於一般的火鍋店，湯棧主打麻油火鍋和燒酒火鍋，在店外就能聞到濃濃麻油香，麻油火鍋是人氣最高的湯頭，鍋底的麻油雞肉塊肉質也很軟嫩；喜歡酒香入料的可以選擇燒酒火鍋，還提供額外加酒服務，能將酒香提升到另一個世界的層次XD不敢喝酒的人以可以點剝皮辣椒鍋，湯頭清甜也完全不辣。只能說火鍋的靈魂就是湯頭啊，湯頭對了什麼都對了！",
        "time": "11:00-02:00",
        "address": "台中市南屯區公益路二段248號",
        "city": "台中市",
        "region": "南屯區",
        "place_id": "ChIJacyxk0w9aTQR-vAd8dAfe2Q",
        "lat": 24.1511334,
        "lng": 120.6447448
    },
    {
        "id": 54,
        "name": "森森燒肉MoriMori_Yakiniku_公益店",
        "star": 4.6,
        "info": "森森燒肉身為台中的知名連鎖燒肉店，網評是暨屋馬和茶六後，排名第三名的高品質燒肉店，但近來不少網友紛紛跳出來評價森森燒肉才是他們心目中第一名的燒肉神店！食物品項選擇多外，肉質也是不在話下的好，以無論套餐或單點一個人平均不到一千元的價位來說CP值非常高，沒有吃過的人可以試試喔。（推薦給你：台中五星飯店推薦）",
        "time": "11:00-00:00",
        "address": "台中市南屯區公益路二段211號",
        "city": "台中市",
        "region": "南屯區",
        "place_id": "ChIJgVRKn5U9aTQRkx7L3zhICyw",
        "lat": 24.1506722,
        "lng": 120.6460153
    },
    {
        "id": 55,
        "name": "美村點頭冰",
        "star": 4,
        "info": "美村點頭冰是家老牌冰店，是不少台中人心中的好滋味，招牌的芒果牛奶冰芒果給料大方，整碗冰上頭鋪了滿滿的芒果，配上煉乳簡直是神仙級美味，同樣是招牌的點頭冰以南洋椰奶作淋醬，上頭放了軟Q的紅糯米，冰中則塞了滿滿的當季水果，網友評價這碗能好吃得直點頭，到范特喜逛完後最適合到冰店消暑啦～",
        "time": "12:00-23:00",
        "address": "台中市西區美村路一段176號",
        "city": "台中市",
        "region": "西區",
        "place_id": "ChIJo8n9wJ49aTQRlLh1gGOeYnk",
        "lat": 24.149938,
        "lng": 120.661578
    },
    {
        "id": 56,
        "name": "田樂公正小巷店",
        "star": 4.5,
        "info": "田樂公正小巷店顧名思義是間「位在公正路小巷內」的早午餐店，日式老宅的裝潢非常溫暖愜意，裝潢和風很適合拍照。餐點方面，田樂的漢堡系列很厲害，漢堡肉厚實多汁，中間大片厚實的香菇配上風味醬口味香醇，唐揚雞和焦糖布丁也是店內人氣很高的品項。（推薦給你：吃飽去哪玩？台中景點懶人包）",
        "time": "11:00-22:30（周六日10:00開始營業）",
        "address": "台中市西區公正路128號",
        "city": "台中市",
        "region": "西區",
        "place_id": "ChIJq_4p5J49aTQRTujZMQD6hks",
        "lat": 24.149103,
        "lng": 120.6620724
    },
    {
        "id": 57,
        "name": "臺虎精釀啜飲室",
        "star": 4.7,
        "info": "喜歡小酌的人看過來！臺虎精釀啜飲室是間很適合好友聚餐的餐酒館，店內酒品種類多，服務員會很親切耐心地介紹，重點是可！以！試！喝！這在酒吧來說非常難得，你可以挑幾種有興趣的酒試品一下，看看能不能找到你心中的Mr. Shot；除了酒類外，臺虎精釀啜飲室的漢堡和炸物也不馬虎的好吃，配酒讓人胃口大開嗷嗷。",
        "time": ":30-01:00／周日：11:30-23:00",
        "address": "台中市西區中興一巷22號",
        "city": "台中市",
        "region": "西區",
        "place_id": "ChIJiWIwEp89aTQR60_m87CkH24",
        "lat": 24.1475426,
        "lng": 120.6622718
    },
    {
        "id": 58,
        "name": "春丸餐包製作所_街邊店",
        "star": 4.2,
        "info": "春丸餐包製作所販售各種口味的甜鹹餐包，裝潢小文青感，配上店內餐點怎麼擺都超好拍，是台中的IG打卡名店。餐包的麵包體是老闆用自栽小麥種酵母、熊本皇冠麵粉製成，屬口感柔軟手作的軟法；餡料也非常講究，有福岡抹茶、北海道煉乳、荷蘭高達起司等，集多地嚴選食材於一店，麵包控們來到台中絕不能錯過。（推薦給你：超Ｑ生吐司！台中必買推薦）",
        "time": "07:30-17:30",
        "address": "台中市西區昇平街57號",
        "city": "台中市",
        "region": "西區",
        "place_id": "ChIJa-RQ9P49aTQRTGZ9ltqtf_8",
        "lat": 24.1453822,
        "lng": 120.6623591
    },
    {
        "id": 59,
        "name": "成真咖啡_台中審計店_",
        "star": 4.4,
        "info": "審計新村除了好逛好拍外，應該也有不少人是衝著成真咖啡的舒芙蕾鬆餅來的XD厚厚的舒芙蕾看著超級療癒，口感鬆軟嫩滑；店內的咖啡豆也非常講究，從美妙濃厚的香氣就能感受到成真咖啡的選豆品質優良，來到審計新村不能錯過這間人氣咖啡廳！（推薦給你：省錢必住台中便宜青旅）",
        "time": "10:00-21:00（周六日09:00-22:00）",
        "address": "台中市西區民生路370號",
        "city": "台中市",
        "region": "西區",
        "place_id": "ChIJCUReNbI9aTQRbyOqNGBUyyY",
        "lat": 24.1444319,
        "lng": 120.662112
    },
    {
        "id": 60,
        "name": "艸水木堂",
        "star": 4.4,
        "info": "艸水木堂是位在審計新村內的甜甜圈專門店，店裡有超吸睛的旋轉木馬，而且那個木馬不是馬，是超夢幻的松鼠跟兔子啊啊，這是什麼神仙森林？除了大人小孩都愛拍的裝置，艸水木堂的甜甜圈才是最出名的，除了經典的巧克力、草莓外還有提拉米蘇、紅豆奶霜、OREA等特色口味；想吃鹹點的話，艸水木堂的三明治也是熱門必吃，三明治口感香酥、口味搭配新鮮感十足，是間好吃好拍少女心滿溢的店（手指愛心）",
        "time": "11:00-19:00",
        "address": "台中市西區民生路364號",
        "city": "台中市",
        "region": "西區",
        "place_id": "ChIJ4TEXtqE9aTQRlv8VTjlQFhk",
        "lat": 24.1444424,
        "lng": 120.662678
    },
    {
        "id": 61,
        "name": "旅禾_泡芙之家_審計店",
        "star": 4.3,
        "info": "來到審計新村絕對會被旅禾 泡芙之家門口的泡芙裝置藝術吸引，除了數尊頭頂泡芙的摩艾像外，還有超大泡芙塔、泡芙安全帽等，門口總是聚集了不停喊著「呀～好可愛」的人群，除了拍照外，店內的泡芙也是必買點心，餡料濃郁不會死甜，外皮口感酥脆，爆漿流沙可頌則是店內隱藏版的熱門品項，拍完照記得到店裡幫孩子幫自己買個點心當下午茶唷。",
        "time": "11:00-19:00",
        "address": "台中市西區民生路358號",
        "city": "台中市",
        "region": "西區",
        "place_id": "ChIJLa-AtaE9aTQRvmo5diQdedg",
        "lat": 24.1444401,
        "lng": 120.662929
    },
    {
        "id": 62,
        "name": "三時杏仁",
        "star": 4.1,
        "info": "三時杏仁的杏仁豆腐Q彈香醇，網友評價超高，不少台中人都說有回家一定會去三時杏仁報到、另外還有佐料豐富的杏仁豆腐冰、杏仁茶等品項，三時杏仁的杏仁茶是屬於濃稠淡香的那種，不敢喝杏仁的朋友也能輕鬆嘗試，喝過之後絕對會發現杏仁的美好，開啟人生另一道窗（太浮誇？喜歡杏仁的人就知道那有多香啊），小編已經決定下次去台中必去三時杏仁啦！",
        "time": "11:00-18:30",
        "address": "台中市西區民生路356號",
        "city": "台中市",
        "region": "西區",
        "place_id": "ChIJDydtGY09aTQRatgvyJF3avc",
        "lat": 24.14443,
        "lng": 120.6630041
    },
    {
        "id": 63,
        "name": "魚刺人雞蛋糕_審計旗艦店",
        "star": 4,
        "info": "又一間排隊名店！魚刺人的雞蛋糕現點現烤，偏向港式的雞蛋仔邊緣酥脆，口感像餅乾，外脆內軟，現吃時餡料會爆出非常療癒，口味選擇多樣，還時不時有限定口味可以選擇喔，你是不是也和小編一樣看到限定兩個字就忍不住點了？",
        "time": "：10:00-19:00",
        "address": "台中市西區民生路352號",
        "city": "台中市",
        "region": "西區",
        "place_id": "ChIJAzd1NaA9aTQR8fPYno4mV6Q",
        "lat": 24.1444404,
        "lng": 120.6633022
    },
    {
        "id": 64,
        "name": "CJSJ_法式甜點創意店",
        "star": 4.2,
        "info": "CJSJ稱得上是台中熱門甜點店中的第一名！由法國的米其林廚師SJ和料理廚師CJ共同創立，店外總是排了長長的排隊人龍，是不少外地遊客的甜點朝聖地。甜點外觀精緻有特色，每顆都像藝術品一樣好拍，口味更不在話下，像是日本柚子甘那許青酸有層次、可頌鬆脆不膩口，CJSJ還會不定時更換甜點菜單，許許多多超有個性的新奇口味等你發掘。",
        "time": "12:00-18:30",
        "address": "台中市西區向上路一段79巷72號",
        "city": "台中市",
        "region": "西區",
        "place_id": "ChIJl1JwI6A9aTQRSJevzHFlo0Y",
        "lat": 24.144948,
        "lng": 120.664263
    },
    {
        "id": 65,
        "name": "法米法式甜點_文心店",
        "star": 4.2,
        "info": "法米法式甜點可說是熱愛甜點蛋糕的美食天堂，塔類甜點居多，不少人都評價法米的鎮店之寶老媽媽檸檬塔是他們吃過最好吃的檸檬塔，檸檬青甜微酸，甜度是恰到好處的那種。紅茶巧克力塔和聖人泡芙人氣也非常高，有機會造訪台中，可以來試試看這家甜點店。",
        "time": "星期一: 11:00 – 19:00\n星期二: 休息\n星期三: 11:00 – 19:00\n星期四: 11:00 – 19:00\n星期五: 11:00 – 19:00\n星期六: 11:00 – 19:00\n星期日: 11:00 – 19:00",
        "address": "408台灣台中市南屯區文心南五路一段10號",
        "city": "台中市",
        "region": "南屯區",
        "place_id": "ChIJaVQYkp89aTQRcjaPWh02sdE",
        "lat": 24.1321311,
        "lng": 120.6540588
    },
    {
        "id": 66,
        "name": "模範貝果MOFAN_BAGELS",
        "star": 4.5,
        "info": "模範貝果MOFAN BAGELS是間貝果早午餐餐廳，貝果紮實有嚼勁，口味多樣且甜鹹都有，在地台中人很推薦造訪的客人把貝果買回去當隔天早餐，用電鍋蒸過後貝果還是跟前一天一樣Q軟，或是在表皮上噴點水，蓋上鋁箔紙放進烤箱回烤五分鐘，回烤後的外皮酥脆，奶油焦香非常迷人。",
        "time": "12:00-19:00（周六日到18:00）",
        "address": "台中市西區模範街1巷1號",
        "city": "台中市",
        "region": "西區",
        "place_id": "ChIJ_-dqe3U9aTQR4Jy50r8M5cs",
        "lat": 24.1470826,
        "lng": 120.6664581
    },
    {
        "id": 67,
        "name": "若草甜點店",
        "star": 4.3,
        "info": "沒有明顯招牌，極度隱密低調的若草甜點店座落在小巷弄中，不少網友說這家的甜點不甜膩、吃起來順口舒服，且價格十分平實。若草甜點店就像私藏鄉村廚房，讓人忍不住探訪查看有什麼美味小點，想在城市裡尋覓一方寧靜，若草甜點店不會讓人失望，快趁機把它加入自己的私房名單。（推薦給你：台中室內景點這麼多～下雨也不怕）",
        "time": "12:30-18:30",
        "address": "台中市西區模範街3巷22號1樓",
        "city": "台中市",
        "region": "西區",
        "place_id": "ChIJY-xD1J89aTQRNwlB8QYHs6Q",
        "lat": 24.1476014,
        "lng": 120.6657533
    },
    {
        "id": 68,
        "name": "別嗆大叔",
        "star": 4.6,
        "info": "別嗆大叔藏身在模範市場內，是間結合懷舊唱片行的咖哩專門店，老宅復古裝潢超有個性。咖哩醬非常濃郁，炸肉多汁、肉質軟嫩，鋪上厚厚的旋轉蛋包賞心悅目，可以在充滿懷舊感的唱片行裡體驗深夜食堂般的日式風情。",
        "time": "17:30-22:30",
        "address": "台中市西區模範市場一巷10號",
        "city": "台中市",
        "region": "西區",
        "place_id": "ChIJXwYQCnY9aTQR6NvafRYAhc8",
        "lat": 24.1502839,
        "lng": 120.6668726
    }
]