[
    {
        "id": 1,
        "name": "馥蘭朵烏來渡假酒店",
        "star": 4.3,
        "info": "這間台北住宿，前身為大名鼎鼎的「春秋烏來」，加入眾多藝術元素及明確的精品旅店定位後，搖身一變成為烏來數一數二的度假旅店。不僅室內就可以泡湯，緊鄰南勢溪的絕佳地理位置，每個角落都是絕佳觀景處。",
        "address": "新北市烏來區新烏路五段176號",
        "region": "烏來區",
        "city": "新北市",
        "place_id": "ChIJY95n9o8GaDQRSItAncZDiS0",
        "lat": 24.8694941,
        "lng": 121.5475386,
        "time": "無"
    },
    {
        "id": 2,
        "name": "金普頓大安酒店",
        "star": 4.5,
        "info": "位在忠孝SOGO對面巷弄裡的【金普頓大安酒店】這間台北住宿貌似豪宅，但卻是一家隱身社區的高級飯店，內部空間色調簡約，頗有無印良品的舒適感，盥洗用品則使用荷蘭天然香氛品牌。同時也是間寵物友善旅店，貓奴狗奴們也可以與你的毛小孩共度假日時光。",
        "address": "台北市大安區仁愛路四段27巷25號",
        "region": "大安區",
        "city": "台北市",
        "place_id": "ChIJQYzd58yrQjQRMxp7e6xhxxY",
        "lat": 25.0404303,
        "lng": 121.5454438,
        "time": "星期一: 24 小時營業\n星期二: 24 小時營業\n星期三: 24 小時營業\n星期四: 24 小時營業\n星期五: 24 小時營業\n星期六: 24 小時營業\n星期日: 24 小時營業"
    },
    {
        "id": 3,
        "name": "喜瑞飯店",
        "star": 4.4,
        "info": "緊鄰一整片台北市景透明落地窗的浴缸照相信大家都不陌生，取景地就是這家橫掃大家IG的【喜瑞飯店】，這間台北住宿從外部建築到內部基調全都由白色組成潔白而舒適，一樓交誼廳還有提供免費下午茶，無論是商務或度假都非常適合。",
        "address": "台北市中山區長安東路一段64號",
        "region": "中山區",
        "city": "台北市",
        "place_id": "ChIJt7OaWGSpQjQRQMYdqR15e3s",
        "lat": 25.04789289999999,
        "lng": 121.5293787,
        "time": "星期一: 24 小時營業\n星期二: 24 小時營業\n星期三: 24 小時營業\n星期四: 24 小時營業\n星期五: 24 小時營業\n星期六: 24 小時營業\n星期日: 24 小時營業"
    },
    {
        "id": 4,
        "name": "台北時代寓所",
        "star": 4.4,
        "info": "隸屬於知名飯店「希爾頓集團」旗下的【台北時代寓所】這間台北住宿，以電影膠卷盒為設計理念的建築，濃濃藝術感與設計感不說，最重要的早餐有別於一般飯店的自助餐，這裡特別邀請大家最愛的星巴克進駐飯店一樓，入住的房客們可以盡享高品質咖啡與餐點，享受包場星巴克的快感。",
        "address": "台北市中正區林森南路7號",
        "region": "中正區",
        "city": "台北市",
        "place_id": "ChIJxR84V3CpQjQRLC3zJq_aA8M",
        "lat": 25.0440134,
        "lng": 121.523349,
        "time": "星期一: 24 小時營業\n星期二: 24 小時營業\n星期三: 24 小時營業\n星期四: 24 小時營業\n星期五: 24 小時營業\n星期六: 24 小時營業\n星期日: 24 小時營業"
    },
    {
        "id": 5,
        "name": "二十輪旅店大安館",
        "star": 4.4,
        "info": "想入住質感旅店又不想花大錢的話，【二十輪旅店大安館】這間台北住宿會是你可以列入口袋名單的選擇之一！以純白色調為底，黑色金色點綴其中的整體印象非常舒適，配上室內打燈有種置身未來太空艙的錯覺，客房則是日式簡約配置與科技質感家電、Boss音響等共譜，空氣中還飄著淡淡香氛，就連嗅覺也被征服！",
        "address": "台北市大安區大安路一段185號",
        "region": "大安區",
        "city": "台北市",
        "place_id": "ChIJJZz0UNCrQjQRFvEkk_rRa5s",
        "lat": 25.0361774,
        "lng": 121.5461882,
        "time": "星期一: 24 小時營業\n星期二: 24 小時營業\n星期三: 24 小時營業\n星期四: 24 小時營業\n星期五: 24 小時營業\n星期六: 24 小時營業\n星期日: 24 小時營業"
    },
    {
        "id": 6,
        "name": "松山意舍酒店",
        "star": 4.3,
        "info": "走年輕手繪都市風的【意舍酒店】這間台北住宿，外牆英文題字amba非常顯眼，在台北目前已有三家分館，其中松山分館略略遠離塵囂，卻又不失完備的購物美食機能，如CITYLINK松山店、蔦屋書店、饒河夜市等散步就可抵達，能飽覽101與基隆河畔絕佳的落地景觀更是一大賣點。",
        "address": "台北市南港區市民大道七段8號",
        "region": "南港區",
        "city": "台北市",
        "place_id": "ChIJBa1E152rQjQRnwWQP1HSkSc",
        "lat": 25.0493928,
        "lng": 121.5803545,
        "time": "星期一: 24 小時營業\n星期二: 24 小時營業\n星期三: 24 小時營業\n星期四: 24 小時營業\n星期五: 24 小時營業\n星期六: 24 小時營業\n星期日: 24 小時營業"
    },
    {
        "id": 7,
        "name": "寒舍艾麗酒店",
        "star": 4.1,
        "info": "位在台北市信義區市中心的【寒舍艾麗酒店】這間台北住宿，走都會時尚質感風，是一家五星級飯店，與松高微風廣場相連，且新光三越、BELLAVITA寶麗廣場等購物指標就在隔壁，可說是身處黃金地段。此外舒適的Sealy名床、房內免費使用的膠囊咖啡機、以及飯店 7 樓有台北101及微風信義大樓作伴的夢幻露天泳池等都是令人手刀下訂的關鍵。",
        "address": "台北市信義區松高路18號",
        "region": "信義區",
        "city": "台北市",
        "place_id": "ChIJaZ9KuiOrQjQR5lAZcRypzNo",
        "lat": 25.0386933,
        "lng": 121.567342,
        "time": "星期一: 24 小時營業\n星期二: 24 小時營業\n星期三: 24 小時營業\n星期四: 24 小時營業\n星期五: 24 小時營業\n星期六: 24 小時營業\n星期日: 24 小時營業"
    },
    {
        "id": 8,
        "name": "北門世民酒店",
        "star": 4.3,
        "info": "【北門世民酒店】這間台北住宿，也是一家很適合小資族入住的質感酒店，在忠孝橋拆除後的北門景觀有如180度大轉變的遼闊，隨後也吸引荷蘭新潮飯店品牌進駐周邊，有如英文名citizen M主打每個公民都能入住，高貴而不貴的簡約設計感路線最低千元初頭就住得到，採高科技自助入住也降低了制式感，配有景觀窗的客房還能飽覽市景ＣＰ值非常高。",
        "address": "台北市中正區中華路一段3號",
        "region": "中正區",
        "city": "台北市",
        "place_id": "ChIJt7zzsQ2pQjQR7sg0Xc2rpss",
        "lat": 25.0473607,
        "lng": 121.5104759,
        "time": "星期一: 24 小時營業\n星期二: 24 小時營業\n星期三: 24 小時營業\n星期四: 24 小時營業\n星期五: 24 小時營業\n星期六: 24 小時營業\n星期日: 24 小時營業"
    },
    {
        "id": 9,
        "name": "W_hotel",
        "star": 4.3,
        "info": "就算沒住過但你一定也聽過的【W hotle 】，這間台北住宿位在與統一阪急百貨及誠品信義為鄰信義區中心，大坪數的客房寬敞摩登，入住即可享受LCD液晶電視、Bose音響、附有膠囊咖啡的mini bar等五星級高端飯店的標配，露天派對泳池、窗外還有超近的101作伴等，不僅是旅人朝聖入住的首選之一，每逢跨年節慶也是年輕族群們舉辦派對的熱門地點。",
        "address": "台北市信義區忠孝東路5段10號",
        "region": "信義區",
        "city": "台北市",
        "place_id": "ChIJgSeCsqSrQjQRZql8DEzsovs",
        "lat": 25.0408632,
        "lng": 121.5655265,
        "time": "無"
    },
    {
        "id": 10,
        "name": "北投加賀屋",
        "star": 4.3,
        "info": "太想念日本旅遊的話，不妨來【北投加賀屋】這間台北住宿來個偽出國和風體驗吧！日本百年老店加賀屋海外的唯一分館就選在台灣的北投，無論是接待到入住的所有流程、客房、茶道表演、大浴場陳設、早餐等都完美複製，細緻的服務與精心打造的住宿氛圍，踏入北投加賀屋彷彿進入時空隧道般，一秒就來到日本石川和倉。",
        "address": "台北市北投區光明路236號",
        "region": "北投區",
        "city": "台北市",
        "place_id": "ChIJD_kMuESuQjQRReNZWMQR-S8",
        "lat": 25.1360572,
        "lng": 121.5071165,
        "time": "星期一: 24 小時營業\n星期二: 24 小時營業\n星期三: 24 小時營業\n星期四: 24 小時營業\n星期五: 24 小時營業\n星期六: 24 小時營業\n星期日: 24 小時營業"
    },
    {
        "id": 11,
        "name": "和苑三井花園飯店",
        "star": 4.3,
        "info": "同樣由日本飯店集團來台設點的還有【和苑三井花園飯店】這間台北住宿，不僅設計沿襲日本商務旅館的低調奢華風格，注重小細節客房也整套複製過來，台灣的空間還比日本更大一些。沐浴備品使用日本花王系列，洗澡也能沈浸在滿滿「日味」裡。若想回味日本泡湯的感覺，頂樓還有大浴場可以使用 ，在台灣也能彷彿置身日本的住宿體驗！",
        "address": "台北市大安區忠孝東路三段30號",
        "region": "大安區",
        "city": "台北市",
        "place_id": "ChIJGcgzQjSrQjQR5NU7J7KyZmg",
        "lat": 25.0418404,
        "lng": 121.5343175,
        "time": "星期一: 24 小時營業\n星期二: 24 小時營業\n星期三: 24 小時營業\n星期四: 24 小時營業\n星期五: 24 小時營業\n星期六: 24 小時營業\n星期日: 24 小時營業"
    },
    {
        "id": 12,
        "name": "台北慕舍酒店",
        "star": 4.5,
        "info": "提到【台北暮舍酒店】這間台北住宿，就不得不提他與世界七大酒莊聯名 、進駐西班牙米其林二星餐廳等貫徹美食、美酒、藝術、生活概念的鮮明特色。定位為精品酒店，備品部分除了使用義大利Allegrini香氛沐浴系列外、另外也與「酒」呼應提供酒粕製作的香皂，而最不能錯過的莫過於每日限定，可免費暢飲七大酒莊的Happy hour了。",
        "address": "台北市中山區建國北路一段61號",
        "region": "中山區",
        "city": "台北市",
        "place_id": "ChIJUSYnwDKqQjQRanXaUWL2qOE",
        "lat": 25.05061169999999,
        "lng": 121.5371284,
        "time": "星期一: 24 小時營業\n星期二: 24 小時營業\n星期三: 24 小時營業\n星期四: 24 小時營業\n星期五: 24 小時營業\n星期六: 24 小時營業\n星期日: 24 小時營業"
    },
    {
        "id": 13,
        "name": "北投麗禧溫泉酒店",
        "star": 4.5,
        "info": "【麗禧溫泉酒店】這間台北住宿位在台北北投最高點，離市區不遠卻有環山圍繞的隱世感，是一家從裡到外皆賓至如歸的破萬的五星級高級日式飯店。建築及景致不說，房內備有獨立冷熱分離泡湯池外、館內還有彷彿置身日本的露天及半露天風呂、蒸氣浴、石板浴等，中庭還有伴隨著桂花樹的水舞台，是館內的拍照打卡亮點，完全你是度假的首選。",
        "address": "台北市北投區幽雅路30號",
        "region": "北投區",
        "city": "台北市",
        "place_id": "ChIJ6TCF5WmuQjQRm9DanoDx2Mc",
        "lat": 25.1377927,
        "lng": 121.51499,
        "time": "星期一: 24 小時營業\n星期二: 24 小時營業\n星期三: 24 小時營業\n星期四: 24 小時營業\n星期五: 24 小時營業\n星期六: 24 小時營業\n星期日: 24 小時營業"
    },
    {
        "id": 14,
        "name": "誠品行旅",
        "star": 4.4,
        "info": "總給人安定沈穩書卷氣息的誠品書店，也於松菸文創園區插旗了一家【誠品行旅】。進門的大廳書房就是由超過五千本書及義大利手工椅打造而成，宛如包場整個高級版的誠品書店，房內則使用歐舒丹沐浴備品、Dyson吹風機、再搭配Bose音響，窗外還能與101大樓及信義商辦大樓共譜的市景對望，能在這城市綠洲上住一晚想必身心靈都能獲得沈澱。",
        "address": "台北市信義區菸廠路98號",
        "region": "信義區",
        "city": "台北市",
        "place_id": "ChIJx1lBG7-rQjQRcqXyIk72lLI",
        "lat": 25.0445778,
        "lng": 121.5620195,
        "time": "無"
    },
    {
        "id": 15,
        "name": "板橋凱薩飯店",
        "star": 4,
        "info": "堪稱板橋信義區的板橋車站是新北商務及旅行的重要地段，而【板橋凱薩飯店】這間台北住宿就位在林立的重劃大樓之中。走進飯店那挑高金碧輝煌的大廳、舒適寬敞的公共空間、整體選色及氛圍等無處不散發星級飯店的經典氣派。客房還選用king size的美國舒達床墊，手腳盡情伸展大字型睡也ＯＫ，而來到板橋凱薩最不能錯過的當然還是頂樓的高空無邊際游泳池囉。",
        "address": "新北市板橋區縣民大道二段8號",
        "region": "板橋區",
        "city": "新北市",
        "place_id": "ChIJc0xjJByoQjQRHyHl1V2DpAI",
        "lat": 25.0117834,
        "lng": 121.4627444,
        "time": "星期一: 24 小時營業\n星期二: 24 小時營業\n星期三: 24 小時營業\n星期四: 24 小時營業\n星期五: 24 小時營業\n星期六: 24 小時營業\n星期日: 24 小時營業"
    },
    {
        "id": 16,
        "name": "板橋希爾頓飯店",
        "star": 4.1,
        "info": "緊鄰板橋凱薩飯店的，則是新板特區第一個國際連鎖飯店品牌【板橋希爾頓飯店】，這間台北住宿的空間及客房皆與凱薩不相上下的寬敞，入住即可享受香氛迷人的瑰柏翠備品系列，最重要的床鋪也選用美國舒達名床，且全客房都配有雙洗手台，洗澡刷牙不怕互搶。當然不能忘了32樓與凱薩大飯店共用的網美無邊際泳池，下午可欣賞午後夕陽，晚上則能欣賞居高臨下的新北夜景。",
        "address": "新北市板橋區民權路88號",
        "region": "板橋區",
        "city": "新北市",
        "place_id": "ChIJs1GpJhyoQjQR9ul-GAq0ibg",
        "lat": 25.0113092,
        "lng": 121.4624908,
        "time": "星期一: 24 小時營業\n星期二: 24 小時營業\n星期三: 24 小時營業\n星期四: 24 小時營業\n星期五: 24 小時營業\n星期六: 24 小時營業\n星期日: 24 小時營業"
    },
    {
        "id": 17,
        "name": "金山暮光民宿",
        "star": 4.5,
        "info": "不想住星級飯店那就到新北近郊與大海環山為臨吧，位在金山的【暮光民宿】這間台北住宿，是一家蓋在面海的小山丘無人度假民宿，純白建築自帶小池塘的私人招待所非常顯眼。每間客房都有整面落地窗，變化萬千的海景就是天然的液晶螢幕，房內簡約兼具設計感的傢俱及擺設等樣樣都是精挑細選，說是拍偶像劇的場景一點也不為過。",
        "address": "新北市金山區忠義路38號",
        "region": "金山區",
        "city": "新北市",
        "place_id": "ChIJOcyaOitLXTQRcEpcEafMTx4",
        "lat": 25.262077,
        "lng": 121.62906,
        "time": "無"
    },
    {
        "id": 18,
        "name": "惠來谷關溫泉飯店",
        "star": 4.1,
        "info": "充滿南洋風情的惠來谷關溫泉飯店，同樣擁有原始自然特色，以木頭、石頭打造的建築，從飯店大廳到房間內都有大量的綠色植栽，彷彿置身在大自然中，搭配谷關山景一秒來到峇里島度假感。雖然沒有戶外的大眾池，但是在每個房間都有獨立浴池，一次享受溫泉與冷泉，洗滌一身的疲勞。",
        "address": "台中市和平區東關路一段溫泉巷10號",
        "region": "和平區",
        "city": "台中市",
        "place_id": "ChIJHfyH1mnkaDQR7qUSqMpmSUQ",
        "lat": 24.20416489999999,
        "lng": 121.0107946,
        "time": "星期一: 24 小時營業\n星期二: 24 小時營業\n星期三: 24 小時營業\n星期四: 24 小時營業\n星期五: 24 小時營業\n星期六: 24 小時營業\n星期日: 24 小時營業"
    },
    {
        "id": 19,
        "name": "九份山城逸境",
        "star": 4.7,
        "info": "另一家在九份也極為搶手的景觀民宿【山城逸境】，這間台北住宿不同於一般海景房景觀，這裏多了九份山城獨有的山丘與島嶼與海洋相伴，讓畫面更為詩情畫意，上頂樓還有180度的觀景露台可以坐擁整片山水畫。肚子餓有無限享用的膠囊咖啡及麵包24小時Mini BAR，沐浴使用Arenes有機備品，設施部分也採用木質地板與大理石隔牆等，堪稱高品質的五星級民宿。",
        "address": "新北市瑞芳區基山街195號3樓",
        "region": "瑞芳區",
        "city": "新北市",
        "place_id": "ChIJhdoZbD1FXTQRSWdIFpme7ME",
        "lat": 25.1075553,
        "lng": 121.8428039,
        "time": "星期一: 10:00 – 20:00\n星期二: 10:00 – 20:00\n星期三: 10:00 – 20:00\n星期四: 10:00 – 20:00\n星期五: 10:00 – 20:00\n星期六: 10:00 – 20:00\n星期日: 10:00 – 20:00"
    },
    {
        "id": 20,
        "name": "OwlStay_山中夢遊_綠光",
        "star": 4.4,
        "info": "外表看似一般民宅的【山中夢遊‧綠光】這間台北住宿，是一家以保留老屋精華，加入設計元素的九份住宿旅店。保留原始屋舍同時融合現代住宿元素，翻修過的內部古今交錯卻又不失舒適簡潔，讓感官換然一新。設計過後擁有舒適的亮麗外表，但老宅原始結構所散發出的古香風情，是各種星級飯店無法取代的藝術，並且價格樸實非常物超所值。",
        "address": "新北市瑞芳區輕便路320號",
        "region": "瑞芳區",
        "city": "新北市",
        "place_id": "ChIJCxe9uj1FXTQRyC1MWVID2rY",
        "lat": 25.107298,
        "lng": 121.8417939,
        "time": "星期一: 09:30 – 19:00\n星期二: 09:30 – 19:00\n星期三: 09:30 – 19:00\n星期四: 09:30 – 19:00\n星期五: 09:30 – 19:00\n星期六: 09:30 – 19:00\n星期日: 09:30 – 19:00"
    },
    {
        "id": 21,
        "name": "墾丁亞曼達會館",
        "star": 4.8,
        "address": "屏東縣恆春鎮南灣路330號",
        "city": "屏東縣",
        "region": "恆春鎮",
        "info": "這家位在墾丁南灣的【墾丁亞曼達會館】以摩洛哥為飯店印象為主軸，超浮誇的帝國宮廷風villa更曾經吸引台灣女歌手蔡依林來這拍攝MV！外觀橘黃色的主體建築、噴水池、茂密的椰子樹已夠有南島度假氣氛了，入內後可見身著中東服飾的接待人員、任何傢俱細節都不放過的富麗堂皇大廳、以及多采多姿的客房及長廊等每個角落等，有如置身迪士尼樂園主題裡一般，頓時完全忘記人還在台灣！",
        "place_id": "ChIJR1mREACxcTQRhA1DZLZWQPo",
        "lat": 21.9662787,
        "lng": 120.7580547,
        "time": "星期一: 24 小時營業\n星期二: 24 小時營業\n星期三: 24 小時營業\n星期四: 24 小時營業\n星期五: 24 小時營業\n星期六: 24 小時營業\n星期日: 24 小時營業"
    },
    {
        "id": 22,
        "name": "聖都Villa",
        "star": 4.3,
        "address": "屏東縣恆春鎮興北路興東巷32號",
        "city": "屏東縣",
        "region": "恆春鎮",
        "info": "還買不起私人別墅的話沒關係，先到墾丁的【聖都Villa】見習一下吧！無論你是小倆口還是全家大小三五好友都很適合，在這高達270平方公尺的私人空間裡，不但有超大的柚木床，還有90坪的專屬獨棟景觀庭園、10米花園泳池、露天按摩澡池、戶外躺椅等，浴室及泳池畔還幫你裝好環繞Bose喇叭，完全就是頂級的夢想中度假別墅指標，相信住過的你也會更想努力賺錢的！",
        "place_id": "ChIJl8jGC7OwcTQR91rX6DCvCOY",
        "lat": 22.010899,
        "lng": 120.727525,
        "time": "星期一: 09:00 – 21:00\n星期二: 09:00 – 21:00\n星期三: 09:00 – 21:00\n星期四: 09:00 – 21:00\n星期五: 09:00 – 21:00\n星期六: 09:00 – 21:00\n星期日: 09:00 – 21:00"
    },
    {
        "id": 23,
        "name": "後面有灣",
        "star": 4.7,
        "address": "屏東縣車城鄉後灣路34號",
        "city": "屏東縣",
        "region": "車城鄉",
        "info": "藏身在恆春秘境後灣的【後面有灣】恰好位在屏東海生館與恆春市區中間，遠離熱鬧的墾丁大街位置不但格外寧靜，遠處就有一處後灣沙灘可靜享南國度假時光。以水泥及純白色調為主軸的住宿空間而低調簡單，伴隨點綴元素如乾燥花、木頭傢俱等增添不少質感。其中最熱門的就是這間「Hooope .1 雙人房」，帶有陽台私人泳池，且還可以望向陽台外的大海，最重要的是隔天還可以加價將你的早餐升級漂浮早餐，像電影般在游泳池裡吃早餐相當療癒！",
        "place_id": "ChIJJ2DvWNu5cTQRZLLt5aWhpQA",
        "lat": 22.0418008,
        "lng": 120.6985668,
        "time": "無"
    },
    {
        "id": 24,
        "name": "初見恆美villa",
        "star": 4.1,
        "address": "屏東縣恆春鎮三溝路麥畑巷72號",
        "city": "屏東縣",
        "region": "恆春鎮",
        "info": "位在恆春的這一整排美學建築【初見 • 恆美】是真的可以入住的度假villa！每一棟都是獨門獨戶的設計不互相干擾，建築物前方是一整片伴隨著盪鞦韆的千坪庭園，入住時就像是回到自己在墾丁買的度假別墅般。依入住人數可自由選擇兩人、四人及六人的獨棟泳池Villa房型，在villa裡到處都是整排的落地窗，可以遠眺墾丁的山景，想玩水時不用跑到海灘，私人泳池就能玩得盡興！",
        "place_id": "ChIJYarbGIW3cTQRcpVyakhhj1E",
        "lat": 22.0147601,
        "lng": 120.7226844,
        "time": "星期一: 08:00 – 21:30\n星期二: 08:00 – 21:30\n星期三: 08:00 – 21:30\n星期四: 08:00 – 21:30\n星期五: 08:00 – 21:30\n星期六: 08:00 – 21:30\n星期日: 08:00 – 21:30"
    },
    {
        "id": 25,
        "name": "墾丁森57行館",
        "star": 4.9,
        "address": "屏東縣恆春鎮砂尾路68-2號",
        "city": "屏東縣",
        "region": "恆春鎮",
        "info": "擁有清水模外觀【墾丁森57行館】坐擁墾丁後壁湖居高臨下的位置，分別由 「森5時尚館」與「森7和風館」兩棟獨棟的別墅共譜。喜愛現代前衛風格的話可選擇受年輕人喜愛的「森5時尚館」，若是家庭旅遊或想入住榻榻米的和室房的話則可選擇「森7和風館」。不僅有大片草坪、戲水池等標準villa配備，入住還可享有DENON音響、雀巢膠囊咖啡機、精選沐浴備品等不馬乎的軟硬體設施，住過的都給予相當高的評價！",
        "place_id": "ChIJIybGWGmwcTQR3Vc5F7HUYoE",
        "lat": 21.9538575,
        "lng": 120.7308982,
        "time": "無"
    },
    {
        "id": 26,
        "name": "墾丁凱撒大飯店",
        "star": 4.3,
        "address": "屏東縣恆春鎮墾丁路6號",
        "city": "屏東縣",
        "region": "恆春鎮",
        "info": "說到入住墾丁飯店，這家【墾丁凱撒大飯店】絕對榜上有名！走峇里島度假風的飯店風格可是墾丁國家公園內第一間五星級飯店，至今已有30多年歷史，不僅飯店建築外觀相當有異於傳統飯店的南島風情，花園裡的椰林泳池更是令人賴著不想走，走到飯店對面就是小灣沙灘，飯店裡還有小朋友專屬的遊戲場、大人運動的健身房，隔天早上還能坐在2022年新落成的「發現西餐廳」一邊看著大尖山相伴的墾丁海景，一邊享用自助早餐，可說是寶刀未老。",
        "place_id": "ChIJSasblSeycTQRgax-wb8Dbis",
        "lat": 21.9426337,
        "lng": 120.8054442,
        "time": "無"
    },
    {
        "id": 27,
        "name": "華泰瑞苑墾丁賓館",
        "star": 4.5,
        "address": "屏東縣恆春鎮公園路101號",
        "city": "屏東縣",
        "region": "恆春鎮",
        "info": "前身是蔣公行館的【華泰瑞苑墾丁賓館】，位在墾丁國家公園的周邊，距離墾丁大街僅需十分鐘路程，又同時可以遠離塵囂享受幽靜的墾丁度假生活。整個飯店以白色為基底，無論是迎賓大廳、客房等都帶點日式簡約風且又不失質感，整體設計相當有氣質。這裡最受歡迎的絕美賣點，就是這處把大尖山當背景建造而成的戶外游泳池，異於其他墾丁飯店的海景游泳池，與大尖山為鄰的波光粼粼更是絕無僅有。",
        "place_id": "ChIJ45xJidSzcTQR5ipVFo4jRYM",
        "lat": 21.955538,
        "lng": 120.809107,
        "time": "星期一: 00:00 – 12:00\n星期二: 00:00 – 12:00\n星期三: 00:00 – 12:00\n星期四: 00:00 – 12:00\n星期五: 00:00 – 12:00\n星期六: 00:00 – 12:00\n星期日: 00:00 – 12:00"
    },
    {
        "id": 28,
        "name": "H會館H_RESORT",
        "star": 4.4,
        "address": "屏東縣獅子鄉竹坑村竹坑巷60號",
        "city": "屏東縣",
        "region": "獅子鄉",
        "info": "開車往墾丁的路上時，你是否也曾好奇到這UFO造型的建築物到你是什麼呢？其實這裡就是【墾丁H會館H RESORT】！圓形幽浮建築是餐廳，在這可以配著海景喝星巴克授權的咖啡、享受下午茶等。連結UFO建築的整幢飯店全館客房幾乎都是海景第一排，而幽浮正下方還有直通大海的無邊際泳池，有如置身異國。唯獨飯店位置離墾丁市區較遠，適合南下的旅人當成第一天晚上住宿，或有計劃順訪屏東海生館的落腳處。",
        "place_id": "ChIJixWdudLHcTQRpm5tFHX-QHQ",
        "lat": 22.1670836,
        "lng": 120.6968168,
        "time": "星期一: 24 小時營業\n星期二: 24 小時營業\n星期三: 24 小時營業\n星期四: 24 小時營業\n星期五: 24 小時營業\n星期六: 24 小時營業\n星期日: 24 小時營業"
    },
    {
        "id": 29,
        "name": "夏都沙灘酒店",
        "star": 4.3,
        "address": "屏東縣恆春鎮墾丁路451號",
        "city": "屏東縣",
        "region": "恆春鎮",
        "info": "還記得當年紅極一時台灣國片「海角七號」嗎？電影裡的眾多場景其實就是在這家【夏都沙灘酒店】拍攝的！已有二十年歷史的墾丁老字號度假飯店，不僅有電影的加持，此間墾丁海景飯店最大特色，就是入住即可獨享飯店專屬的私人一整片貝殼沙灘，下樓就可以直接泡在海裡面，洗完直接回房發呆完全一站式度假，專人管理的沙灘白天還有南國風的躺椅、沙灘車等設施，晚上更是觀星的好所在。",
        "place_id": "ChIJtYPNjJCxcTQRcVf2YyPUJIQ",
        "lat": 21.945904,
        "lng": 120.79007,
        "time": "星期一: 24 小時營業\n星期二: 24 小時營業\n星期三: 24 小時營業\n星期四: 24 小時營業\n星期五: 24 小時營業\n星期六: 24 小時營業\n星期日: 24 小時營業"
    },
    {
        "id": 30,
        "name": "Hotel_Everyday_Life_美好生活旅店",
        "star": 4.7,
        "address": "屏東縣恆春鎮船帆路580號",
        "city": "屏東縣",
        "region": "恆春鎮",
        "info": "位在墾丁知名景點帆船石的【 Hotel Everyday Life美好生活旅店】算是墾丁飯店中的一顆新秀之星，以純白的帆船為飯店外觀與地緣相呼應，伴隨著周邊椰子樹及背山的山景整體形象格外舒服。延續建築外表，入內後的大廳也以木頭、白牆、以及大量的綠色植物構成，配上由落地窗撒入的自然光以及窗外現成的帆船石景緻相當舒壓。這股溫暖的「美好生活」感也貫穿到每間客房，無論衛浴、洋和式的臥房等都相都有質感，備品更採用法國有機品牌「DAMANA」，超令人放鬆的飯店一住過就會愛上。",
        "place_id": "ChIJUU6W8w6zcTQRJXuMd_ILFbA",
        "lat": 21.93131099999999,
        "lng": 120.825539,
        "time": "星期一: 08:00 – 21:30\n星期二: 08:00 – 21:30\n星期三: 08:00 – 21:30\n星期四: 08:00 – 21:30\n星期五: 08:00 – 21:30\n星期六: 08:00 – 21:30\n星期日: 08:00 – 21:30"
    },
    {
        "id": 31,
        "name": "小屋克里夫",
        "star": 4.6,
        "address": "屏東縣恆春鎮大光路79-95號",
        "city": "屏東縣",
        "region": "恆春鎮",
        "info": "不大不小共五間客房的【小屋克里夫】擁有自己的庭院草原，每間客房都像自己的家，獨立一戶而且全數面海。僅有一層樓的長方行矮建築簡單大方，與後方海洋、藍天、白雲等完美融合。客房內走淡雅的設計風，膠囊咖啡機、歐舒丹備品等一應俱全，各項硬體衛浴設備也相當現代化。不讓度假Villa專美於前，走上二樓頂樓可坐擁整面海景，整個空間更被打造成露天發呆亭，一旁還有多個網美泡澡大浴缸簡直VIP享受！",
        "place_id": "ChIJbVTXkziwcTQRlWOuNmvkjN8",
        "lat": 21.9285099,
        "lng": 120.7387047,
        "time": "無"
    },
    {
        "id": 32,
        "name": "嵐翎白砂渡假莊園",
        "star": 4.7,
        "address": "屏東縣恆春鎮下泉路5-68號",
        "city": "屏東縣",
        "region": "恆春鎮",
        "info": "選定背對大尖山，正對白砂灣位置的【嵐翎白砂渡假莊園】是一家媲美五星級度假飯店的小造鎮度假莊園，園內以7棟紅瓦白牆的建築所構成，並與德國紅點設計獎設計師合作自然流露出藝術感。接待大廳、客房、公共空間皆使用大量原木，房內不僅沒因為靠海而有潮濕味，反而還帶點淡淡檜木香，床鋪舒適感及硬體設備更是不在話下。整個園區營造出時而希臘、時而日式的南島風情，而園內還隱藏著一處二戰所保留下來的愛情碉堡直得旅人細細探索。",
        "place_id": "ChIJByeZf8qxcTQRxCySFc4e8Yo",
        "lat": 21.9332466,
        "lng": 120.7236711,
        "time": "星期一: 07:30 – 00:00\n星期二: 07:30 – 00:00\n星期三: 07:30 – 00:00\n星期四: 07:30 – 00:00\n星期五: 07:30 – 00:00\n星期六: 07:30 – 00:00\n星期日: 07:30 – 00:00"
    },
    {
        "id": 33,
        "name": "聽著海聲迷路旅居",
        "star": 4.6,
        "address": "屏東縣恆春鎮萬里路25-3號946號",
        "city": "屏東縣",
        "region": "恆春鎮",
        "info": "萬里桐是平時觀光客較少到訪的墾丁潛水點，【聽著海聲迷路旅居】就坐落在這幽靜的小村落裡，與一旁的房舍呈現統一的白色調，不算太醒目的外觀，卻有著沖繩海島般的既視感。 入內後可由大廳後方的一整片落地玻璃透視後方樓梯結構，配上整體的文青質感風相當有度假氣息。房內由水泥地板、木製元素、別緻的傢俱、完美的衛浴空間等構成，每個角落都很細緻，最重要的是在房內抬頭向窗外一看，直接一連線到海平面的視角，叫人如何不陶醉。",
        "place_id": "ChIJE9wnSXO6cTQRM57F-12XMmo",
        "lat": 21.9961719,
        "lng": 120.7051837,
        "time": "無"
    },
    {
        "id": 34,
        "name": "日光_嶼南",
        "star": 4.8,
        "address": "屏東縣恆春鎮埔頂路191號",
        "city": "屏東縣",
        "region": "恆春鎮",
        "info": "2021年底才剛落成的【日光‧嶼南】一開幕就引起話題，一整片純白建築配上淡藍色的透明玻璃有如草原上的樣品屋，俐落簡約的外型設計也延伸至客房及公共空間，日式清新混合北歐設計風格，與墾丁的艷陽大海相當合拍。入住墾丁海邊民宿怎麼可以少了泳池，有別於常見的中庭泳池，【日光‧嶼南 】的是海天相連的空中泳池，正看是藍色的泳池與大海夾擊綠草原的特殊景象、側看則像是夢幻空中蓄水池般，隨意取景都像是在拍廣告。",
        "place_id": "ChIJsbDnV6-zcTQRLG6GSccIzcI",
        "lat": 21.9186398,
        "lng": 120.8476819,
        "time": "星期一: 10:00 – 21:00\n星期二: 10:00 – 21:00\n星期三: 10:00 – 21:00\n星期四: 10:00 – 21:00\n星期五: 10:00 – 21:00\n星期六: 10:00 – 21:00\n星期日: 10:00 – 21:00"
    },
    {
        "id": 35,
        "name": "日和灣居",
        "star": 4.8,
        "address": "屏東縣恆春鎮南灣路48號",
        "city": "屏東縣",
        "region": "恆春鎮",
        "info": "【日和灣居】位在墾丁最熱門的沙灘景點「南灣」，隔著一條馬路不僅玩水超方便，略高的位置也因此能夠坐擁墾丁海景及沙灘景緻。穿梭其中的廊道將三棟純白房舍連結起來猶如一個小型社區，每個房間幾乎都有獨立的望海陽台，配上周圍同色調的房舍有種置身小希臘的錯覺。精緻而兼約的內部環境配上打入室內的光影變化，度假氣氛滿點，沐浴備品更使用文華東方酒店御用的美國百年C.O.BIGELOW，隔日媲美早午餐專賣店等級的早餐也令口水直流，Google高達4.8 顆星的評價可見非浪得虛名。",
        "place_id": "ChIJUTGvb6SxcTQRzUlmUu_oBjc",
        "lat": 21.958772,
        "lng": 120.7672813,
        "time": "星期一: 07:00 – 22:00\n星期二: 07:00 – 22:00\n星期三: 07:00 – 22:00\n星期四: 07:00 – 22:00\n星期五: 07:00 – 22:00\n星期六: 07:00 – 22:00\n星期日: 07:00 – 22:00"
    },
    {
        "id": 36,
        "name": "台中豐邑Moxy酒店",
        "star": 3.8,
        "address": "408台灣台中市南屯區文心南六路288號",
        "city": "台中市",
        "region": "南屯區",
        "info": "台中最新開幕的網美飯店「台中豐邑MOXY飯店」是萬豪集團旗下最新的飯店品牌，以「平價、時尚潮流」打造前衛又大膽的夜店風飯店，從一樓大廳的撞球桌、手足球、桌遊，還有美拍打卡裝置，一樓除了是餐廳也是酒吧，而頂樓Sky bar 更是「豐邑MOXY飯店」的大亮點，非常適合小情侶或是姊妹遊，幸運的話還有機會參加飯店的夜間Party活動喔！",
        "place_id": "ChIJk2_vW3A9aTQRKQMsJZQhSa8",
        "lat": 24.1310075,
        "lng": 120.6466951,
        "time": "星期一: 24 小時營業\n星期二: 24 小時營業\n星期三: 24 小時營業\n星期四: 24 小時營業\n星期五: 24 小時營業\n星期六: 24 小時營業\n星期日: 24 小時營業"
    },
    {
        "id": 37,
        "name": "林酒店The_Lin_Hotel",
        "star": 4.2,
        "address": "407024台灣台中市西屯區朝富路99號",
        "city": "台中市",
        "region": "西屯區",
        "info": "在台中高級飯店清單中名列前矛的林酒店The Lin ，位於台中高級住宅區七期，對面即是台中老虎城、附近則有秋紅谷與台中國家歌劇院。高級奢華的新穎風格、還有露天溫水泳池、健身房、高空天際酒廊等。林酒店附贈的飯店早餐更是豪華，從日式、西式、港式及中式等，應有進有，晚上林百匯吃得到的甜點，在早餐也能盡情享用，甚至一大早就有酒精飲料，讓你還沒睡醒就開喝！",
        "place_id": "ChIJd1P7ffE9aTQR8Z68Nj3NVIc",
        "lat": 24.1652159,
        "lng": 120.6371926,
        "time": "無"
    },
    {
        "id": 38,
        "name": "二八樹巷旅宿_28shuxiang",
        "star": 4.7,
        "address": "台中市西屯區櫻城一街85號",
        "city": "台中市",
        "region": "西屯區",
        "info": "離逢甲夜市步行只要十分鐘的「二八樹巷旅宿」，希望可以打造出民宿的親切及旅館的細膩，故取名為旅宿。也正如飯店名稱樹巷一般，周圍處處都是綠色植栽圍繞，嚴禁「不」拍照，當然得要遵守館內規定盡情拍照打卡囉！二八樹巷旅宿門口前就是一個小公園，飯店有提供遊戲車可以外借，帶小朋友到公園消耗電力，很適合親子住宿。",
        "place_id": "ChIJR-gPViYWaTQRd7l183Bgb9s",
        "lat": 24.172502,
        "lng": 120.6517216,
        "time": "星期一: 07:00 – 23:00\n星期二: 07:00 – 23:00\n星期三: 07:00 – 23:00\n星期四: 07:00 – 23:00\n星期五: 07:00 – 23:00\n星期六: 07:00 – 23:00\n星期日: 07:00 – 23:00"
    },
    {
        "id": 39,
        "name": "希堤微旅_逢甲店",
        "star": 4.3,
        "address": "台中市西屯區上石路158號",
        "city": "台中市",
        "region": "西屯區",
        "info": "「希堤微旅」是知名建築師張景堯設計，以白色為主軸，主打文青簡約風格的設計旅店，櫃檯天花板以及從房間延伸出陽台的馬賽克磁磚牆面則是採用台中市區的街道圖為概念。像是一樓輕工業風的水泥樓梯、設計多面落地玻璃窗可享用早餐的 2 樓餐廳，館內每個角落都超適合拍照！",
        "place_id": "ChIJvR8yioo9aTQRM3cvz4GAmH4",
        "lat": 24.1699025,
        "lng": 120.6455684,
        "time": "星期一: 08:00 – 22:00\n星期二: 08:00 – 22:00\n星期三: 08:00 – 22:00\n星期四: 08:00 – 22:00\n星期五: 08:00 – 22:00\n星期六: 08:00 – 22:00\n星期日: 08:00 – 22:00"
    },
    {
        "id": 40,
        "name": "星享道酒店",
        "star": 4,
        "address": "台中市西屯區福星北路18號",
        "city": "台中市",
        "region": "西屯區",
        "info": "鄰近逢甲夜市的「星享道酒店」，走進酒店給人的那種溫暖色調，就像是回到家一樣般舒服。星享道酒店房間坪數都超大，適合全家大小入住，網友實際住宿心得分享「星享道酒店」雖鄰近熱鬧的逢甲夜市，但飯店隔音設備不錯，來到逢甲想找個安靜的住宿環境，星享道會是不錯的推薦選擇喔！",
        "place_id": "ChIJMTCfOz0WaTQRMHxo-K-IUJI",
        "lat": 24.1828703,
        "lng": 120.6450211,
        "time": "星期一: 24 小時營業\n星期二: 24 小時營業\n星期三: 24 小時營業\n星期四: 24 小時營業\n星期五: 24 小時營業\n星期六: 24 小時營業\n星期日: 24 小時營業"
    },
    {
        "id": 41,
        "name": "文華道會館",
        "star": 4.1,
        "address": "台中市西屯區文華路138巷31號",
        "city": "台中市",
        "region": "西屯區",
        "info": "同樣是星享道旗下的「文華道會館」則是走質感風，飯店外觀雖不像「星享道酒店」那麼氣派，但這裡可以說是台中第一間以「藝術」為概念所打造的精緻飯店，也是該集團特別聘請十位藝術家及設計師聯合打造的創始飯店喔！飯店內有不少收藏藝術品的身影，宛如進到美術館般，雖然空間小而巧少了些公共設施，但是充滿放鬆的氛圍，逛街逛累了飯店還有提供泡腳服務喔！",
        "place_id": "ChIJt8eq6zwWaTQRMSsYROx8dhY",
        "lat": 24.1829646,
        "lng": 120.6471133,
        "time": "星期一: 24 小時營業\n星期二: 24 小時營業\n星期三: 24 小時營業\n星期四: 24 小時營業\n星期五: 24 小時營業\n星期六: 24 小時營業\n星期日: 24 小時營業"
    },
    {
        "id": 42,
        "name": "逢甲微行商旅_Micro_Hotel",
        "star": 4.1,
        "address": "台中市西屯區福星路333號",
        "city": "台中市",
        "region": "西屯區",
        "info": "「逢甲微行商旅」外觀整體以清水模也就是混凝土風格設計，客房內則搭配各式風格壁紙，讓水泥工業風更有溫度不會太過冷清。座落於逢甲商圈附近，距離逢甲夜市步行只要一分鐘！不管是怕夜市人潮太多想買回房間吃，或是逛到吃太撐也不怕回飯店的路太遠喔！早餐還有提供超級台中味的東泉辣椒醬也讓網友瘋狂點讚。",
        "place_id": "ChIJQ6ri-FMXaTQRzfV54APbwY0",
        "lat": 24.1810242,
        "lng": 120.6452017,
        "time": "星期一: 24 小時營業\n星期二: 24 小時營業\n星期三: 24 小時營業\n星期四: 24 小時營業\n星期五: 24 小時營業\n星期六: 24 小時營業\n星期日: 24 小時營業"
    },
    {
        "id": 43,
        "name": "鳥人創意旅店",
        "star": 4.6,
        "address": "台中市北屯區經貿三路二段55號",
        "city": "台中市",
        "region": "北屯區",
        "info": "如果旅行是為了短暫逃離現實生活，那麼整體充滿非現實特色的「鳥人創意旅店」，像是住在地下岩洞般的「原始洞穴」房型，絕對是不能錯過的住宿選擇；而「地下酒窖」般設計的樓中樓房型、融入海底元素的「海底洞穴」等，每間房都超脫離現實，讓人拍個不停啊！",
        "place_id": "ChIJsz8obgsXaTQROldkCvvl60I",
        "lat": 24.1888751,
        "lng": 120.6610094,
        "time": "無"
    },
    {
        "id": 44,
        "name": "潛立方旅館",
        "star": 4.3,
        "address": "台中市西屯區安和西路69號",
        "city": "台中市",
        "region": "西屯區",
        "info": "「潛立方旅館 」是亞洲第一家可以潛水的旅館，擁有亞洲最深的室內深潛池。建築外觀雖然是現代風的立方體，館內卻處處帶入郵輪船艙及海洋元素，更將客房打造成上下舖的船艙風格。結合潛水與住宿，一年四季都可不受氣候影響在都市中享受出海旅遊的氣氛。",
        "place_id": "ChIJ3yeHIQAWaTQR0VeKjC9QDLk",
        "lat": 24.1762681,
        "lng": 120.6209738,
        "time": "星期一: 24 小時營業\n星期二: 24 小時營業\n星期三: 24 小時營業\n星期四: 24 小時營業\n星期五: 24 小時營業\n星期六: 24 小時營業\n星期日: 24 小時營業"
    },
    {
        "id": 45,
        "name": "余舍行旅",
        "star": 3.9,
        "address": "台中市西屯區環中路二段1129號",
        "city": "台中市",
        "region": "西屯區",
        "info": "余舍行旅是2019年5月開幕營運的旅店，緊鄰高鐵通往市區的環中路和國道一高交流道，附近有逢甲商圈、國家歌劇院、中科園區和水湳經貿園區。最吸引人的就是那藝術品般的外觀，擁有媲美20世紀建築師高第作品的美名；房內設施也相當引人入勝，若想泡湯俯瞰台中夜景，余舍的鵝蛋型浴缸房型擁有一流的百萬夜景；夜晚不妨到逢甲夜市打包一輪美食，再來一輪舒服愜意的泡湯，最後一覺醒來還有超奢華的牛排早餐，讓您吃好、住好，帶著滿意的心情繼續旅行。",
        "place_id": "ChIJg987FtMXaTQReoQ4INSxa3E",
        "lat": 24.1827048,
        "lng": 120.6363965,
        "time": "星期一: 24 小時營業\n星期二: 24 小時營業\n星期三: 24 小時營業\n星期四: 24 小時營業\n星期五: 24 小時營業\n星期六: 24 小時營業\n星期日: 24 小時營業"
    },
    {
        "id": 46,
        "name": "隱和旅",
        "star": 4.5,
        "address": "台中市西屯區西屯路二段272-16號",
        "city": "台中市",
        "region": "西屯區",
        "info": "雖鄰近熱鬧的逢甲夜市，不過隱和旅卻能帶給您靜謐舒適的享受。隱和旅地點位置相當棒，距離逢甲也是步行不超過10分鐘即可抵達，開車族也可先將愛車停泊在飯店內，解決逢甲夜市停車困擾。而飯店房型不僅乾淨明亮，二樓還有很棒的開放空間和一處IG拍照打卡公共藝術，並提供簡易廚房可使用，加上房價合理划算，是許多國外旅客也喜歡的高CP值首選。",
        "place_id": "ChIJ4Yq2tyEWaTQRAjC1lQ9gvwE",
        "lat": 24.1752931,
        "lng": 120.6442895,
        "time": "星期一: 24 小時營業\n星期二: 24 小時營業\n星期三: 24 小時營業\n星期四: 24 小時營業\n星期五: 24 小時營業\n星期六: 24 小時營業\n星期日: 24 小時營業"
    },
    {
        "id": 47,
        "name": "浮雲客棧",
        "star": 4.4,
        "address": "台中市西屯區西安街277巷59號",
        "city": "台中市",
        "region": "西屯區",
        "info": "住宿總是怕有過多人員干擾？不如就選台中近年最夯的自動化入住旅店吧！距離逢甲夜市不超過10分鐘步行距離的浮雲客棧，主打智能無人體驗旅館，大廳由機器提供自助報到，還有超酷的機械手臂做行李寄放服務，而飯店備品則由運送機器人來完成任務！超高科技感的旅館其房間裝潢卻相當溫馨有人情味，溫暖舒適的床鋪，配上無敵的落地窗景，真的就像浮在雲中輕鬆自在。",
        "place_id": "ChIJKyPeC_QXaTQREgfvRB6yWpc",
        "lat": 24.1836734,
        "lng": 120.6478339,
        "time": "星期一: 24 小時營業\n星期二: 24 小時營業\n星期三: 24 小時營業\n星期四: 24 小時營業\n星期五: 24 小時營業\n星期六: 24 小時營業\n星期日: 24 小時營業"
    },
    {
        "id": 48,
        "name": "台中植光花園酒店",
        "star": 4.4,
        "address": "台中市中區光復路52號",
        "city": "台中市",
        "region": "中區",
        "info": "由紐西蘭建築師Fearon Hay Architests設計，「台中植光花園酒店 」保留了台中市區老建築原本的風貌，外觀看起來就像是廢棄大樓一般，館內也很多直接裸露的水泥或磚牆，完全展現出廢墟工業風格，但透過天井陽光灑落的中庭再加上綠色植栽，映襯出現代設計的俐落感。",
        "place_id": "ChIJf_yJV2s9aTQRCwxocnKII0Q",
        "lat": 24.141927,
        "lng": 120.6833878,
        "time": "星期一: 24 小時營業\n星期二: 24 小時營業\n星期三: 24 小時營業\n星期四: 24 小時營業\n星期五: 24 小時營業\n星期六: 24 小時營業\n星期日: 24 小時營業"
    },
    {
        "id": 49,
        "name": "新盛橋行旅",
        "star": 4.4,
        "address": "台中市中區中山路26號",
        "city": "台中市",
        "region": "中區",
        "info": "由於這間旅店，就位在擁有百年歷史的新盛橋(現已改名為中山綠橋)旁，那歐風拱門搭配純白雕花格柵的質感外觀，相當容易被文青旅人列為台中住宿的清單首選！加上對面就是超知名的宮原眼科，離台中火車站也僅6分鐘步行距離，早餐還有超道地又豐盛的盛橋刈包，對背包客族群來說簡直是超高CP值的住宿體驗。房間內部採和洋風格設計，整體乾靜、整潔又明亮，一樓大廳也提供公用電腦、旅遊資訊，方便旅客查找台中景點旅遊資訊喔！",
        "place_id": "ChIJc9lDhhM9aTQRf10Ji-MRQFQ",
        "lat": 24.138094,
        "lng": 120.68306,
        "time": "星期一: 24 小時營業\n星期二: 24 小時營業\n星期三: 24 小時營業\n星期四: 24 小時營業\n星期五: 24 小時營業\n星期六: 24 小時營業\n星期日: 24 小時營業"
    },
    {
        "id": 50,
        "name": "台中莿桐花文創微旅",
        "star": 4,
        "address": "台中市中區台灣大道一段141巷11號",
        "city": "台中市",
        "region": "中區",
        "info": "台中火車站屬於台中的舊城區，近期受到復古氛圍影響，周遭的老舊文資建築紛紛修築，自然也有這區獨有的老宅住宿，像是莿桐花文創微旅，以微工業風改建這處老宅，保留下的天井，以復古格調的選物品稍加妝點，就成為旅店中最美的風景。房間內部也有獨特的小亮點，像是境框或者老舊電話、縫紉機等，各式老件再再提醒著台中城昔日榮景。旅店緊臨著太陽餅一條街、繼光商店街，飯店大門的巷口，還有超熱門的台中第四信用合作社，是走訪老台中最佳的起點。",
        "place_id": "ChIJc2X6cBM9aTQRVjnGenTZ5NM",
        "lat": 24.1392671,
        "lng": 120.6823987,
        "time": "星期一: 24 小時營業\n星期二: 24 小時營業\n星期三: 24 小時營業\n星期四: 24 小時營業\n星期五: 24 小時營業\n星期六: 24 小時營業\n星期日: 24 小時營業"
    },
    {
        "id": 51,
        "name": "薆悅酒店台中館",
        "star": 4.3,
        "address": "40146台灣台中市東區台中路203號",
        "city": "台中市",
        "region": "東區",
        "info": "除了熱鬧的前火車站，入住台中後火車站地區，不僅同樣交通便利，還可享有更為方正的街區規劃以及台中新潮的面容。薆悅酒店台中館位在離台中火車站後站步行約15分鐘，開車約5分鐘即可抵達，附近景點就有忠孝夜市及台中文化創意產業園區，適合喜歡逛展、享受文創園區氛圍的旅人。薆悅酒店台中館一樓的大廳設計走南法宮廷貴族風，有許多高檔的訂製木製傢俱，原木溫潤的手感，也延伸到房間內，大理石地板與水晶燈相互輝映，柔美了木頭的曠野感，更有低調奢華的入住氛圍。",
        "place_id": "ChIJb8aQ2Bk9aTQRH-UBkxhw05A",
        "lat": 24.1301207,
        "lng": 120.6853958,
        "time": "無"
    },
    {
        "id": 52,
        "name": "臺中公園智選假日飯店",
        "star": 4.1,
        "address": "台中市中區自由路二段94號",
        "city": "台中市",
        "region": "中區",
        "info": "除了獨特的文旅外，國外連鎖飯店集團IHG洲際酒店，也看好台中飯店旅宿業的崛起，以旗下Holiday Inn Express插旗台中，主功商務客和小資族群。台中公園智選假日飯店提供國際級的禮賓待遇，更以活潑的色彩體現台中多元文化的特色。地點不僅緊臨著歷史悠久的台中公園，還與大型的購物商場「日耀天地Outlet」共構位於同一棟建，距離一中街更是散策悠閒漫步也可抵達的距離，若是想要到台中Shopping購物的旅客，台中公園智選假日飯店就是一處絕佳的住宿選擇。",
        "place_id": "ChIJm5E2EGs9aTQRIlnmSTTC4D8",
        "lat": 24.1427566,
        "lng": 120.6855587,
        "time": "無"
    },
    {
        "id": 53,
        "name": "台中豐禾行旅",
        "star": 4.8,
        "address": "台中市北區五權路377號",
        "city": "台中市",
        "region": "北區",
        "info": "「豐禾行旅」位在一中街附近，走路大概十分鐘內會到，飯店跟「香榭欐舍大飯店」是在同一棟，報到櫃台也共用，不過豐禾行旅是近期翻新的樓層，房間僅提供雙人床的房型，並結合採繪藝術品展售等服務，像是有挪威傳統民俗彩繪作品等，房內也布置了來自世界各地的獨特創作，從大廳到房間內外，處處都是超級好拍的網美牆！若是喜愛蒐集各國藝術地文藝青年，又喜歡靠近一中街的便利，豐禾行旅是個可滿足您身心靈的放鬆旅宿。",
        "place_id": "ChIJU5eKg2U9aTQRrz4H2ant6uk",
        "lat": 24.152953,
        "lng": 120.680737,
        "time": "星期一: 10:00 – 22:00\n星期二: 10:00 – 22:00\n星期三: 10:00 – 22:00\n星期四: 10:00 – 22:00\n星期五: 10:00 – 22:00\n星期六: 10:00 – 22:00\n星期日: 10:00 – 22:00"
    },
    {
        "id": 54,
        "name": "嬉_行旅Hotel_Si",
        "star": 4.4,
        "address": "台中市西區民權路225巷8號",
        "city": "台中市",
        "region": "西區",
        "info": "鄰近草悟道的「嬉．行旅」，透天中庭導入戶外光線，白色建築加上各樓層充滿綠意的陽台，本身是一間專為女性設計考量的女性友善旅館。 備品除了洗手乳、洗髮乳、潤髮乳、沐浴乳，「嬉．行旅」更備有護手乳以及女生貼身衣物手洗精，櫃台還備有Dyson吹風機跟掛燙機可以借回房內使用，真的非常貼心，與好姊妹、閨蜜一起入住，完全不用擔心太多麻煩事呢！",
        "place_id": "ChIJldGFePQ9aTQRwrL6dBl21-w",
        "lat": 24.1485063,
        "lng": 120.668665,
        "time": "星期一: 24 小時營業\n星期二: 24 小時營業\n星期三: 24 小時營業\n星期四: 24 小時營業\n星期五: 24 小時營業\n星期六: 24 小時營業\n星期日: 24 小時營業"
    },
    {
        "id": 55,
        "name": "草悟道文旅",
        "star": 3.8,
        "address": "台中市西區英才路512號",
        "city": "台中市",
        "region": "西區",
        "info": "「草悟道文旅 」就在台中文創氣息最重的草悟道廣場附近，步行只要3分鐘。出門左轉就是勤美誠品跟台中NOVA，加上門口就是公車站牌，交通十分方便。館內以深色工業風中穿插著仿舊木質裝潢，加上仿古的指針電梯，在現代極簡風格中還帶著一些溫暖的復古感。IG上熱門拍照打卡的落地窗浴缸僅有一間，想要訂到房還需要一點運氣唷！",
        "place_id": "ChIJb_PGCZ49aTQRHmjGYEEUCwQ",
        "lat": 24.150598,
        "lng": 120.6651123,
        "time": "星期一: 24 小時營業\n星期二: 24 小時營業\n星期三: 24 小時營業\n星期四: 24 小時營業\n星期五: 24 小時營業\n星期六: 24 小時營業\n星期日: 24 小時營業"
    },
    {
        "id": 56,
        "name": "承億文旅_台中鳥日子",
        "star": 3.8,
        "address": "台中市西區忠明南路98號",
        "city": "台中市",
        "region": "西區",
        "info": "旗下擁有多間文創風格旅店的承億文旅集團在台中開設「台中鳥日子」，飯店建築外觀取鳥巢為概念，如同館內文宣「日子鳥鳥過，旅行瀟灑地走吧！」希望來住宿的旅人如小鳥般在外自由旅行時也能得到安心休憩的落腳處，在鳥日子裡找到生活的小確幸。除了館內各樓層不同的設計擺設，一樓不定期與文創品牌合作展示銷售，更有由國內插畫家等設計的藝術房等，處處能貼身感受台灣文創藝術。",
        "place_id": "ChIJL0cRU5o9aTQRm2LTA0IqFiw",
        "lat": 24.154075,
        "lng": 120.657418,
        "time": "無"
    },
    {
        "id": 57,
        "name": "台中大毅老爺行旅",
        "star": 4.4,
        "address": "台中市西區英才路601號",
        "city": "台中市",
        "region": "西區",
        "info": "由知名老爺集團於大毅建設合作的「台中大毅老爺行旅」，選擇落腳在於草悟道商圈，以藝廊為概念更提供不同主體展覽及活動使用。最大特色就是外觀方格式的窗格，以及12樓不規則排列斜角窗設計的星空房。不管是充滿藝術感的飯店內裝或是星空房內特殊窗格白天極佳的採光，實在太適合拍照了。",
        "place_id": "ChIJ5xAbfaA9aTQREsCNQhLTYhQ",
        "lat": 24.1427164,
        "lng": 120.6655023,
        "time": "星期一: 24 小時營業\n星期二: 24 小時營業\n星期三: 24 小時營業\n星期四: 24 小時營業\n星期五: 24 小時營業\n星期六: 24 小時營業\n星期日: 24 小時營業"
    },
    {
        "id": 58,
        "name": "台中草悟道_綠宿行旅",
        "star": 4.6,
        "address": "台中市西區民生北路126號",
        "city": "台中市",
        "region": "西區",
        "info": "減少碳足跡已是全球共同面臨的課題，不少台中旅宿業者也更加重視環保議題，位於勤美草悟道的「綠宿行旅」，外觀以樹為構想，改造整棟為綠建築的設計，與周圍的老宅餐廳相互映襯，在模範街區不僅不搶戲，還意外地與街景很融洽。\n\n飯店到處充滿著清新的氣息，入口的左手邊有十種的香草植物，可以先來挑選喜歡地精油，並滴在房卡套所附的書籤上，讓你整夜都被紓壓香氣包圍。中央的透明天井引進了大量的自然光線，讓房客跟著自然共生息。飯店講求環保，因此備品僅提供可分解的玉米澱粉材質牙刷，以及毛巾浴巾，不過飯店服務品質可不打折扣，尤其如此平價的價格也能享有國際牌的免治馬桶，可說是小資族旅遊的福音。",
        "place_id": "ChIJuVUOz3U9aTQRgMmSmJqjUwQ",
        "lat": 24.1490916,
        "lng": 120.6682872,
        "time": "星期一: 24 小時營業\n星期二: 24 小時營業\n星期三: 24 小時營業\n星期四: 24 小時營業\n星期五: 24 小時營業\n星期六: 24 小時營業\n星期日: 24 小時營業"
    },
    {
        "id": 59,
        "name": "台中金典酒店",
        "star": 4.2,
        "address": "台中市西區健行路1049號",
        "city": "台中市",
        "region": "西區",
        "info": "說起台中，金碧輝煌的刻板印象可揮之不去，若想接一接台中金氣，不如選擇在地人也愛住的金典酒店。金典酒店位在車水馬龍的台灣大道與健行路的交叉口，SOGO百貨公司、勤美綠園道、公益路美食、科博館等都在附近，周邊非常熱鬧。而其五星級可不是浪得虛名，不僅有氣派非凡的大理石接待大廳，多國美食饗宴的栢麗廳更深得台中人的心。台中金典酒店幾乎是台中高檔住宿的代名詞，但入住價格其實頗令人意外，不論事情侶、或家人出遊，可以說是最霸氣、最超值，面子滿點的台中高級住宿。",
        "place_id": "ChIJR2U5Kp09aTQRFXqxLvrt-rw",
        "lat": 24.1560597,
        "lng": 120.6630785,
        "time": "星期一: 24 小時營業\n星期二: 24 小時營業\n星期三: 24 小時營業\n星期四: 24 小時營業\n星期五: 24 小時營業\n星期六: 24 小時營業\n星期日: 24 小時營業"
    },
    {
        "id": 60,
        "name": "虹夕諾雅",
        "star": 4.4,
        "address": "台中市和平區東關路一段溫泉巷16號",
        "city": "台中市",
        "region": "和平區",
        "info": "堪稱台中最難訂的溫泉住宿「虹夕諾雅」，是來自日本星野集團旗下的高級溫泉飯店。位於好山好水的谷關，給人猶如山中秘境的虹夕諾雅，每間客房都有半露天風呂，24小時源源不絕注入的溫泉，讓你無時無刻都能泡到天然原湯，而且一邊泡溫泉，還能一邊欣賞谷關青山澗水美景，就像置身日本般的享受。",
        "place_id": "ChIJt_KWpPblaDQRpYbVhOn4Uno",
        "lat": 24.205376,
        "lng": 121.0104902,
        "time": "無"
    }
]