[
    {
        "id": 0,
        "name": "東照山關帝廟",
        "star": 4.5,
        "address": "84050台灣高雄市大樹區忠義路1號",
        "city": "高雄市",
        "region": "大樹區",
        "info": "東照山關帝廟源起於高雄市新興區的文芳社明德堂，由於香火日盛不敷使用，另擇大樹鄉小坪村現址建廟，於民國79年落成，廟中主祀關聖帝君金身，另有財神爺及其它神祇。殿內陳列數十幅關公事跡畫像，儼然如閱讀一部三國史，而矗立在香客大樓上高36尺的關公神像更是神威凜然。小坪村地勢高視野佳，天氣好時可眺望高雄市區，而廟前的綠色隧道道路更是清幽解熱，除香客外更受到單車族的喜愛。",
        "time": "星期一: 05:00 – 21:00\n星期二: 05:00 – 21:00\n星期三: 05:00 – 21:00\n星期四: 05:00 – 21:00\n星期五: 05:00 – 21:00\n星期六: 05:00 – 21:00\n星期日: 05:00 – 21:00",
        "place_id": "ChIJ89SNB2QQbjQRUCDT5xapZb4",
        "lat": 22.6940592,
        "lng": 120.3935743,
        "type": "monuments"
    },
    {
        "id": 1,
        "name": "大龍峒保安宮",
        "star": 4.6,
        "address": "103台灣台北市大同區哈密街61號",
        "city": "台北市",
        "region": "大同區",
        "info": "大龍峒保安宮，又稱大浪泵宮，是位於臺灣臺北市大龍峒、鄰近臺北孔子廟的大道公廟，為泉州同安人所信仰的廟宇，建築曾獲2003年聯合國教科文組織亞太區文物古蹟保護獎榮譽獎，2018年則被指定為國定古蹟。",
        "time": "星期一: 06:30 – 21:00\n星期二: 06:30 – 21:00\n星期三: 06:30 – 21:00\n星期四: 06:30 – 21:00\n星期五: 06:30 – 21:00\n星期六: 06:30 – 21:00\n星期日: 06:30 – 21:00",
        "place_id": "ChIJoWFCL2qpQjQRPOoT7nFV3YU",
        "lat": 25.0731088,
        "lng": 121.5155703,
        "type": "monuments"
    },
    {
        "id": 2,
        "name": "台北孔廟",
        "star": 4.5,
        "address": "103台灣台北市大同區大龍街275號",
        "city": "台北市",
        "region": "大同區",
        "info": "臺北市孔廟於1927年興工，座落於文風丕盛的大龍峒老街裡，在臺北市政府規劃推動的都市更新下，與大龍國小、保安宮形成「廟、學、宮」的大龍峒文化園區，具有典儀場所、儒學象徵與市定古蹟等多重意涵。",
        "time": "星期一: 休息\n星期二: 08:30 – 21:00\n星期三: 08:30 – 21:00\n星期四: 08:30 – 21:00\n星期五: 08:30 – 21:00\n星期六: 08:30 – 21:00\n星期日: 08:30 – 21:00",
        "place_id": "ChIJoWFCL2qpQjQRs7QGBRmf42Q",
        "lat": 25.0726236,
        "lng": 121.5163598,
        "type": "monuments"
    },
    {
        "id": 3,
        "name": "崎頂一_二號隧道",
        "star": 4.2,
        "address": "350台灣苗栗縣竹南鎮",
        "city": "苗栗縣",
        "region": "竹南鎮",
        "info": "崎頂一、二號隧道是苗栗縣唯一兩座相連雙軌鐵路隧道，採用洋灰磚（水泥磚）砌成的洞門設計，造型簡單、氣派；隧道內襯上半部的圓拱採用紅磚襯砌，下半部的側壁則延續運用水泥磚襯砌。坑內牆壁可見油煤灰的痕跡；一號隧道南口牆面上更零亂散布的著許多不平整的小坑洞，據傳為二次世界大戰末期，盟軍飛機追擊火車留下的痕跡。依遺跡保留完整，民國94年公告登錄為苗栗縣歷史建築。隧道及周邊環境經整理後，重新打造成崎頂隧道文化公園。",
        "time": "星期一: 24 小時營業\n星期二: 24 小時營業\n星期三: 24 小時營業\n星期四: 24 小時營業\n星期五: 24 小時營業\n星期六: 24 小時營業\n星期日: 24 小時營業",
        "place_id": "ChIJx7TjLaO0aTQR9jg_D4X6bqc",
        "lat": 24.7277712,
        "lng": 120.876389,
        "type": "monuments"
    },
    {
        "id": 4,
        "name": "林本源園邸",
        "star": 4.4,
        "address": "220台灣新北市板橋區西門街9號",
        "city": "新北市",
        "region": "板橋區",
        "info": "林本源園邸(林家花園)位於新北市板橋區西門街，原名林本源園邸，創建於西元1847年是林本源家族北上屯租的地方，在林國華和林國芳兄弟擴建後成為林本源家族居住地，分為園(林家花園)和邸(林家住所)兩部分，總面積約為6054坪，1977年林本源家族將庭園部分捐給新北市政府、1982年林家花園開放參觀，目前已登錄為宅第類國定古蹟，江南庭園的風格是台灣古式庭園的代表，板橋林家花園是民眾來到台北旅遊不可不去的旅遊景點之一。",
        "time": "星期一: 09:00 – 17:00\n星期二: 09:00 – 17:00\n星期三: 09:00 – 17:00\n星期四: 09:00 – 17:00\n星期五: 09:00 – 17:00\n星期六: 09:00 – 17:00\n星期日: 09:00 – 17:00",
        "place_id": "ChIJ-bWxkQKoQjQRclXL_gr5kbg",
        "lat": 25.0105225,
        "lng": 121.4552843,
        "type": "monuments"
    },
    {
        "id": 5,
        "name": "老塘湖藝術坊",
        "star": 4.0,
        "address": "726台南市學甲區豐和里美豐49-26號",
        "city": "台南市",
        "region": "學甲區",
        "info": "風景秀麗的湖畔藝術中心，展示著 3D 畫作及歷史宅邸複製品。",
        "time": "星期一: 08:00 – 18:00\n星期二: 08:00 – 18:00\n星期三: 08:00 – 18:00\n星期四: 08:00 – 18:00\n星期五: 08:00 – 18:00\n星期六: 08:00 – 18:00\n星期日: 08:00 – 18:00",
        "place_id": "ChIJJeDSwzR-bjQRE-U5H4g9rXI",
        "lat": 23.2191779,
        "lng": 120.2061603,
        "type": "monuments"
    },
    {
        "id": 6,
        "name": "林安泰古厝",
        "star": 4.5,
        "address": "10491台灣台北市中山區濱江街5號",
        "city": "台北市",
        "region": "中山區",
        "info": "林安泰古厝，又稱榮泰厝，是位於臺灣臺北市中山區濱江公園的四合院，原於乾隆年間建在今大安區，1978年因道路拓寬而拆遷，引起古蹟保護運動，促進《文化資產保存法》立法，1984年遷建後作民俗文物館之用，今列歷史建築。",
        "time": "星期一: 休息\n星期二: 09:00 – 17:00\n星期三: 09:00 – 17:00\n星期四: 09:00 – 17:00\n星期五: 09:00 – 17:00\n星期六: 09:00 – 17:00\n星期日: 09:00 – 17:00",
        "place_id": "ChIJ85xGkFSpQjQRzTIFvt5DcmU",
        "lat": 25.0720021,
        "lng": 121.5303702,
        "type": "monuments"
    },
    {
        "id": 7,
        "name": "林百貨",
        "star": 4.3,
        "address": "700台灣台南市中西區忠義路二段63號",
        "city": "台南市",
        "region": "中西區",
        "info": "位在台南中西區的林百貨，為1932年由日本商人林方一所建立，在當時是南台灣規模最大的百貨公司，也是台灣第二家大型百貨公司。歷經長時間閒置，在1998年被列入市定古蹟，於2010年開始整修至2013年完成，由台南市文化局委外經營，林百貨終於在2014年以「文創百貨」的型態重新出發，再次成為台南的著名景點。",
        "time": "星期一: 11:00 – 21:00\n星期二: 11:00 – 21:00\n星期三: 11:00 – 21:00\n星期四: 11:00 – 21:00\n星期五: 11:00 – 21:00\n星期六: 11:00 – 21:00\n星期日: 11:00 – 21:00",
        "place_id": "ChIJrZJc4GJ2bjQRa3BRyIgtRcM",
        "lat": 22.9917925,
        "lng": 120.2025232,
        "type": "monuments"
    },
    {
        "id": 8,
        "name": "公婆樹與土地公廟",
        "star": 4.2,
        "address": "438台灣台中市外埔區六支巷路16號號",
        "city": "台中市",
        "region": "外埔區",
        "info": "永豐里有對有趣的公婆樹，因它們有著男、女的特徵而被稱為公婆樹，是由一株香樟(婆)及一株臭樟(公)毗鄰而居一百五十餘年，猶如恩愛夫妻。樹下有座土地公廟，裡頭供奉土地公與土地婆，供當地居民祭祀，土地公廟為虎腳庄居民精神與閒暇休憩聚會之場所。",
        "time": "無",
        "place_id": "ChIJCX0jJSAQaTQRgn2K32v8LZo",
        "lat": 24.3307129,
        "lng": 120.6883546,
        "type": "monuments"
    },
    {
        "id": 9,
        "name": "三峽祖師廟",
        "star": 4.5,
        "address": "237台灣新北市三峽區長福街1號",
        "city": "新北市",
        "region": "三峽區",
        "info": "位在三峽老街附近的清水祖師廟香火鼎盛，主奉清水祖師，草創於乾隆三十四年（西元1769年），民國三十六年祖師廟因年久而斑駁失修，便推舉李梅樹教授為重建工程的美術設計及工程指導，廟中眾多華美的石雕、木雕等，皆融合不同流派的匠師與當代藝術家的作品風格，可見當時精湛的工藝與美學，因而贏得「民間藝術殿堂」、「東方藝術殿堂」的美譽。",
        "time": "星期一: 05:00 – 22:00\n星期二: 05:00 – 22:00\n星期三: 05:00 – 22:00\n星期四: 05:00 – 22:00\n星期五: 05:00 – 22:00\n星期六: 05:00 – 22:00\n星期日: 05:00 – 22:00",
        "place_id": "ChIJ61b44fEbaDQR8RMwX0a7CVM",
        "lat": 24.9337902,
        "lng": 121.3703176,
        "type": "monuments"
    },
    {
        "id": 10,
        "name": "文武廟",
        "star": 4.5,
        "address": "555台灣南投縣魚池鄉中正路63號",
        "city": "南投縣",
        "region": "魚池鄉",
        "info": "文武廟，位於日月潭北面山腰，座西向東，攬群山為左右，以名潭為前庭，格局壯麗，氣象宏大。由潭面仰望，但見文武廟踞高臨下，威儀赫赫。從山頂俯視，則見廟址敞朗，座落平穩，意態寬舒。明顯的看出，本廟具有風水之美，地利之便。而群山疊翠，四時花開，山形有如本廟的左右雙手，環抱遠天。名潭則碧波千頃，映照日月，成為本廟開闊美好的前庭。",
        "time": "星期一: 24 小時營業\n星期二: 24 小時營業\n星期三: 24 小時營業\n星期四: 24 小時營業\n星期五: 24 小時營業\n星期六: 24 小時營業\n星期日: 24 小時營業",
        "place_id": "ChIJK1j04mjWaDQR8IBhedScH_0",
        "lat": 23.8699678,
        "lng": 120.9275511,
        "type": "monuments"
    },
    {
        "id": 11,
        "name": "銀河洞",
        "star": 4.4,
        "address": "231台灣新北市新店區銀河越嶺步道",
        "city": "新北市",
        "region": "新店區",
        "info": "銀河洞位於新北市新店區，青潭溪支流楣子寮溪上游，屬淡水河流域，為一瀑布形成的水濂洞地形，因「嶺上溪流由山腰斷崖直下，飛瀑凌空狀似銀河」而得名。銀河洞瀑布分上下兩段，中有一內凹的山壁所形成的山洞，站在水濂洞內，迎面而來的清風夾帶水氣，相當涼爽。",
        "time": "星期一: 休息\n星期二: 休息\n星期三: 休息\n星期四: 休息\n星期五: 休息\n星期六: 08:00 – 17:00\n星期日: 08:00 – 17:00",
        "place_id": "ChIJxSNAVTUAaDQR7vNyKE1bJtU",
        "lat": 24.9584884,
        "lng": 121.5834063,
        "type": "monuments"
    },
    {
        "id": 12,
        "name": "烏來",
        "star": 4.0,
        "address": "233台灣新北市烏來區",
        "city": "新北市",
        "region": "烏來區",
        "info": "烏來是臺灣北部著名的山地鄉，位於水源保護區，居民以泰雅族居多，南勢溪和桶後溪交流處，此處兩側山峰高聳，溪流蜿蜒而過，形成峻秀的山水奇景，以溫泉、臺車、瀑布和雲仙樂園等聞名。",
        "time": "無",
        "place_id": "ChIJnRWOyugIaDQRLDBG8CUw98Y",
        "lat": 24.8663721,
        "lng": 121.5497801,
        "type": "monuments"
    },
    {
        "id": 13,
        "name": "安平樹屋",
        "star": 4.2,
        "address": "708台灣台南市安平區古堡街108號",
        "city": "台南市",
        "region": "安平區",
        "info": "樹屋位於德記洋行後面，原是德記洋行的倉庫，大約建於十九世紀末及日治初期，此處曾做為「大日本鹽業株式會社」出張所倉庫，現況規模即為日本人增建。\n\n經百餘年歲月滄桑後，倉庫牆面滿佈榕樹盤據的氣根，高聳的榕樹茂密的樹冠彷彿成為倉庫的屋頂，也讓安平樹屋擁有難得一見的外觀及神秘氣息，形成特有的屋樹共生奇景，類似吳哥窟大樹盤纏著「塔普倫寺」。\n\n現今內有規劃完善的木棧道讓人穿梭於樹屋之間，也可往上穿梭在樹冠之中，常可見許多的松鼠與鳥類在樹冠間嬉戲，生態良好。走累了就近到樹屋園區內的樹屋咖啡休息，來支冰淇淋消暑，繼續探索安平的優美。​",
        "time": "星期一: 08:30 – 17:30\n星期二: 08:30 – 17:30\n星期三: 08:30 – 17:30\n星期四: 08:30 – 17:30\n星期五: 08:30 – 17:30\n星期六: 08:30 – 17:30\n星期日: 08:30 – 17:30",
        "place_id": "ChIJo7avkR12bjQR9Gvc2sRtx40",
        "lat": 23.0034467,
        "lng": 120.1597835,
        "type": "monuments"
    },
    {
        "id": 14,
        "name": "清涼山護國妙崇寺",
        "star": 4.4,
        "address": "844台灣高雄市六龜區興龍里舊潭3-3號",
        "city": "高雄市",
        "region": "六龜區",
        "info": "妙崇寺位於高雄六龜山區，與層巒疊翠為鄰，與蟲鳴鳥叫共生，走進殿堂，才發現原來置身於一座山中的佛教美術館，精采的空間細節，教人難忘又感動。",
        "time": "星期一: 08:00 – 16:30\n星期二: 08:00 – 16:30\n星期三: 08:00 – 16:30\n星期四: 08:00 – 16:30\n星期五: 08:00 – 16:30\n星期六: 08:00 – 16:30\n星期日: 08:00 – 16:30",
        "place_id": "ChIJZYD6zWtbbjQRvoT9DjRsWmw",
        "lat": 23.0107248,
        "lng": 120.6692102,
        "type": "monuments"
    },
    {
        "id": 15,
        "name": "迪化207博物館",
        "star": 4.5,
        "address": "103台灣台北市大同區迪化街一段207號",
        "city": "台北市",
        "region": "大同區",
        "info": "迪化二Ｏ七博物館前身「廣和堂藥舖」，為見證迪化街輝煌中藥史一員。\n\n起建於1962年，因地限制，發展出特殊圓弧形立面，具有簡潔線條的現代主義特色，大面積的開窗設計，搭配彩色瓷磚外牆，在鄰近多屬西洋歷史式樣外觀的街屋群裡，顯得頗為獨特。館內以磨石子為主要建材，並有數處技藝精湛的磨石子作品。騎樓可見「蜜蜂採蜜」，一樓有「老山高麗蔘」極為生動，傳達出建築曾為中藥舖之過往；二樓「葡萄」搭配英文字母造型，工法細緻，加上磨石子樓梯扶手曲線的優雅，更是顯出富有時代感的台灣工藝之美。2021年4月26日，為提升文化資產再利用的多元性，經文資審議會通過本歷史建築更名為「迪化街一段207號店屋（原廣和堂藥舖）」，期盼注入更多的活化泉源。",
        "time": "星期一: 10:00 – 17:00\n星期二: 休息\n星期三: 10:00 – 17:00\n星期四: 10:00 – 17:00\n星期五: 10:00 – 17:00\n星期六: 10:00 – 17:30\n星期日: 10:00 – 17:30",
        "place_id": "ChIJXWCy7hWpQjQRxCERzEcy2ig",
        "lat": 25.0595329,
        "lng": 121.5094864,
        "type": "monuments"
    },
    {
        "id": 16,
        "name": "竹田驛園",
        "star": 4.1,
        "address": "911台灣屏東縣竹田鄉豐明路23號",
        "city": "屏東縣",
        "region": "竹田鄉",
        "info": "『竹田車站』位於屏東縣竹田鄉，於西元1940年建造，至今已超過一甲子的歲月了，是一臺灣鐵路管理局屏東線上深具歷史價值的鐵路車站，日據時期該線計畫名稱為枋寮線。原本這條鐵路線上還有歸來、麟洛、西勢站、三塊厝車站等站皆保有日式木造站房，但歸來、麟洛因旅客人數稀少已降為招呼站，已無木造站房，僅設有長長的月台而已；而三塊厝站則於1986年廢站，目前是做為鐵路材料的倉庫。西勢站的木造站房則改建為水泥式的，所以只剩竹田車站是台鐵屏東線上仍保留日據時代的木造火車站，但原木造的車站原地保存，並闢為觀光景點公園，現稱『竹田驛園』，今日實際通車的竹田站台則設於舊站北側月臺上，旅客可至『竹田車站』順訪『竹田驛園』的鐵路古蹟，尋幽一番！",
        "time": "無",
        "place_id": "ChIJCVJVohIibjQRX3liPuUN9mE",
        "lat": 22.5869424,
        "lng": 120.5399828,
        "type": "monuments"
    },
    {
        "id": 17,
        "name": "大溪老街",
        "star": 4.2,
        "address": "335台灣桃園市大溪區和平路",
        "city": "桃園市",
        "region": "大溪區",
        "info": "大溪老街是位於台灣桃園市大溪區上的歷史景點，主要是指大溪區上的和平路與中山路。 中山路上以建成商行歷史建築為代表，而在和平路老街上以永發號、松茂茶棧、Kenko 等歷史屋宇較具代表性。 ",
        "time": "星期一: 24 小時營業\n星期二: 24 小時營業\n星期三: 24 小時營業\n星期四: 24 小時營業\n星期五: 24 小時營業\n星期六: 24 小時營業\n星期日: 24 小時營業",
        "place_id": "ChIJTcPsOCIYaDQRcgNlt8b8tp4",
        "lat": 24.8851861,
        "lng": 121.2874784,
        "type": "monuments"
    },
    {
        "id": 18,
        "name": "天后宮",
        "star": 4.6,
        "address": "10844台灣台北市萬華區成都路51號",
        "city": "台北市",
        "region": "萬華區",
        "info": "這座歷史悠久的寺廟供奉海上聖母媽祖，有華麗的內部裝飾及色彩斑斕的外觀。",
        "time": "星期一: 06:00 – 22:00\n星期二: 06:00 – 22:00\n星期三: 06:00 – 22:00\n星期四: 06:00 – 22:00\n星期五: 06:00 – 22:00\n星期六: 06:00 – 22:00\n星期日: 06:00 – 22:00",
        "place_id": "ChIJbSR3CAmpQjQRaGSNghiSyrw",
        "lat": 25.0427953,
        "lng": 121.5063267,
        "type": "monuments"
    },
    {
        "id": 19,
        "name": "剝皮寮老街",
        "star": 4.1,
        "address": "108台灣台北市萬華區康定路173巷",
        "city": "台北市",
        "region": "萬華區",
        "info": "剝皮寮歷史街區內保存相當完整的清代街型、傳統店屋及日治時期市區改正後的立面以及二戰後改建面貌，其建築空間見證了艋舺市街的發展，對於都市紋理的延續深具意義。街區內並包含相當多的歷史軌跡，包括指定為歷史建築的廣州街123號－國學大師章太炎旅臺居所、永興亭船頭行、宋協興米店、呂阿昌醫師宅、日祥旅社、太陽製本所、秀英茶桌仔店、長壽號茶桌仔店、道教法壇－威靈壇、公共澡堂鳳翔浴室等，加上周邊聚集著龍山寺等古蹟和金紙店、中藥行、青草店、佛具店等傳統產業。因此剝皮寮歷史街區實蘊含了豐富的鄉土文化，為最佳的本土教學場所。",
        "time": "星期一: 休息\n星期二: 09:00 – 18:00\n星期三: 09:00 – 18:00\n星期四: 09:00 – 18:00\n星期五: 09:00 – 18:00\n星期六: 09:00 – 18:00\n星期日: 09:00 – 18:00",
        "place_id": "ChIJ3bYX0KipQjQR6Q_UrbthM_8",
        "lat": 25.036838,
        "lng": 121.5021648,
        "type": "monuments"
    },
    {
        "id": 20,
        "name": "松山火車站",
        "star": 4.3,
        "address": "105台灣台北市松山區松山路11號",
        "city": "台北市",
        "region": "松山區",
        "info": "松山火車站是台灣少數幾的歷史最悠久車站之一，從清朝光緒年間興建基隆到新竹的第一條鐵道，松山就已經是一個簡易的售票房，松山地區的開發很早，原來是凱達格蘭平埔族貓裏即吼社的聚落，舊地名為「大加納錫口街」，光緒十三年（1887），當初所使用的車票是以龍馬郵票來替代。",
        "time": "無",
        "place_id": "ChIJaQL2pJ6rQjQR-w0i3CwUrxo",
        "lat": 25.049284,
        "lng": 121.5782834,
        "type": "monuments"
    },
    {
        "id": 21,
        "name": "赤嵌樓",
        "star": 4.3,
        "address": "700台灣台南市中西區民族路二段212號",
        "city": "台南市",
        "region": "中西區",
        "info": "赤嵌樓，又作赤崁樓，位於臺灣臺南市中西區。前身為1653年荷治時期於赤崁行省興建之歐式城塞，又稱「普羅民遮城」，在地人稱為「番仔樓」，曾為全台灣島的商業中心，至清代已傾圮，僅留部分殘蹟。 今日所見的赤嵌樓，大部分是漢人在荷蘭城堡之上，陸續興建的儒、道廟宇，包括海神廟、文昌閣。",
        "time": "星期一: 08:30 – 21:30\n星期二: 08:30 – 21:30\n星期三: 08:30 – 21:30\n星期四: 08:30 – 21:30\n星期五: 08:30 – 21:30\n星期六: 08:30 – 21:30\n星期日: 08:30 – 21:30",
        "place_id": "ChIJbYl7d2F2bjQRnFdvyMBuZfI",
        "lat": 22.997478,
        "lng": 120.2025433,
        "type": "monuments"
    },
    {
        "id": 22,
        "name": "美麗島站",
        "star": 4.4,
        "address": "800台灣高雄市新興區中山一路115號地下一樓",
        "city": "高雄市",
        "region": "新興區",
        "info": "1979年底的「美麗島事件」，源於黨外雜誌《美麗島》發起一場演講集會，被警總認定為「持火遊行」，下令強制鎮壓，爆發流血衝突。事後情治單位以「叛亂罪嫌」逮捕相關人士，黃信介、施明德、張俊宏、姚嘉文、陳菊、呂秀蓮、林義雄、林弘宣等8人，依軍法起訴。辯護律師團成員陳水扁、謝長廷、尤清、蘇貞昌、張俊雄、江鵬堅等人，接棒成為後起政治明星。事發地現已成為美麗島車站，曾被評為全球最美地鐵站之一。",
        "time": "無",
        "place_id": "ChIJ10T7XIkEbjQRo5UX1nWHLx8",
        "lat": 22.6313887,
        "lng": 120.3019131,
        "type": "monuments"
    },
    {
        "id": 23,
        "name": "中平路故事館",
        "star": 4.2,
        "address": "320台灣桃園市中壢區復興路99號",
        "city": "桃園市",
        "region": "中壢區",
        "info": "中平路故事館是一棟充滿歷史韻味的日式雙併建築，興建於1930年，原為日式雙併公務員宿舍，佔地約30多坪，由曾任山地課課長的王國治先生與教育局的廖運全先生陸續入住，兩家四代在此度過了約一甲子的生活歲月，讓屋子承載著豐富的家族情感和歷史回憶。\n\n老屋最珍貴的價值就是文化的保留，在2007年原住戶搬遷後，2010年列為歷史建築，為了讓老屋活化再利用，桃園市政府文化局於2013年開始進行空間修繕，整修近2年的時間，直到2015年5月才以「中平路故事館」的新面貌開館。",
        "time": "星期一: 休息\n星期二: 休息\n星期三: 10:00 – 17:00\n星期四: 10:00 – 17:00\n星期五: 10:00 – 17:00\n星期六: 10:00 – 17:00\n星期日: 10:00 – 17:00",
        "place_id": "ChIJPSfru0kiaDQRzFHjQj4pq7Q",
        "lat": 24.9553588,
        "lng": 121.224438,
        "type": "monuments"
    },
    {
        "id": 24,
        "name": "林田神社遺址",
        "star": 3.9,
        "address": "975台灣花蓮縣鳳林鎮復興路41號",
        "city": "花蓮縣",
        "region": "鳳林鎮",
        "info": "林田神社建造於大正4年（1915），為無格社，位於日治時期花蓮港廳下的林田移民村，供奉的神明是與臺灣神社相同的開拓三神：大國魂命、大巳貴命、少彥名命，與能久親王，因是日本移民村（村民多為日本人），較具有敬神之心，祭祀活動嚴謹的依照時序而辦。現林田神社舊址改建為林田神社史蹟公園，其中鳥居、石燈籠、參拜道都已重建，目前僅存神社拜殿的基座、玉垣等神社遺跡。",
        "time": "星期一: 09:00 – 18:00\n星期二: 09:00 – 18:00\n星期三: 09:00 – 18:00\n星期四: 24 小時營業\n星期五: 09:00 – 18:00\n星期六: 09:00 – 18:00\n星期日: 09:00 – 18:00",
        "place_id": "ChIJve4yJBSuaDQR10qjYpCDrCE",
        "lat": 23.7487097,
        "lng": 121.4663622,
        "type": "monuments"
    },
    {
        "id": 25,
        "name": "美仁里彩繪巷",
        "star": 4.0,
        "address": "433台灣台中市沙鹿區美仁里",
        "city": "台中市",
        "region": "沙鹿區",
        "info": "捨棄卡通漫畫明星，台中市沙鹿區的美仁里里長陳建良先生，委託沙鹿區公所進行牆面美化工程，以古早味的臺灣風情為設計藍圖，於美秀巷、新平巷繪製了五幅的彩繪圖，傳統公共電話、水果攤、旗袍店、麵攤、柑仔店、人力黃包車等，充滿古早童趣味。\n\n台中沙鹿的美仁里社區多是老舊的土角厝，巷弄之間的牆面斑駁殘破，現今彩繪上美麗的圖案後，吸引許多人來此拍照留念。旅客可以開車至光田醫院停車場停車，後沿著四平街新平巷、美秀巷步行，即可看到彩繪牆。其中最特別的是，社區40多年前為風化街，隨處可見的酒店與應召站也被繪入牆面，「黑貓大酒店」前的貓咪嫵媚的向公貓招手，便是當時最佳的寫照，也讓旅客看了不禁莞爾，相當有趣。",
        "time": "無",
        "place_id": "ChIJj_M0zuIUaTQRikjVN9ZdczY",
        "lat": 24.2349558,
        "lng": 120.5635265,
        "type": "monuments"
    },
    {
        "id": 26,
        "name": "山后民俗文化村",
        "star": 4.3,
        "address": "890金門縣金沙鎮890",
        "city": "金門縣",
        "region": "金沙鎮",
        "info": "來到金門，如果想看到完整的古厝聚落，一定不能錯過位在金沙鎮的山后民俗文化村！\n這群建築完成於清光緒26年(西元1900年)，為旅日僑領王國珍、王敬祥父子經商有成，號召族人闢建而成，佔地相當廣闊，包括16棟閩南傳統二進式建築，1棟學堂建築及1棟王氏宗祠共18棟，合稱為「十八間」。",
        "time": "星期一: 08:00 – 17:00\n星期二: 08:00 – 17:00\n星期三: 08:00 – 17:00\n星期四: 08:00 – 17:00\n星期五: 08:00 – 17:00\n星期六: 08:00 – 17:00\n星期日: 08:00 – 17:00",
        "place_id": "ChIJAQAAADC7FDQRSsMDz6QkKfE",
        "lat": 24.5038116,
        "lng": 118.4404129,
        "type": "monuments"
    },
    {
        "id": 27,
        "name": "北關",
        "star": 4.3,
        "address": "261台灣宜蘭縣頭城鎮濱海路四段10號",
        "city": "宜蘭縣",
        "region": "頭城鎮",
        "info": "為東北角暨宜蘭海岸國家風景區的旅遊景點之一。根據內政部發行的地圖，將北關及海潮公園皆繪至於合興里境內。沿臺2線濱海公路駛至129.9K即抵達北關。在公路西側有宜蘭線鐵路經過，緊鄰山勢而行，另一側則濱臨太平洋的海岸，兩側夾峙如隘，古時便素有「蘭陽之鎖」形容對宜蘭地區的重要性。清代曾設有關隘駐防，因與南關同為門戶而得名「北關」。",
        "time": "星期一: 24 小時營業\n星期二: 24 小時營業\n星期三: 24 小時營業\n星期四: 24 小時營業\n星期五: 24 小時營業\n星期六: 24 小時營業\n星期日: 24 小時營業",
        "place_id": "ChIJe74Bdp9YXTQRvl8UD2Uhk3k",
        "lat": 24.9125557,
        "lng": 121.8776253,
        "type": "monuments"
    },
    {
        "id": 28,
        "name": "雲林故事館",
        "star": 4.2,
        "address": "632台灣雲林縣虎尾鎮林森路一段528號",
        "city": "雲林縣",
        "region": "虎尾鎮",
        "info": "雲林故事館為日據時期所留下的木造建築，經歷過修復後重新開放，成為一座專門講述兒童故事、舉辦活動的場域，用心的模式再次融入了虎尾居民的生活中。",
        "time": "星期一: 休息\n星期二: 休息\n星期三: 10:00 – 18:00\n星期四: 10:00 – 18:00\n星期五: 10:00 – 18:00\n星期六: 10:00 – 18:00\n星期日: 10:00 – 18:00",
        "place_id": "ChIJWckGgKuwbjQRK23n3dTgHwE",
        "lat": 23.7091095,
        "lng": 120.432915,
        "type": "monuments"
    },
    {
        "id": 29,
        "name": "法鼓山農禪寺",
        "star": 4.6,
        "address": "112台灣台北市北投區大業路65巷89號",
        "city": "台北市",
        "region": "北投區",
        "info": "「農禪寺」，是法鼓山的開山宗師東初老人，根據百丈禪師創立的叢林制度，以務農維生、禪修生活為主的原則而取的。最初只有一棟二層樓農舍，而後被列入台北市歷史建築之一。這棟農舍目前位於大殿後方，一九七一年左右，由東初老人率領弟子建造；一九七五年，農舍落成啟用，一樓作為客堂，二樓則供奉文殊師利菩薩，稱為文殊殿。",
        "time": "星期一: 09:00 – 16:30\n星期二: 09:00 – 16:30\n星期三: 09:00 – 16:30\n星期四: 09:00 – 16:30\n星期五: 09:00 – 16:30\n星期六: 09:00 – 16:30\n星期日: 09:00 – 16:30",
        "place_id": "ChIJ9UvPvP6uQjQRq0CCfaWofcY",
        "lat": 25.1225471,
        "lng": 121.4953795,
        "type": "monuments"
    },
    {
        "id": 30,
        "name": "鹿港",
        "star": 4.5,
        "address": "505台灣彰化縣鹿港鎮",
        "city": "彰化縣",
        "region": "鹿港鎮",
        "info": "鹿港是清代漢族家族移居重鎮,是少數保留完整漢族習俗、文化、文物、古蹟的台灣古鎮，而在地鹿港人也深以此為榮，盡量保持古文物、習俗並與之和睦相處，因此廟會活動頻率與規模為臺灣最重要。",
        "time": "無",
        "place_id": "ChIJvVcjPtFFaTQR2JxDbQt1uB8",
        "lat": 24.0755127,
        "lng": 120.447285,
        "type": "monuments"
    },
    {
        "id": 31,
        "name": "新芳春茶行",
        "star": 4.5,
        "address": "103台灣台北市大同區民生西路309號",
        "city": "台北市",
        "region": "大同區",
        "info": "新芳春茶行，是位於臺灣台北市大同區大稻埕的產業與宅第建築，在不再經營後，原先建商計畫拆除改建大廈，受文資團體要求列市定古蹟，後臺北市政府以讓建商容積移轉方式達成部分保存、修復。",
        "time": "星期一: 休息\n星期二: 休息\n星期三: 10:00 – 18:00\n星期四: 10:00 – 18:00\n星期五: 10:00 – 18:00\n星期六: 10:00 – 18:00\n星期日: 10:00 – 18:00",
        "place_id": "ChIJu14c4BSpQjQRxaMbJuTpAec",
        "lat": 25.05708109999999,
        "lng": 121.5125483,
        "type": "monuments"
    },
    {
        "id": 32,
        "name": "R28_淡水站",
        "star": 4.4,
        "address": "251台灣新北市淡水區中正路",
        "city": "新北市",
        "region": "淡水區",
        "info": "捷運淡水站建築造型係仿自當地重要古蹟紅毛城磚造連拱之意象，也是在淡水常見的異國建築樣式，塑造成淡水的地方風貌，加上外牆磁磚顏色也儘量相同，可說完全融入當地環境之中。\n\n捷運淡水站附近除了紅毛城、牛津學堂、殼牌倉庫建築古蹟之外，附近尚有許多古老的歷史建築群，如滬尾砲臺、福佑宮、清水祖師廟、鄞山寺等，再加上淡水八景自然景觀，成為遊客尋幽訪勝必到之處。",
        "time": "無",
        "place_id": "ChIJ3YC9glilQjQRxvedF6PFWVc",
        "lat": 25.167714,
        "lng": 121.4456756,
        "type": "monuments"
    },
    {
        "id": 33,
        "name": "二二八和平紀念公園",
        "star": 4.2,
        "address": "100台灣台北市中正區凱達格蘭大道3號",
        "city": "台北市",
        "region": "中正區",
        "info": "二二八和平公園位於臺北市公園路、襄陽路、懷寧街與凱達格蘭大道所圍成的街廓內，古典風格的都會公園，園內有日本庭園式造景池塘、拱橋、綠地步道及露天音樂臺，而台北二二八紀念館和紀念碑也設立在園區內。",
        "time": "星期一: 24 小時營業\n星期二: 24 小時營業\n星期三: 24 小時營業\n星期四: 24 小時營業\n星期五: 24 小時營業\n星期六: 24 小時營業\n星期日: 24 小時營業",
        "place_id": "ChIJKX1kH3WpQjQRcyy76pvtt-s",
        "lat": 25.0418254,
        "lng": 121.5149875,
        "type": "monuments"
    },
    {
        "id": 34,
        "name": "永安居",
        "star": 4.1,
        "address": "222台灣新北市深坑區北深路三段8號",
        "city": "新北市",
        "region": "深坑區",
        "info": "深坑黃氏永安居，1915年建造完成，位於今台灣新北市深坑區北深路三段8號，其命名的由來為「永久平安居住」的意思。中華民國政府於1992年5月22日認定它為三級古蹟，具有極大的價值與歷史保存意義。根據中華民國政府文化部文化資產局的介紹，興建永安居所使用的木材是從中國大陸運過來的福杉，永安居是一個典型的泉州安溪三合院大厝。",
        "time": "無",
        "place_id": "ChIJK1GX4emqQjQR1tX1p6S7dXU",
        "lat": 25.001123,
        "lng": 121.6109251,
        "type": "monuments"
    },
    {
        "id": 35,
        "name": "砲台山",
        "star": 3.9,
        "address": "270台灣宜蘭縣蘇澳鎮",
        "city": "宜蘭縣",
        "region": "蘇澳鎮",
        "info": "砲台山風景區位於宜蘭蘇澳的蘇花公路旁(台9線105公里處南邊)，海拔約200至300公尺。清光緒十五年時，鑑於法軍曾想入侵蘇澳之故，清廷便在此處建立二座海防砲台和營房，便於防禦外海，「砲台山」之名即由此而來。一八八九年，游擊鄭雲泰鑑於軍事要塞的考量，便在山上構築砲台和營房，以防外敵再犯。日治時期，又增設「金刀比羅」神社及豎立「祈願和平」碑。砲台現在只留下台基殘蹟，神社已改成「天君廟」，碑文也未加珍惜維護。",
        "time": "星期一: 24 小時營業\n星期二: 24 小時營業\n星期三: 24 小時營業\n星期四: 24 小時營業\n星期五: 24 小時營業\n星期六: 24 小時營業\n星期日: 24 小時營業",
        "place_id": "ChIJAQAAQDPoZzQRuVNnGlQBeoU",
        "lat": 24.5932222,
        "lng": 121.8569861,
        "type": "monuments"
    },
    {
        "id": 36,
        "name": "普濟殿",
        "star": 4.5,
        "address": "700台灣台南市中西區普濟街79號",
        "city": "台南市",
        "region": "中西區",
        "info": "普濟殿，全名四聯境普濟殿，舊名普濟寺、普濟廟，位於臺灣臺南市中西區、是臺南府城最早的王爺廟，主祀威靈王池府千歲。此外聖君廟與粗糠崎土地公廟的神像在原廟被廢之後合祀於普濟殿內，2018年後兩神遷入普濟殿前新建的聖君廟中。",
        "time": "星期一: 06:00 – 21:00\n星期二: 06:00 – 21:00\n星期三: 06:00 – 21:00\n星期四: 06:00 – 21:00\n星期五: 06:00 – 21:00\n星期六: 06:00 – 21:00\n星期日: 06:00 – 21:00",
        "place_id": "ChIJtVJ6zWZ2bjQRfxOI8R_fo9E",
        "lat": 22.9988217,
        "lng": 120.1991605,
        "type": "monuments"
    },
    {
        "id": 37,
        "name": "山腳國小日治後期宿舍群",
        "star": 4.3,
        "address": "358台灣苗栗縣苑裡鎮舊社里10鄰47號",
        "city": "苗栗縣",
        "region": "苑裡鎮",
        "info": "山腳國小日治後期宿舍群位在苗栗縣苑裡鎮，是山腳國小目前碩果僅存之歷史建築。1898年苑裡公學(小學)校成立，當初學區包含苑裡、山腳兩個行政區，但距離過遠山腳的孩童每年能到苑裡念小學的人並不多，因此在山腳居民的陳情下，1912年暫以苑裡帽蓆公司山腳工廠開分校上課，1916年才獨立成為山腳公學校，1946年再改名山腳國民學校，沿用至今。而山腳國小宿舍於 1935 年中部大地震後重建的宿舍，最早重建 2棟 3 戶已經拆除，現存宿舍應為 1937年到1944年間興建，建築基地完整，是典型日式宿舍建築。",
        "time": "星期一: 24 小時營業\n星期二: 24 小時營業\n星期三: 24 小時營業\n星期四: 24 小時營業\n星期五: 24 小時營業\n星期六: 24 小時營業\n星期日: 24 小時營業",
        "place_id": "ChIJactPwjQPaTQRsrhrwLLEptk",
        "lat": 24.4173015,
        "lng": 120.6858064,
        "type": "monuments"
    },
    {
        "id": 38,
        "name": "大溪古鎮",
        "star": 4.2,
        "address": "335台灣桃園市大溪區和平路",
        "city": "桃園市",
        "region": "大溪區",
        "info": "大溪古鎮位於桃園，這裡有很多古色古香的老式建築，還有各種各樣的美味小吃，充滿了懷舊的感覺。",
        "time": "星期一: 24 小時營業\n星期二: 24 小時營業\n星期三: 24 小時營業\n星期四: 24 小時營業\n星期五: 24 小時營業\n星期六: 24 小時營業\n星期日: 24 小時營業",
        "place_id": "ChIJTcPsOCIYaDQRcgNlt8b8tp4",
        "lat": 24.8851861,
        "lng": 121.2874784,
        "type": "monuments"
    },
    {
        "id": 39,
        "name": "北門",
        "star": 4.4,
        "address": "10341台灣台北市大同區塔城街10號",
        "city": "台北市",
        "region": "大同區",
        "info": "臺北古城有一共有5個城門：東門（景福門）、西門（寶成門）、南門（麗正門）、小南門（重熙門）、北門（承恩門），是清光緒年代，劉銘傳時期所建造，鼓勵商人在臺北城內，投資興建房舍，形成街道，活絡發展。\n\n近年建設規劃中原要被拆除的北門，隨著保存文化遺產的觀念興起，於是原樣留下了北門古蹟，北門成為5門當中，唯一以清領時期風貌保留的古城門，是臺北最珍貴的國定古蹟之一，也由於早期具有的防禦功能，成為國防的歷史見證。",
        "time": "無",
        "place_id": "ChIJ-XhPiQ2pQjQR6YjSYT-C5WU",
        "lat": 25.049285,
        "lng": 121.510278,
        "type": "monuments"
    },
    {
        "id": 40,
        "name": "哈瑪星",
        "star": 4.4,
        "address": "804台灣高雄市鼓山區鼓山一路32號",
        "city": "高雄市",
        "region": "鼓山區",
        "info": "「哈瑪星」是日治時期填海而來，這塊海埔新生地產生了新市街，包括新濱町、濱町等地。當時位於哈瑪星的打狗驛，鐵路延伸闢建往港口碼頭的「濱線」及「商港線」，日語濱線發音為「Ha-Ma-Sen」，當地居民以台語發音譯為「哈瑪星」。",
        "time": "星期一: 24 小時營業\n星期二: 24 小時營業\n星期三: 24 小時營業\n星期四: 24 小時營業\n星期五: 24 小時營業\n星期六: 24 小時營業\n星期日: 24 小時營業",
        "place_id": "ChIJaZ76fnUEbjQRjhliomTpf6Q",
        "lat": 22.621711,
        "lng": 120.2766416,
        "type": "monuments"
    },
    {
        "id": 41,
        "name": "善化慶安宮",
        "star": 4.5,
        "address": "741台灣台南市善化區中山路470號",
        "city": "台南市",
        "region": "善化區",
        "info": "慶安宮建廟於西元1810年，為市定古蹟，前身為奉祀五文昌的文昌祠，但文昌祠在1862年嘉南大地震毀壞後重新擴大規模改建為媽祖廟，成為台南奉祀媽祖三大廟宇之一，廟內有三百多年歷史的荷蘭古井，是荷蘭人治台時期的歷史見證，古井深藏地下多年卻無腐臭泥濁仍然維持活水井的狀態，令人嘖嘖稱奇，來到善化區一定要來這典雅莊嚴的慶安宮，看看裡面的歷史足跡。",
        "time": "星期一: 06:00 – 22:00\n星期二: 06:00 – 22:00\n星期三: 06:00 – 22:00\n星期四: 06:00 – 22:00\n星期五: 06:00 – 22:00\n星期六: 06:00 – 22:00\n星期日: 06:00 – 22:00",
        "place_id": "ChIJ5ZEKZ4d7bjQRX4wYckMD_zY",
        "lat": 23.1325541,
        "lng": 120.2900029,
        "type": "monuments"
    },
    {
        "id": 42,
        "name": "后里圳磚橋",
        "star": 4.1,
        "address": "圳, 后里區台中市台灣 421",
        "city": "台中市",
        "region": "后里區",
        "info": "號稱台中后里三大最美秘境之一的圳磚橋及八號隧道位於台鐵舊山線中，自從舊山線停駛之後，這裏便披上一件既詭譎又夢幻的衣裳，吸引許多攝影愛好者及網美前來探險，捕捉舊鐵道的神秘風貌。",
        "time": "星期一: 24 小時營業\n星期二: 24 小時營業\n星期三: 24 小時營業\n星期四: 24 小時營業\n星期五: 24 小時營業\n星期六: 24 小時營業\n星期日: 24 小時營業",
        "place_id": "ChIJf3n6pMwaaTQRtaDiSBIamAY",
        "lat": 24.3198958,
        "lng": 120.7411441,
        "type": "monuments"
    },
    {
        "id": 43,
        "name": "新富町文化市場",
        "star": 4.2,
        "address": "108台灣台北市萬華區三水街70號",
        "city": "台北市",
        "region": "萬華區",
        "info": "超過80年的市場記憶，重啟大門的區域再生。 新富町食料品小賣市場落成於1935年，屬於日治時期較後期完成的公有市場，市場內的建物涵蓋了當時期的各種建材。馬蹄形的市場主建物平屋頂由鋼筋混凝土樑支撐，牆體為加強磚造。另外，附屬建築物有木造的日式宿舍與磚造的公廁，公廁的出現也象徵當時市場現代化的過程，可惜在時間推移間並沒有完整保留下來。",
        "time": "星期一: 休息\n星期二: 10:00 – 18:00\n星期三: 10:00 – 18:00\n星期四: 10:00 – 18:00\n星期五: 10:00 – 18:00\n星期六: 10:00 – 18:00\n星期日: 10:00 – 18:00",
        "place_id": "ChIJN4_GsqipQjQRZMMAKGYy86U",
        "lat": 25.03577199999999,
        "lng": 121.5018519,
        "type": "monuments"
    },
    {
        "id": 44,
        "name": "虎尾持法媽祖宮",
        "star": 4.7,
        "address": "632台灣雲林縣虎尾鎮西園46號",
        "city": "雲林縣",
        "region": "虎尾鎮",
        "info": "「持法媽祖宮」位在雲林縣虎尾鎮的一處私房密境，它沒有北港「朝天宮」的華麗而龐大宮殿及知名度，遠離塵囂立於一片翠綠田園之間，紅色廟堂與之成為鮮明對比，沒有過度奢華的裝飾，也沒有金碧輝煌的殿堂；一群虔敬的媽祖信徒，在媽祖指定下，拋捨浮華引用質樸，注重傳統廟宇的建築規範及精神，郭志郎大師的水車堵跤趾陶、劉家正大師的綵繪門神，各式木刻石雕，無一細節不顯露出優雅的品味，處處充滿人文氣息，以人文藝術營造出古典優雅的宗教文化。",
        "time": "星期一: 07:00 – 20:00\n星期二: 07:00 – 20:00\n星期三: 07:00 – 20:00\n星期四: 07:00 – 20:00\n星期五: 07:00 – 20:00\n星期六: 07:00 – 20:00\n星期日: 07:00 – 20:00",
        "place_id": "ChIJe9gTkCa3bjQRl6vNVjI4RfE",
        "lat": 23.73875319999999,
        "lng": 120.4609698,
        "type": "monuments"
    },
    {
        "id": 45,
        "name": "高雄意誠堂關帝廟",
        "star": 4.4,
        "address": "802台灣高雄市苓雅區三多四路66號",
        "city": "高雄市",
        "region": "苓雅區",
        "info": "高雄意誠堂，又稱「意誠堂關帝廟」，位於臺灣高雄市苓雅區次分區過田子，也是該地區的信仰中心，是一座關帝廟。 在日治時代末期，光復初期，當時廟名是同善社意誠堂。",
        "time": "星期一: 06:00 – 21:50\n星期二: 06:00 – 21:50\n星期三: 06:00 – 21:50\n星期四: 06:00 – 21:50\n星期五: 06:00 – 21:50\n星期六: 06:00 – 21:50\n星期日: 06:00 – 21:50",
        "place_id": "ChIJE9sR-n4DbjQRJdQm7VybijY",
        "lat": 22.6129567,
        "lng": 120.3010589,
        "type": "monuments"
    },
    {
        "id": 46,
        "name": "嘉義阿里山林業村及檜意森活村",
        "star": 4.2,
        "address": "600台灣嘉義市東區林森東路1號",
        "city": "嘉義市",
        "region": "東區",
        "info": "阿里山，不僅以壯闊優美的景色享譽全球，更因擁有豐富的森林物產，造就嘉義市成為林業之都的美譽。一條阿里山鐵路，牽引出了一段林業故事的風華起落。待繁華落盡後，沉澱下來的則是一幕幕的回憶。檜町，如今的檜意森活村，成為了這段歷史的見證，回憶的背景...",
        "time": "星期一: 10:00 – 18:00\n星期二: 10:00 – 18:00\n星期三: 10:00 – 18:00\n星期四: 10:00 – 18:00\n星期五: 10:00 – 18:00\n星期六: 10:00 – 18:00\n星期日: 10:00 – 18:00",
        "place_id": "ChIJOb09b8uVbjQRigoLMNW9rpE",
        "lat": 23.4861261,
        "lng": 120.4540114,
        "type": "monuments"
    },
    {
        "id": 47,
        "name": "大武崙砲台",
        "star": 4.2,
        "address": "204台灣基隆市安樂區",
        "city": "基隆市",
        "region": "安樂區",
        "info": "大武崙砲台位於基隆西北方，居外木山漁港後的大武崙山上，也就是情人湖的上方。\n因其地勢險要，而成為守基隆港西側的重要據點，在道光二十年（西元1840年）的清英鴉片戰爭及光緒十年（西元1884年）的清法戰爭時，清政府均曾派兵駐防。\n但據其構造及設計特色來看，應為日治時期所改建之結果，為國定古蹟，位於大武崙山巔，地形居高臨下，地勢非常險要，其標高為231公尺，可向西對準情人湖，北俯大武崙澳，東望基隆港及東海。",
        "time": "星期一: 09:00 – 17:00\n星期二: 09:00 – 17:00\n星期三: 09:00 – 17:00\n星期四: 09:00 – 17:00\n星期五: 09:00 – 17:00\n星期六: 09:00 – 17:00\n星期日: 09:00 – 17:00",
        "place_id": "ChIJqQlETcxNXTQRlVNCxmVCkaM",
        "lat": 25.1587828,
        "lng": 121.7083931,
        "type": "monuments"
    },
    {
        "id": 48,
        "name": "勝安宮",
        "star": 4.6,
        "address": "973台灣花蓮縣吉安鄉慈惠三街118號",
        "city": "花蓮縣",
        "region": "吉安鄉",
        "info": "花蓮勝安宮、吉安勝安宮，又稱王母娘娘廟，位於台灣花蓮縣吉安鄉，台灣第一座主祀虛空無極天上王母娘娘的廟宇。 原型為一簡陋的茅草屋，最初稱作勝化堂，與花蓮慈惠堂並稱為台灣母娘信仰的發源地。",
        "time": "星期一: 04:30 – 22:00\n星期二: 04:30 – 22:00\n星期三: 04:30 – 22:00\n星期四: 04:30 – 22:00\n星期五: 04:30 – 22:00\n星期六: 04:30 – 22:00\n星期日: 04:30 – 22:00",
        "place_id": "ChIJ36c35p6faDQRvA02YVp8ZfA",
        "lat": 23.977481,
        "lng": 121.58673,
        "type": "monuments"
    },
    {
        "id": 49,
        "name": "台灣原住民文化園區",
        "star": 4.2,
        "address": "903台灣屏東縣瑪家鄉風景巷104號903",
        "city": "屏東縣",
        "region": "瑪家鄉",
        "info": "隨著現代化日趨成為主流價值，臺灣原住民的族群認知與文化保存變成為刻不容緩的事情，民國65年，初期訂定設置「山地文化村」，維護及保留原住民固有文化，提供學術研究交流，民國69年3月，改為「臺灣山地文化園區」，民國83年第五次修憲，將「山地」修正為「原住民」，確立了「台灣原住民文化園區」的名稱。",
        "time": "星期一: 休息\n星期二: 08:30 – 17:00\n星期三: 08:30 – 17:00\n星期四: 08:30 – 17:00\n星期五: 08:30 – 17:00\n星期六: 08:30 – 17:00\n星期日: 08:30 – 17:00",
        "place_id": "ChIJWabUR9o7bjQRQW1uZFLg14k",
        "lat": 22.7069254,
        "lng": 120.6529188,
        "type": "monuments"
    },
    {
        "id": 50,
        "name": "蔡瑞月舞蹈研究社",
        "star": 4.2,
        "address": "10491台灣台北市中山區中山北路二段48巷10號",
        "city": "台北市",
        "region": "中山區",
        "info": "蔡瑞月老師可說是臺灣現代舞蹈的先驅，推廣現代舞蹈不餘遺力。1921年出生於臺南市，在16歲時，就遠赴日本，跟隨著當時有著現代舞蹈之父的石井漠先生學習，打下了舞蹈的基礎，學成歸國後，將自己的全副心力投入舞蹈，將現代舞的觀念帶入臺灣。在這塊土地上，蔡老師留下500多支現代舞的創作，像是「印度之歌」、「咱愛咱臺灣」等，並且結合了多元的舞蹈，包含芭蕾舞、民族舞、臺灣的民俗舞蹈等，融入其中，被稱為臺灣現代舞蹈之母。\n\n蔡瑞月舞蹈研究社是具有歷史性的建築，是日據時期的文官宿舍，當時在臺北市區建有各種不同等級的宿舍，大都為木造日式住宅類型。於1920年建造了數十棟雙併式的木造宿舍，位於中山北路上，而蔡瑞月舞蹈研究社就是當時所建，由格局來看，是日本判任官的宿舍，1953年成為臺灣現代舞之母蔡瑞月的家、編舞及創作練舞教室，後來演變成舞蹈的教室。雖然曾經火焚，但是1999年經古蹟學者專家一致認定為此地為臺灣現代舞紮根之地，故共同堅決重建，才免於建商覬覦，而延續了古蹟的生命。",
        "time": "星期一: 休息\n星期二: 10:00 – 18:30\n星期三: 10:00 – 18:30\n星期四: 10:00 – 18:30\n星期五: 10:00 – 18:30\n星期六: 10:00 – 18:30\n星期日: 10:00 – 18:30",
        "place_id": "ChIJtwt6ummpQjQRTSWBNNDkfvI",
        "lat": 25.0556648,
        "lng": 121.5219961,
        "type": "monuments"
    },
    {
        "id": 51,
        "name": "旗山天后宮",
        "star": 4.6,
        "address": "842台灣高雄市旗山區永福街23巷16號",
        "city": "高雄市",
        "region": "旗山區",
        "info": "『旗山天后宮』是旗山區的境主廟，旗山人稱為『媽祖廟』，是本地開莊的市集、精神信仰中心，亦是凝聚社區意識與聚落發展的樞紐，目前列為高雄市定古蹟。",
        "time": "星期一: 05:30 – 22:00\n星期二: 05:30 – 22:00\n星期三: 05:30 – 22:00\n星期四: 05:30 – 22:00\n星期五: 05:30 – 22:00\n星期六: 05:30 – 22:00\n星期日: 05:30 – 22:00",
        "place_id": "ChIJ8YYU1lJqbjQR8oSxle1Tbjo",
        "lat": 22.88656,
        "lng": 120.4822922,
        "type": "monuments"
    },
    {
        "id": 52,
        "name": "接雲寺",
        "star": 4.5,
        "address": "220台灣新北市板橋區西門街69號",
        "city": "新北市",
        "region": "板橋區",
        "info": "接雲寺，意指「迎接」、「接香」的意思，慈雲巖被燬卻未重建於舊址，遷建板橋，說明板橋在林家廣事建設下，已取代中和成為當時擺接堡商業、信仰和自衛的中心。寺中收藏了不少珍貴的古匾及古聯，正殿屋頂兩側還有許多以金箔包住的飛天仙人木雕，外表十分耀眼，加上特殊的長橢圓形藻井設計，相當有歷史與宗教價值。",
        "time": "星期一: 07:00 – 22:00\n星期二: 07:00 – 22:00\n星期三: 07:00 – 22:00\n星期四: 07:00 – 22:00\n星期五: 07:00 – 22:00\n星期六: 07:00 – 22:00\n星期日: 07:00 – 22:00",
        "place_id": "ChIJV_MJLagCaDQRnbElADCuSu0",
        "lat": 25.0088889,
        "lng": 121.4544444,
        "type": "monuments"
    },
    {
        "id": 53,
        "name": "淡江中學",
        "star": 4.0,
        "address": "251台灣新北市淡水區真理街26號",
        "city": "新北市",
        "region": "淡水區",
        "info": "淡江中學創辦於1914年原來是長老教會培養傳教士的教會學校。平時，學校不開放遊客參觀。校內景色優美，有淡水女學堂、馬偕墓園及八角塔，都極具藝術價值與歷史意義。\n\n八角塔完成於1925年，運用紅磚、釉花磚與閩南瓦等台灣地域性的建材，建構出一個融合中西不同風味的三合院建築，也是當時傳教士在台灣留下的極為出色的作品之一。",
        "time": "星期一: 08:00 – 16:30\n星期二: 08:00 – 16:30\n星期三: 08:00 – 16:30\n星期四: 08:00 – 16:30\n星期五: 08:00 – 16:30\n星期六: 休息\n星期日: 休息",
        "place_id": "ChIJCxRmQVClQjQRyjazxnsBfp4",
        "lat": 25.1763325,
        "lng": 121.4371199,
        "type": "monuments"
    },
    {
        "id": 54,
        "name": "豐原慈濟宮",
        "star": 4.7,
        "address": "420台灣台中市豐原區中正路179號",
        "city": "台中市",
        "region": "豐原區",
        "info": "豐原著名的廟東夜市，所指稱的廟宇即是「慈濟宮」，創建約為清朝年間，供奉天上聖母，為豐原地方居民的重要的信仰中心，建築為三殿兩戶龍式，座南朝北，廟前種植有老榕樹，並有一對由民間企業所捐獻的巨大的銅獅子，氣勢十足增添莊嚴。 \n\n經過多次整修的慈濟宮，歷年來耗費不少心力維護，保留了珍貴的歷史文物，像是宮內的木雕、石雕工藝精細，皆出自名師名匠之手，石壁、石獅、龍柱、羅漢柱及彩繪等，細細觀察其生動神采，展現傳統文化的珍貴。",
        "time": "星期一: 06:00 – 23:00\n星期二: 06:00 – 23:00\n星期三: 06:00 – 23:00\n星期四: 06:00 – 23:00\n星期五: 06:00 – 23:00\n星期六: 06:00 – 23:00\n星期日: 06:00 – 23:00",
        "place_id": "ChIJnyn6XA8aaTQRR4e6QAtYq2k",
        "lat": 24.2511942,
        "lng": 120.719011,
        "type": "monuments"
    },
    {
        "id": 55,
        "name": "新化武德殿",
        "star": 4.1,
        "address": "712台灣台南市新化區和平街53號",
        "city": "台南市",
        "region": "新化區",
        "info": "新化武德殿建於1925-1928年間，位於新化區中正路與和平街口的舊消防隊旁，在日治時期為劍道及柔道的訓練場所。在整修後結合新化老街、新化街役場及楊逵文學館，以及最新整修完成的大目降文化園區，形成非常多樣化且豐富的新化老街文化園區。\n\n武德殿內的彈簧木地板是全台灣唯一的特殊建築形式，常吸引各國的建築師前來參觀，廣大的室內空間也成為許多展覽的首選場地，除了藝術品的展覽之外，如故鄉文化講座或是音樂會也都在此舉辦，是新化區域內最具文青氣息的場所，以武德為主的精神也沒有消失，除了各項展覽講座之外，也還有劍道教學在此舉辦，武德殿前方的大廣場也成為當地居民舉辦戶外活動時的重要場地，是新化非常熱鬧且富有歷史意義的區域。",
        "time": "星期一: 休息\n星期二: 09:00 – 12:00, 13:30 – 17:00\n星期三: 09:00 – 12:00, 13:30 – 17:00\n星期四: 09:00 – 12:00, 13:30 – 17:00\n星期五: 09:00 – 12:00, 13:30 – 17:00\n星期六: 09:00 – 12:00, 13:30 – 17:00\n星期日: 09:00 – 12:00, 13:30 – 17:00",
        "place_id": "ChIJdRBEqXpwbjQRpbG_yecjX6c",
        "lat": 23.0334213,
        "lng": 120.3087144,
        "type": "monuments"
    },
    {
        "id": 56,
        "name": "台北賓館",
        "star": 4.5,
        "address": "10048台灣台北市中正區凱達格蘭大道1號",
        "city": "台北市",
        "region": "中正區",
        "info": "臺北賓館是位於臺灣臺北市博愛特區內的官署建築，門牌號碼為凱達格蘭大道1號。最初為臺灣日治時期的總督官邸，現為中華民國的國家迎賓館，由中華民國外交部管理使用，專門接待國賓或舉辦慶祝活動。現今亦列為中華民國國定古蹟。 ",
        "time": "無",
        "place_id": "ChIJVQLmGXWpQjQRE2IFPLgJ0b0",
        "lat": 25.0401547,
        "lng": 121.5167496,
        "type": "monuments"
    },
    {
        "id": 57,
        "name": "舊鐵橋溼地教育園區",
        "star": 4.3,
        "address": "840台灣高雄市大樹區竹寮路109號",
        "city": "高雄市",
        "region": "大樹區",
        "info": "高屏舊鐵橋位於高雄市大樹區九曲堂站和屏東市六塊厝站之間，是座花樑結構鐵橋，原名為下淡水溪鐵橋，興建於1911年初，在1913年底完工，為單軌鐵道，全長1526公尺、寬7.6公尺，由24節鋼桁架所組成，為當時亞洲最長的鐵橋。1987年台鐵重建高屏溪橋後功成身退，並於1997年經內政部指定為台閩地區第二級古蹟，是目前臺灣唯一列為第二級古蹟的鐵道用橋樑。",
        "time": "星期一: 24 小時營業\n星期二: 24 小時營業\n星期三: 24 小時營業\n星期四: 24 小時營業\n星期五: 24 小時營業\n星期六: 24 小時營業\n星期日: 24 小時營業",
        "place_id": "ChIJRfvX5RoabjQRkrtyU28crSU",
        "lat": 22.6623093,
        "lng": 120.426989,
        "type": "monuments"
    },
    {
        "id": 58,
        "name": "永成古厝",
        "star": 4.4,
        "address": "881台灣澎湖縣西嶼鄉",
        "city": "澎湖縣",
        "region": "西嶼鄉",
        "info": "咾咕石厝是澎湖在地最富人文色彩的象徵，永成古厝位於合界社區的三落古厝，最鼎盛的時期有三排、八間、四櫸頭，共48隔間。\n約1640年代，因家庭富裕，家族繁衍而建築具有規模的宗族古厝群。\n鼎盛時期共有八間住屋，百餘人共同生活，並開立「永成號」柑仔店做雜貨生意，其富裕情形遠近皆知，在合界村自成，稱之「永成」小聚落。\n後至民國50年代末期，八間富麗堂皇的宅屋漸漸荒蕪，如今可在此見證澎湖傳統宅居建築之美與歷史軌跡。\n澎湖傳統宅居偏愛使用石砌窗或石刻漏窗，除了結構上能和牆面構成一體之外，亦較能抵抗澎湖強烈的海風所帶的風化威脅，這也是為何古厝坍塌後，惟獨石條窗仍屹立不搖的原因。\n房舍後方可看見一整排的咾咕石牆，擋住了強勁的東北風。牆上共留了三個窗口，方便看顧船隻，觀察潮汐。",
        "time": "星期一: 24 小時營業\n星期二: 24 小時營業\n星期三: 24 小時營業\n星期四: 24 小時營業\n星期五: 24 小時營業\n星期六: 24 小時營業\n星期日: 24 小時營業",
        "place_id": "ChIJpUavPgpcbDQRsrkAeY-A3Yc",
        "lat": 23.6387697,
        "lng": 119.5293101,
        "type": "monuments"
    },
    {
        "id": 59,
        "name": "港天宮",
        "star": 4.5,
        "address": "970台灣花蓮縣花蓮市中山路一段500巷15號",
        "city": "花蓮縣",
        "region": "花蓮市",
        "info": "港天宮位於花蓮市區，為花蓮市最大的廟宇，其地形被地方人士譽為一塊上吉之地，後有一座山稜，像是一張太師椅，正前方與為美崙山相望，彷彿一張拜桌，目前廟地有5000多坪，建地1000多坪，主祀神明為天上聖母，廟宇分為前殿、正殿及後殿，中前殿廊道雕有大型蜘蛛網狀藻井，係取用樟木聘請大陸師父精雕而成，前殿兩邊設有兩座大型龍梯，由地面升至三樓，極具特色。",
        "time": "星期一: 06:00 – 20:00\n星期二: 06:00 – 20:00\n星期三: 06:00 – 20:00\n星期四: 06:00 – 20:00\n星期五: 06:00 – 20:00\n星期六: 06:00 – 20:00\n星期日: 06:00 – 20:00",
        "place_id": "ChIJY9B77bifaDQR_9-5R68pDfQ",
        "lat": 24.0075241,
        "lng": 121.5874585,
        "type": "monuments"
    },
    {
        "id": 60,
        "name": "三峽興隆宮媽祖廟",
        "star": 4.6,
        "address": "237台灣新北市三峽區民權街50號",
        "city": "新北市",
        "region": "三峽區",
        "info": "見證了「三峽」的繁榮、歷經八個朝代（乾隆、嘉慶、道光、咸豐、同治、光緒、明治、民國），經過烽火洗禮的老廟「三峽興隆宮媽祖廟」是三峽區民眾信仰的中心，延續迄今已有二百三十年的歲月。",
        "time": "星期一: 08:00 – 22:00\n星期二: 08:00 – 22:00\n星期三: 08:00 – 22:00\n星期四: 08:00 – 22:00\n星期五: 08:00 – 22:00\n星期六: 08:00 – 22:00\n星期日: 08:00 – 22:00",
        "place_id": "ChIJnyR6JO4baDQR6wX31WKpUpc",
        "lat": 24.9335419,
        "lng": 121.369505,
        "type": "monuments"
    },
    {
        "id": 61,
        "name": "普濟寺",
        "star": 4.5,
        "address": "103台灣台北市大同區華陰街100號",
        "city": "台北市",
        "region": "大同區",
        "info": "依據臺北「民德寫真館」於1941年發行的《臺灣佛教名蹟寶鑑》，普濟寺與同為臺北市市定古蹟的臨濟護國禪寺都是臨濟宗妙心寺派在台北的布教據點。1934年重建時，由於其信眾多為臺灣總督府交通局鐵道部員工，因此以鐵道部運輸課長村上彰一之諡號「鐵真」命名為「鐵真院」，並在寺中設立「村上彰一翁碑」。1998年正式列名為市定古蹟，環境充滿寧靜、安適的氣息。",
        "time": "星期一: 06:00 – 19:30\n星期二: 06:00 – 19:30\n星期三: 06:00 – 19:30\n星期四: 06:00 – 19:30\n星期五: 06:00 – 19:30\n星期六: 06:00 – 19:30\n星期日: 06:00 – 19:30",
        "place_id": "ChIJ4x2lzBKpQjQR7U4mkQiwozY",
        "lat": 25.0504949,
        "lng": 121.5141059,
        "type": "monuments"
    },
    {
        "id": 62,
        "name": "旗山武德殿",
        "star": 4.2,
        "address": "842台灣高雄市旗山區",
        "city": "高雄市",
        "region": "旗山區",
        "info": "1934年興建的旗山武德殿，採傳統日本式寺殿式樣建築建造，不過由於日式廟堂多仿唐朝建築，故武德殿也具有相當濃厚的唐朝風格",
        "time": "星期一: 休息\n星期二: 09:00 – 18:00\n星期三: 09:00 – 18:00\n星期四: 09:00 – 18:00\n星期五: 09:00 – 18:00\n星期六: 09:00 – 18:00\n星期日: 09:00 – 18:00",
        "place_id": "ChIJKw0wFK1rbjQR_FIJrvefyUI",
        "lat": 22.887975,
        "lng": 120.4802389,
        "type": "monuments"
    },
    {
        "id": 63,
        "name": "清代機器局遺構",
        "star": 3.5,
        "address": "103台灣台北市大同區塔城街9號",
        "city": "台北市",
        "region": "大同區",
        "info": "清代機器局遺構，位在臺北市塔城街兩側，為1885年建立的機器局遺跡，在2006年因臺北捷運松山線施工整地時被發現，包含石砌牆、清代石板路和機器局四進衙門的遺構，於2009年指定為臺北市市定古蹟，目前部分展示於捷運北門站，部分地下的遺構已以回填的方式保護。",
        "time": "無",
        "place_id": "ChIJtQ4HEjGpQjQRu-BThj8nT_4",
        "lat": 25.0507258,
        "lng": 121.5106393,
        "type": "monuments"
    },
    {
        "id": 64,
        "name": "美濃警察分駐所",
        "star": 2.9,
        "address": "843台灣高雄市美濃區美中路262號",
        "city": "高雄市",
        "region": "美濃區",
        "info": "美濃舊派出所設立於1902年，位在當時全庄之中心位置處，後於1928年間始建成具有東洋特色的派出所。舊派出所為鋼筋混凝土造建築，立面至今狀況仍佳，具體反映當時材料挑選的嚴謹與施作態度的認真。舊派出所後方有舊宿舍，亦有近百年歷史，目前皆為閒置空間，建築本身經過歲月的侵蝕已部份破壞，需進行修繕。舊派出所是日據時期美濃鎮的政經中心，只是隨著時代的轉變，周邊的百年美濃國小已煥然一新，庄役場、信用組合、永安老街、火車站和美濃穀倉等日據時期老建築，都已拆除或重建，只剩舊派出所屹立不搖。",
        "time": "星期一: 24 小時營業\n星期二: 24 小時營業\n星期三: 24 小時營業\n星期四: 24 小時營業\n星期五: 24 小時營業\n星期六: 24 小時營業\n星期日: 24 小時營業",
        "place_id": "ChIJo4Sv1aVuBxQRBsn1xY1lbOM",
        "lat": 22.8945418,
        "lng": 120.5419178,
        "type": "monuments"
    },
    {
        "id": 65,
        "name": "大稻埕辜宅",
        "star": 4.0,
        "address": "103台灣台北市大同區歸綏街303巷9號",
        "city": "台北市",
        "region": "大同區",
        "info": "位於歸綏街303巷9號的辜家鹽館，是前海基會董事長辜振甫的父親辜顯榮於1910年所興建的。由於辜家當時經營鹽業，因此這棟辜家大宅，也一直被稱為「鹽館」。它就面對著當時的淡水河碼頭，原來是為了做生意，房子建在河邊，船就可以直接在屋前靠岸。",
        "time": "無",
        "place_id": "ChIJ63Hu1RWpQjQRvTaLF1sh_Q8",
        "lat": 25.0587556,
        "lng": 121.5088212,
        "type": "monuments"
    },
    {
        "id": 66,
        "name": "淡水海關碼頭",
        "star": 4.3,
        "address": "251台灣新北市淡水區中正路259號",
        "city": "新北市",
        "region": "淡水區",
        "info": "海關碼頭在臺灣近代史上一直扮演著重要的地位，今日此處可見清朝、日據時期及戰後三時代的建設。淡水港口繁榮之時，曾有十多個國家的船隻停泊於此，碼頭區內清朝時期的洋樓與兩座日據時期的港務倉庫，都成為淡水開港通商時的見證物。",
        "time": "星期一: 09:30 – 19:30\n星期二: 09:30 – 19:30\n星期三: 09:30 – 19:30\n星期四: 09:30 – 19:30\n星期五: 09:30 – 19:30\n星期六: 09:30 – 19:30\n星期日: 09:30 – 19:30",
        "place_id": "ChIJWTnZhk-lQjQR-2RY41FDX2I",
        "lat": 25.174482,
        "lng": 121.431753,
        "type": "monuments"
    },
    {
        "id": 67,
        "name": "旗山車站_糖鐵故事館",
        "star": 4.1,
        "address": "842台灣高雄市旗山區中山路1號",
        "city": "高雄市",
        "region": "旗山區",
        "info": "旗山火車站建於西元1913年(日大正2年)~1915年(日大正4年)，火車站的建築風格，有人稱為擬洋風建築，這樣的建築形式是日本建築留學生帶來臺灣的建築形式，融合了和式、維多利亞式及哥德式風格，造型十分典雅可愛，整棟建築呈現出一種輕鬆活潑的節奏感。淡藍色的外觀十分迷人，遊客不僅爭相與車站合照，更是旗山當地最知名的地標。",
        "time": "星期一: 10:00 – 18:00\n星期二: 休息\n星期三: 10:00 – 18:00\n星期四: 10:00 – 18:00\n星期五: 10:00 – 18:00\n星期六: 10:00 – 19:00\n星期日: 10:00 – 19:00",
        "place_id": "ChIJu0mEUlNqbjQRRgU7Ogedxco",
        "lat": 22.8846222,
        "lng": 120.4819841,
        "type": "monuments"
    },
    {
        "id": 68,
        "name": "理學堂大書院",
        "star": 4.3,
        "address": "251台灣新北市淡水區真理街32號",
        "city": "新北市",
        "region": "淡水區",
        "info": "清同治11年（西元1872年）加拿大基督教長老會牧師馬偕博士來臺灣傳教，光緒6年（西元1880年）在淡水創立偕醫院。光緒8年（西元1882年）馬偕在淡水創辦理學堂大書院（即牛津學堂），為長老教會培育傳教、醫療和教育人才的學校。大正3年（西元1914年）將學堂由淡水遷至臺北雙連臨時校舍，其後改名為「臺北神學校」，原「理學堂大書院」改設立淡江中學校，成為臺灣北部第一間西學學堂。 馬偕在臺灣所興建許多建築中，理學堂大書院是帶有濃厚中西合璧意味的一棟。書院方位坐北朝南，東西長七十六呎，南北長一百一十六呎，所有磚瓦都由廈門運來，接著材以糯米烏糖、石灰與砂相拌代替水泥。 理學堂大書院為兩落兩護龍建築，正廳屋頂裝飾有小尖塔，正門門楣為觀音山石，上題「理學堂大書院，Oxford College1882」。正堂內展示馬偕的相關文物，兩護龍正面山牆設有一門兩窗，相當特別。",
        "time": "星期一: 13:00 – 16:00\n星期二: 10:00 – 12:00, 13:00 – 16:00\n星期三: 10:00 – 12:00, 13:00 – 16:00\n星期四: 10:00 – 12:00, 13:00 – 16:00\n星期五: 10:00 – 12:00, 13:00 – 16:00\n星期六: 休息\n星期日: 休息",
        "place_id": "ChIJW0zwJVClQjQRdyntlxalI6E",
        "lat": 25.17602,
        "lng": 121.434485,
        "type": "monuments"
    },
    {
        "id": 69,
        "name": "新北市瑞芳區九份國民小學",
        "star": 4.2,
        "address": "224台灣新北市瑞芳區崙頂路145號",
        "city": "新北市",
        "region": "瑞芳區",
        "info": "九份國小是九份地區唯一一所的小學，學校初建於民國二年，看著九分從繁榮走向沒落，卻又靠著觀光而重生。學校的四周被民宿包圍，這所小學雖然小巧，但是麻雀雖小五臟俱全，更有著絕佳的風景點。學校內更有一座非常特別的礦坑文物館，走入其中，彷彿置身於礦坑，是學校為了要配合課程推展的「鄉土教學活動」，讓全校學生從認識自己的家鄉開始，了解家鄉的文物、體驗早期的生活和演變，因此礦坑文物館與鄉土文物教育館結合。",
        "time": "無",
        "place_id": "ChIJE9g6t-dPXTQRbsEBTebSfHo",
        "lat": 25.1074286,
        "lng": 121.8436296,
        "type": "monuments"
    },
    {
        "id": 70,
        "name": "萬春宮",
        "star": 4.5,
        "address": "400台灣台中市中區成功路212號",
        "city": "台中市",
        "region": "中區",
        "info": "萬春宮創立於康熙、雍正年間，而現在的建築則是在民國四十七年興建完成，為一古色古香的宮殿式建築。宮內奉祀天上聖母，聖母塑像上懸掛一塊光緒皇帝題賜的「海晏河清」匾額，前殿上方的藻井有如蜘蛛網般由下而上呈尖形，為一吸引人的特別之處。",
        "time": "星期一: 06:00 – 21:00\n星期二: 06:00 – 21:00\n星期三: 06:00 – 21:00\n星期四: 06:00 – 21:00\n星期五: 06:00 – 21:00\n星期六: 06:00 – 21:00\n星期日: 06:00 – 21:00",
        "place_id": "ChIJt33WyGw9aTQRpyZFZtWD8CY",
        "lat": 24.1422288,
        "lng": 120.6814742,
        "type": "monuments"
    },
    {
        "id": 71,
        "name": "北埔老街",
        "star": 4.1,
        "address": "314台灣新竹縣北埔鄉北埔街",
        "city": "新竹縣",
        "region": "北埔鄉",
        "info": "北埔老街位在臺灣新竹縣北埔鄉，其街區即在「北埔老聚落」之範圍內，包括北埔街、廟前街、南興街、城門街，街區內有金廣福公館、天水堂、姜阿新洋樓、北埔慈天宮、北埔忠恕堂等古蹟，為新竹縣的著名旅遊景點。其特產有靠秋季九降風製成的柿餅、柿乾以及芋仔番薯月餅，而另稱「膨風茶」的東方美人茶與客家擂茶亦頗有名氣。 ",
        "time": "星期一: 09:30 – 17:30\n星期二: 09:30 – 17:30\n星期三: 09:30 – 17:30\n星期四: 09:30 – 17:30\n星期五: 09:30 – 17:30\n星期六: 08:00 – 18:00\n星期日: 08:00 – 18:00",
        "place_id": "ChIJ_____09PaDQR8ZY0EY7i9Os",
        "lat": 24.6998161,
        "lng": 121.0572201,
        "type": "monuments"
    },
    {
        "id": 72,
        "name": "原台南測候所",
        "star": 4.3,
        "address": "700台灣台南市中西區公園路21號",
        "city": "台南市",
        "region": "中西區",
        "info": "現代氣象科技展示場與原台南測候所結合成為氣象展示場，不僅還原了古蹟之美更蘊含了世代交替的文化傳承，參觀者可見證一百多年來氣象進步的軌跡，亦可瞭解自然科學的奧妙，為臺南市環境教育設施場所之一。\n\n原台南測候所在台南人心中一樣有著很重要的地位，測候所位置在當時台南市中心最高處，海拔14m的鷲嶺，因為造型的關係，被許多老台南人戲稱為胡椒罐，也因為特殊的18等分放射狀屋頂，也被稱為18角樓。原台南測候所座落在氣象局南區氣象中心前方，在兩棟現代化大樓之中非常顯眼，仔細觀察的話會發現建築物是以三個同心圓環環相扣而成，最內層的圓就是白色的圓塔，裡面擺滿了各種氣象觀測設備，中間的圓是走道，最外層的圓就是辦公室，特殊的外觀總讓遊客忍不住多看兩眼。\n\n氣象展示場每到3~4月間紅花風鈴木盛開時，總是吸引許多人潮聚集，粉紅色的花與氣象博物館跟對面太平境教會互相輝映，常常引人駐足觀賞；到了夜晚粉紅色的風鈴木有如夜櫻般艷麗，是您不可錯過的一幕。 ",
        "time": "星期一: 09:00 – 17:00\n星期二: 09:00 – 17:00\n星期三: 09:00 – 17:00\n星期四: 09:00 – 17:00\n星期五: 09:00 – 17:00\n星期六: 休息\n星期日: 休息",
        "place_id": "ChIJq7vR14l2bjQRhmlNkSlt5vk",
        "lat": 22.9936765,
        "lng": 120.2050336,
        "type": "monuments"
    },
    {
        "id": 73,
        "name": "臨水夫人媽廟",
        "star": 5.0,
        "address": "420台灣台中市豐原區豐中路31巷12號號",
        "city": "台中市",
        "region": "豐原區",
        "info": "開基臨水夫人媽廟舊稱臨水夫人廟，位於臺灣臺南市中西區，延平郡王祠西北方，為一間主奉臨水夫人的寺廟。該廟會舉行與生育相關的儀式「栽花換斗」、「移花換斗」、「過囝仔關」等等。 臺灣清代已存在且被方志記載的臨水夫人廟只有該廟以及高雄旗後臨水宮、高雄大社碧雲宮，其中臺南的臨水夫人廟為最早見於文獻記載者。 ",
        "time": "星期一: 09:00 – 21:30\n星期二: 09:00 – 21:30\n星期三: 09:00 – 21:30\n星期四: 09:00 – 21:30\n星期五: 09:00 – 21:30\n星期六: 09:00 – 21:30\n星期日: 09:00 – 21:30",
        "place_id": "ChIJm0rF4A0aaTQRF1TDvYebHmw",
        "lat": 24.2558583,
        "lng": 120.7221964,
        "type": "monuments"
    },
    {
        "id": 74,
        "name": "梁實秋故居",
        "star": 4.4,
        "address": "106台灣台北市大安區雲和街11號",
        "city": "台北市",
        "region": "大安區",
        "info": "梁實秋故居建於1933年間，最早是臺北高等學校英語教授富田義介宿舍。光復後，改制為省立師範學院教職員宿舍，陸續由張儒林、梁實秋、甯杼等人入住使用。2003年臺北市政府市政會議通過「梁實秋故居」為歷史建築。國立臺灣師範大學於2005年進行梁實秋故居調查研究，並於2010年至2011年進行修復並保持故居基本風貌。現已成為深具歷史人文意涵的著名地標。 ",
        "time": "星期一: 休息\n星期二: 11:30 – 17:00\n星期三: 11:30 – 17:00\n星期四: 11:30 – 17:00\n星期五: 11:30 – 17:00\n星期六: 休息\n星期日: 休息",
        "place_id": "ChIJbQoYhY-pQjQRxm0c4eecB1A",
        "lat": 25.0238237,
        "lng": 121.5278787,
        "type": "monuments"
    },
    {
        "id": 75,
        "name": "殷海光故居",
        "star": 4.4,
        "address": "10648台灣台北市大安區溫州街18巷16弄1之1號",
        "city": "台北市",
        "region": "大安區",
        "info": "殷海光故居位於溫州街十八巷十六弄內，西元1945年所建，此區日據時代為台大教授的宿舍群，植物濃綠青翠，充滿濃厚的文藝學術氣息。\n\n殷海光先生1949年從中國大陸遷居來台，一方面在台北帝國大學(現台灣大學)哲學系授課，另一方面為《自由中國》撰寫政論文章，秉持『寧鳴而死，不默而生』的精神，以文筆對抗言論思想禁制，勇於對抗威權、批評時政，是中國自由主義重要傳承人物，對台灣後來的民主政治發展產生很大的影響。\n\n此棟屋舍為一層樓之日式木造房屋，基地呈現一三角形，與周遭其他宿舍相連。臺北市政府於2003年5月正式指定此故居為市定古蹟，內保存了殷海光先生重要的文化資產。台灣大學近年來開放殷海光故居供學校做校外教學之用，並於2008年11月委任財團法人紀念殷海光先生學術基金會經營管理。",
        "time": "星期一: 休息\n星期二: 11:00 – 17:00\n星期三: 13:00 – 17:00\n星期四: 11:00 – 17:00\n星期五: 13:00 – 17:00\n星期六: 11:00 – 17:00\n星期日: 休息",
        "place_id": "ChIJn9bVD4apQjQRIyvOJmpcRDg",
        "lat": 25.0241718,
        "lng": 121.53199,
        "type": "monuments"
    },
    {
        "id": 76,
        "name": "R22A_新北投站",
        "star": 4.3,
        "address": "112台灣台北市北投區大業路700號",
        "city": "台北市",
        "region": "北投區",
        "info": "臺鐵淡水線僅存之百年車站\n認識北投的入口，了解鐵道生活文化的起點\n日治時期為發展新北投地區溫泉觀光產業，興建新北投支線，於1916年(大正5年)設置「新北投乘降所」後改稱為「新北投驛」，新北投地名，由此而生。新北投車站為北淡線甚至是臺北市僅存的百年車站，其站體為木造結構，簷架下的雕花托座及1937年因擴建站體產生的3+1組合老虎窗，為車站建築一大特色。 然1988年因北淡線停駛而走入歷史並將站體拆遷至彰化台灣民俗村。\n\n2003年文化資產保存意識抬頭，臺北市政府與民間團體攜手爭取車站回家，幾經波折後，日榮資產股份有限公司有感於臺北市民對於車站返鄉的熱忱與期盼，同意無償捐贈新北投車站予臺北市政府文化局。\n\n車站重組位置於2016年以模擬站體試驗交通議題，最後定案於原址附近的七星公園內(即今所見)，修復工程隨即展開，並於2017年4月重組完成再次對外開放。",
        "time": "無",
        "place_id": "ChIJhX4bRUWuQjQRVKzt2SEZC0g",
        "lat": 25.1369406,
        "lng": 121.5022901,
        "type": "monuments"
    },
    {
        "id": 77,
        "name": "蔡英文總統古厝",
        "star": 3.3,
        "address": "941台灣屏東縣枋山鄉屏東縣枋山鄉楓港村里龍109號",
        "city": "枋山鄉",
        "region": "台灣",
        "info": "台灣第一位女總統的老家在屏東楓港，屋齡逾一甲子的狹小磚房老宅，過去僅有零星的遊客，但隨著小英的當選，現在已是屏東人氣報表的新景點；這棟屋齡逾一甲子的兩層樓磚造屋，建築融入日式和西式風格，室內只有十多坪大，屋後的廢棄豬圈整建為小花園，而小英更在四年前在這個小花園內種下在地原生的楓港柿，並題字取名為「楓園」。",
        "time": "無",
        "place_id": "ChIJfwqbxgrGcTQReYTk8SHx2pQ",
        "lat": 22.19068499999999,
        "lng": 120.68996,
        "type": "monuments"
    },
    {
        "id": 78,
        "name": "赤山龍湖巖",
        "star": 4.5,
        "address": "734台灣台南市六甲區珊瑚路198巷1號",
        "city": "台南市",
        "region": "六甲區",
        "info": "赤山龍湖巖是六甲區域最有名的古寺，至今已有300多年的歷史，相傳是明鄭參軍陳永華所建，主祀觀世音菩薩，過往俗稱「巖龍湖庵」，至今仍香火鼎盛，參拜的遊客絡繹不絕。\n\n赤山龍湖巖背山面水，山前中央凸出一塊平地，三面環水，讓寺廟有如建造於一座陸島之上。每當夕陽西下時水面的陽光反射，讓寺廟金光閃閃有如觀世音菩薩降臨，而到夜間月亮升起，平靜的湖水有如鏡面倒映著月亮，又是另一種柔美的景致。\n\n寺中共有四座大殿，廟宇內肅穆莊嚴，令人心情平靜，最後殿的法堂中典藏白聖老和尚從印度迎回的佛陀舍利，是赤山龍湖巖的鎮寺之寶，來此參拜可別忘了親眼目睹佛陀一回。",
        "time": "星期一: 06:00 – 18:00\n星期二: 06:00 – 18:00\n星期三: 06:00 – 18:00\n星期四: 06:00 – 18:00\n星期五: 06:00 – 18:00\n星期六: 06:00 – 18:00\n星期日: 06:00 – 18:00",
        "place_id": "ChIJJx58MxeIbjQRZabxfFcoAXQ",
        "lat": 23.2167759,
        "lng": 120.3609808,
        "type": "monuments"
    },
    {
        "id": 79,
        "name": "玄空法寺",
        "star": 4.3,
        "address": "715台灣台南市楠西區中華路270號",
        "city": "台南市",
        "region": "楠西區",
        "info": "位於楠西的玄空法寺佔地面積寬廣，寺內庭園造景相當漂亮，以「五葉松」、「樹化玉」、「奇石」等景觀聞名，其中一條由寺內師傅自行鋪設的的森林步道–「生命之路」更是吸引眾多遊客拜訪。長達3、400公尺的生命之路不但是全台最長，道路兩旁的秀麗景色更是一絕！漫步其中可欣賞婀娜多姿的百年五葉松、曲折盤繞的老松，還有多座擁有1-2億年歷史的樹化玉奇石，樹化玉就是樹木的化石，因為化石不可再生，相當稀有，相傳還有鎮宅、避邪改運的功用，非常神奇。最適合民眾周末假日來此參拜、踏青及賞石，若時近黃昏，還可以至「見佛亭」欣賞晚霞金黃絢麗的奪目美景喔。",
        "time": "星期一: 08:00 – 17:30\n星期二: 08:00 – 17:30\n星期三: 08:00 – 17:30\n星期四: 08:00 – 17:30\n星期五: 08:00 – 17:30\n星期六: 08:00 – 17:30\n星期日: 08:00 – 17:30",
        "place_id": "ChIJJZhumoCKbjQRL2iQ0r_sRQ8",
        "lat": 23.1821354,
        "lng": 120.4825457,
        "type": "monuments"
    },
    {
        "id": 80,
        "name": "淡水街長多田榮吉故居",
        "star": 4.3,
        "address": "251台灣新北市淡水區馬偕街19號",
        "city": "新北市",
        "region": "淡水區",
        "info": "多田榮吉故居位在埔頂山丘的半山腰，座北朝南，後有山坡，前為陡峭駁坎，基地居高臨下，可以俯瞰淡水河岸及觀音山優美的風景。建物原址在清代為學海書院的學田，今日的地址是馬偕街19 號，鄰近淡水圖書館、小白宮及文化國小。建築充滿濃厚日本風情，同時又是全台第一間擁有自來水設備的民宅，不僅對當時臺灣自來水事業發展具有劃時代的意義，也是本宅最有歷史性紀念的價值之一。",
        "time": "星期一: 09:30 – 17:00\n星期二: 09:30 – 17:00\n星期三: 09:30 – 17:00\n星期四: 09:30 – 17:00\n星期五: 09:30 – 17:00\n星期六: 09:30 – 18:00\n星期日: 09:30 – 18:00",
        "place_id": "ChIJad1hblqlQjQRatbkM9LlV80",
        "lat": 25.1732325,
        "lng": 121.4373973,
        "type": "monuments"
    },
    {
        "id": 81,
        "name": "士林慈誠宮",
        "star": 4.5,
        "address": "111台灣台北市士林區大南路84號",
        "city": "台北市",
        "region": "士林區",
        "info": "士林慈諴宮又稱士林媽祖廟，主祀天上聖母，位於遠近馳名的士林夜市之內。慈諴宮的前身為1796年（清嘉慶元年）業主何錦堂獻地所建的廟，當時稱為天后宮。1859年（咸豐9年），發生漳、泉械鬥，芝蘭街也遭波及火焚，天后宮亦付之一炬。舊街慘遭焚毀後，縉紳潘永清力主遷地另建新街，得到大多數街民的贊同，於是選擇在下樹林處建設新街，即今日的士林新街。同時在街區中央規劃為廟址，即現今慈諴宮所在地。",
        "time": "星期一: 06:00 – 22:00\n星期二: 06:00 – 22:00\n星期三: 06:00 – 22:00\n星期四: 06:00 – 22:00\n星期五: 06:00 – 22:00\n星期六: 06:00 – 22:00\n星期日: 06:00 – 22:00",
        "place_id": "ChIJRy2gvLquQjQRlgtKEgMl6XI",
        "lat": 25.0894903,
        "lng": 121.5246627,
        "type": "monuments"
    },
    {
        "id": 82,
        "name": "吳園藝文中心",
        "star": 4.4,
        "address": "700台灣台南市中西區民權路二段30號",
        "city": "台南市",
        "region": "中西區",
        "info": "「吳園藝文中心」原屬荷蘭通事何斌的庭園舊址，道光初，承販台鹽致富的吳春貴之子吳尚新收購此地，並聘名匠沿著地勢高低建構庭園，仿照漳州城外飛來峰的形勢，佈置假山、池台水閣、奇花異木，名為「吳園」，俗稱「樓仔內」。\n\n「吳園」創建至今達170餘年，就整體而言，尚保有部份的傳統園林風格；與板橋「林家花園」、新竹「北郭園」、霧峰「萊園」等號稱台灣四大名園。",
        "time": "星期一: 24 小時營業\n星期二: 24 小時營業\n星期三: 24 小時營業\n星期四: 24 小時營業\n星期五: 24 小時營業\n星期六: 24 小時營業\n星期日: 24 小時營業",
        "place_id": "ChIJgcp5wol2bjQRdslnxYwK30Y",
        "lat": 22.9943733,
        "lng": 120.2059555,
        "type": "monuments"
    },
    {
        "id": 83,
        "name": "五番坑道紀念公園",
        "star": 3.9,
        "address": "224台灣新北市瑞芳區輕便路",
        "city": "新北市",
        "region": "瑞芳區",
        "info": "九份五番坑鑿於民國十六年，原本為日本人所經營管理，台灣光復後交由九大公司承包，於民國六十年全面停止開採，並因安全問題封閉坑道。坑口前有一座小廣場相當適合團康活動使用，目前整建為五番坑小公園，並設有多項休憩設施，是欣賞九份海景的最佳位置。",
        "time": "星期一: 24 小時營業\n星期二: 24 小時營業\n星期三: 24 小時營業\n星期四: 24 小時營業\n星期五: 24 小時營業\n星期六: 24 小時營業\n星期日: 24 小時營業",
        "place_id": "ChIJpYR7pz1FXTQRAXZdKZVBccY",
        "lat": 25.1070561,
        "lng": 121.8421426,
        "type": "monuments"
    },
    {
        "id": 84,
        "name": "開基玉皇宮",
        "star": 4.7,
        "address": "704台灣台南市北區佑民街111號",
        "city": "台南市",
        "region": "北區",
        "info": "臺南市開基玉皇宮，民間俗稱舊天公廟，位於臺南市北區，昔日府城鎮北坊，建於明鄭時代，主祀玉皇上帝，乃萬天之主宰，為天界至尊之神，主宰三界，尊稱玉皇大天尊玄穹高上帝，俗稱天公、天公祖、玉帝，為臺灣最早奉祀玉皇上帝、玉皇四殿下、玉皇三公主娘之首廟。與台灣首廟天壇同為台南市兩大天公廟。",
        "time": "星期一: 05:00 – 20:00\n星期二: 05:00 – 20:00\n星期三: 05:00 – 20:00\n星期四: 05:00 – 20:00\n星期五: 05:00 – 20:00\n星期六: 05:00 – 20:00\n星期日: 05:00 – 20:00",
        "place_id": "ChIJf_iGlop2bjQRE8tKT1uYg-A",
        "lat": 22.9998778,
        "lng": 120.2069933,
        "type": "monuments"
    },
    {
        "id": 85,
        "name": "台北中山堂",
        "star": 4.0,
        "address": "100台灣台北市中正區台北公會堂",
        "city": "台北市",
        "region": "中正區",
        "info": "中山堂位於臺灣臺北市中正區延平南路，是臺灣第一個會展建築。其落成於臺灣日治時期的1936年11月26日，當時稱為臺北公會堂，為日本知名建築家井手薰的作品。1945年中華民國接管臺灣後改為現名。1992年1月，該建築被中華民國內政部以「臺北公會堂」為名公告指定為第二級古蹟。2019年，中華民國文化部公告升格為國定古蹟。",
        "time": "無",
        "place_id": "ChIJ9SJE3QupQjQRqFLbem_b484",
        "lat": 25.0433099,
        "lng": 121.5096111,
        "type": "monuments"
    },
    {
        "id": 86,
        "name": "橋頭糖廠_中山堂",
        "star": 3.9,
        "address": "825台灣高雄市橋頭區糖廠路24號",
        "city": "高雄市",
        "region": "橋頭區",
        "info": "日據時代中後期施行所謂皇民化運動，要將島國（臺灣）的積極的人民內地化，並推動信仰改造，於是日本統治者在各地建立起日本神社，目的就是為了要讓臺灣人放棄原本宗教。神社裡崇拜日本的天照神，強調效忠日本天皇的思想，而此「皇民化運動」促使橋仔頭糖廠的神社在昭和6年（1931年）11月5日設立，原本神社的位置，就在今日的中山堂所在地。",
        "time": "星期一: 08:00 – 17:00\n星期二: 08:00 – 17:00\n星期三: 08:00 – 17:00\n星期四: 08:00 – 17:00\n星期五: 08:00 – 17:00\n星期六: 休息\n星期日: 休息",
        "place_id": "ChIJFSjEdUYObjQRt22R6gNYfQM",
        "lat": 22.754064,
        "lng": 120.3146298,
        "type": "monuments"
    },
    {
        "id": 87,
        "name": "成美文化園",
        "star": 4.3,
        "address": "512台灣彰化縣永靖鄉中山路二段60號",
        "city": "彰化縣",
        "region": "永靖鄉",
        "info": "成美文化園，為永靖地區兼具歷史人文與觀光休憩的綜合型庭園空間。 園內擁有百年古厝「成美公堂」，訴說著先人唐山過台灣，篳路藍縷、開家發跡的艱辛歷史，更傳承著家族數百年來傳揚孔孟精神的文化記憶；匠心獨具的「和園」，承襲歷代名園技法，為台灣庭園工藝樹立典範。 由「成美公堂」出發，本園推動地方人文發展、策畫全國性之文化特展、舉辦傳統民俗活動、宣揚飲水思源及孝親精神，與在地居民共享共榮。如此高、大、深、遠之擘劃，旨在造福鄉里、行銷永靖，使「成美文化園」成為地方文化教育與休閒之重要指標，並串聯起永靖周遭區域，重新賦予永靖嶄新形象，期待由一傳統小農村，成為台灣人文景緻的新亮點！",
        "time": "星期一: 09:00 – 17:00\n星期二: 09:00 – 17:00\n星期三: 09:00 – 17:00\n星期四: 09:00 – 17:00\n星期五: 09:00 – 17:00\n星期六: 09:00 – 17:00\n星期日: 09:00 – 17:00",
        "place_id": "ChIJ_9bBguk1aTQRhCIhRswPh4o",
        "lat": 23.9201615,
        "lng": 120.5481614,
        "type": "monuments"
    },
    {
        "id": 88,
        "name": "安平老街",
        "star": 4.2,
        "address": "708台灣台南市安平區延平街",
        "city": "台南市",
        "region": "安平區",
        "info": "有著台灣第一街稱號的安平老街，是300多年前荷蘭人在安平建立的第一條街道，早期街道的設計都僅供人與推車通行，因此街廓並不是很寬。許多遊客來到安平也都必然進到這條古老的街道，擁擠熱鬧的人潮是安平老街的常態，似乎不這樣也不像安平老街，街上各式老店林立，不管是國內外遊客總在老街上穿梭尋寶，偶而抬頭看看街道上的老屋還能發現幾尊安座在屋頂的風獅爺，或是在門楣上的劍獅，也是走逛安平老街的樂趣。老街上還有許多條穿梭安平各處的小徑，每穿過一條小徑都有不同的風景，有茉莉巷，有胭脂巷等等，區域內也保留許多老式聚落，走在靜謐的巷弄裡面有如時光倒流一般，錯綜複雜的小巷也頗有探險的感覺，來到安平老街如果沒有走進巷弄的話就真的太可惜了。",
        "time": "星期一: 24 小時營業\n星期二: 24 小時營業\n星期三: 24 小時營業\n星期四: 24 小時營業\n星期五: 24 小時營業\n星期六: 24 小時營業\n星期日: 24 小時營業",
        "place_id": "ChIJ_____wN2bjQRIOio8uGV_Og",
        "lat": 23.000728,
        "lng": 120.1617807,
        "type": "monuments"
    }
]