[
    {
        "id": 1,
        "name": "藏寶莊園",
        "address": "台中市太平區山田路長青巷26-2號",
        "city": "台中市",
        "region": "太平區",
        "time": "星期一 12:00-17:00\n星期二 休息日\n星期三 12:00-17:00\n星期四 12:00-17:00\n星期五 12:00-17:00\n星期六 12:00-17:00\n星期日 12:00-17:00",
        "info": "位於太平酒桶山上的藏寶莊園，擁有台中絕美的天空之鏡，是近年來新興的台中網美打卡景點。藏寶莊園除了是裝潢唯美的景觀餐廳之外，也是露營區，除了提供精緻的排餐和下午茶點之外，也提供免搭帳篷、免裝備的星空露營服務，可遠離塵囂享受清新空氣、優美景色，度過悠哉約會時光。天空之鏡就位於餐廳的二樓，站上天空之鏡就好像踩在雲端上，山林美景就在眼前展開，隨著天候變化，反射出瞬息萬變的天空和自己，忍不住驚嘆好美好夢幻！或坐或站或臥，在不同時間來訪都能拍出只屬於那瞬間的迷人景色！\r\n※藏寶莊園為維護旅人來訪的用餐感受及觀景品質，來訪前記得一定要提前預約訂位才能入園。",
        "star": 3.4,
        "lat": 24.1376858,
        "lng": 120.8139549,
        "place_id": "ChIJkZDwP1cfaTQRJ43imTzYeB8"
    },
    {
        "id": 2,
        "name": "外埔忘憂谷",
        "address": "438台灣台中市外埔區溪底路26號",
        "city": "台中市",
        "region": "外埔區",
        "time": "24小時營業",
        "info": "想要尋一處好場所徹底拋下壓力與煩惱盡情紓壓嗎？喜歡大自然的讀者們，台中的外埔忘憂谷是個絕佳的選擇！忘憂谷廣達20公頃的田地，一年四季皆有不同的美麗景色，春耕夏耘的綠色稻田，壯觀的向日葵田，秋天的黃金稻浪，冬天休耕時，各處種起油菜花、波斯菊、小雛菊，就像天然畫布一般，開成整片黃、粉、白相間的夢幻地毯，展現令人忘憂之美。再加上此處不收費，吸引各地旅客前往賞花，也是超夯的免費打卡景點呢！\n\r\n※成熟中的水稻都是農民辛苦的心血，嚴禁遊客進入稻田區踩踏拍照，也請將垃圾帶回家，一起保持忘憂谷美麗環境與生態。",
        "star": 4.3,
        "place_id": "ChIJgdrplbwRaTQRKFi1Jros5lk",
        "lat": 24.3084241,
        "lng": 120.6464593
    },
    {
        "id": 3,
        "name": "臺中軟體園區DaliArt_藝術廣場",
        "address": "41267台灣台中市大里區科技路1號",
        "city": "台中市",
        "region": "大里區",
        "time": "週一～週五11:00～21:00\n週六、日9:30～22:00",
        "info": "Dali Art藝術廣場位於台中軟體園區內，以文化創意、文化藝術作為主題，規劃了許多超吸睛的裝置藝術品，吸引國內外遊客前來拍照觀賞。廣場內也有餐飲店、伴手禮品店、文創商品店、精品店等好逛又好玩。園區3樓規劃了美麗的LED燈光牆，讓愛拍照的朋友們趨之若鶩！而地下1樓打造成全台最大的親子遊樂園，設施非常豐富多元，不僅孩子玩得開心，大人也能拍得開心！此外，每年定期於農曆過年期間會舉辦「台灣文創藝術博覽會」，引進國內外知名藝術家展覽、音樂會演出、國際藝術村等活動，是民眾假日休閒近距離接觸藝術創作的好去處。\r\n※異想新樂園票價資訊請參考官方網站。\r\n※大型裝置藝術品會不定期更換",
        "star": 3.7,
        "place_id": "ChIJw6LNNrs8aTQR4KNbsrw-cCo",
        "lat": 24.0846306,
        "lng": 120.6961549
    },
    {
        "id": 4,
        "name": "麗寶OUTLET_MALL_二期",
        "address": "421台灣台中市后里區福容路201號",
        "city": "台中市",
        "region": "后里區",
        "time": "週一至週四/11:00-21:30\n週五/例假日前一日11:00-22:00\n週六/例假日10:30-22:00\n週日/例假日最後一日10:30-21:30",
        "info": "麗寶Outlet Mall二期整個環境以義大利科莫湖街道來設計，唯美的鐘樓星巴克，搭配復古街燈、花園水池，宛如走進歐洲小鎮的浪漫景緻當中，獨特的造型也吸引許多人前來拍照打卡。寬敞明亮開闊又舒適的室內購物空間，有許多不同類型的店家進駐，以及全台最大的湯姆熊育樂中心旗艦店，琳瑯滿目的遊樂設施，非常適合情侶共遊及全家同遊，若是肚子餓了，商場內還有約40家餐飲囊括義大利、日本、韓國、泰國…等異國美食供旅客選擇，可以在此逛上一整天！",
        "star": 4.2,
        "place_id": "ChIJtQNcXBsQaTQRSvC-i_YiNJk",
        "lat": 24.3245903,
        "lng": 120.6993847
    },
    {
        "id": 5,
        "name": "清水眷村文化園區",
        "address": "436台灣台中市清水區中社路信義巷41號",
        "city": "台中市",
        "region": "清水區",
        "time": "週二～週日9:30～17:30（國定假日休假）",
        "info": "清水眷村文化園區原為空軍眷舍信義新村，園區內保留了部分日治時期與眷村建築。走進清水眷村文化園區，彷彿時光倒流，隨處可見斑駁的牆壁與古老的紅磚，高低不一的房舍刻畫著歲月的痕跡，每一處都很好取景。園區內一些老房子內會不定期舉辦展覽，偶爾還會巧遇音樂會和市集，有些房子內直接擺放了裝置藝術，結合眷村文化融合出一股文青藝術感，令人感到懷舊又耳目一新。園區內有一條必拍的彩繪大道，充滿童趣的藍天、白雲、紙飛機圖案，搭配上兩旁的稻田，怎麼拍都好看！",
        "star": 3.8,
        "place_id": "ChIJGbTJB5sUaTQRN3uRvI1z4bE",
        "lat": 24.2687791,
        "lng": 120.5581303
    },
    {
        "id": 6,
        "name": "海灣繪本館",
        "address": "436台灣台中市清水區中社路54號",
        "city": "台中市",
        "region": "清水區",
        "time": "週六～週日10:00～17:00（週一～週五公休）",
        "info": "位於台中市立港區藝術中心與清水眷村文化園區後方，穿越過稻田之後，就能發現這處可愛又充滿夢幻童趣的海灣繪本館。繪本館牆上的彩繪大翅鯨，不論是大小朋友或網美來此處都與它一起合影。館內入場免門票，前方有一大片草皮，可讓孩子跑跳放電，館內則有一櫃櫃的繪本，是個讓孩子們聽故事、讀繪本，增進親子感情的溫馨空間。周末時也會不定期舉辦說故事時間或DIY時間，館內後方也幾個展示區，將繪本內容化為展示，彷彿走進繪本世界當中一般，不定時會變更展覽內容，每次來都有不同的樂趣及體驗喔！",
        "star": 4.3,
        "place_id": "ChIJlbulzpsUaTQRu8oW2UG1f74",
        "lat": 24.2681314,
        "lng": 120.5576551
    },
    {
        "id": 7,
        "name": "高美濕地",
        "address": "台中市清水區美堤街",
        "city": "台中市",
        "region": "清水區",
        "time": "棧道開放時間：約為8:00～18:00（每日按潮汐變化更動）",
        "info": "高美濕地被國際之間譽為一生中必遊一次的景點，全世界6大天空之鏡，高美濕地也名列其中！夕陽西下之際，海灘上映照著橘紅晚霞的絕美景致，絕對是來台中不能錯過的人氣定番經典！此處擁有豐富的天然資源，是知名的看夕陽與賞鳥、潮間帶觀察的熱門場所。自行開車的讀者可以將車子停在遊客中心停車場，先上到遊客中心2樓觀景台，此處是眺望高美濕地地標「高美雙曲景觀橋」以及整排大風車的最佳角度！順路將高美濕地景觀橋、風車玩過後再租借Ubike、開車或沿著堤防散步前往高美濕地木棧道，建議於下午4～5點抵達，剛好能夠欣賞享譽國際間的夕陽美景。假日欣賞完夕陽之後，還能從「高美濕地遊客服務中心」搭乘免費接駁專車前往附近的台中三井outlet美食街大啖美食，讓台中海線一日遊行程豐富充實！",
        "star": 4.5,
        "place_id": "ChIJvT5yFSYTaTQRdlamuLSItpM",
        "lat": 24.3132762,
        "lng": 120.5451837
    },
    {
        "id": 8,
        "name": "MITSUI_OUTLET_PARK_台中港",
        "address": "435台灣台中市梧棲區臺灣大道十段168號",
        "city": "台中市",
        "region": "梧棲區",
        "time": "週一~週五11:00～21:30\n週六~週日（含國定例假日）10:30～21:30",
        "info": "台中港三井Outlet是中台灣最大，也是全台首座海港型OUTLET，設施內聚集了約170間國內外知名品牌店鋪、美食餐廳，是度假購物的好去處！除了白天好逛好拍之外，黃昏入夜之後，還能搭上全台唯一夢幻海景摩天輪，眺望夕陽與台中港與台中梧棲海線夜景景色！晚上整個OUTLET園區點上燈光後，呈現與白天不同的浪漫氛圍，貨櫃店家與摩天輪打上燈光後更有味道，成為熱門的約會與打卡聖地！此處也是台中下雨天室內景點首選之一，逛街購物不怕風吹日曬雨淋，逛累了可以窩在誠品內欣賞美麗海景，別有一番樂趣。",
        "star": 4.2,
        "place_id": "ChIJY-bwtRY9aTQRxoY6m3u_ea4",
        "lat": 24.2593535,
        "lng": 120.51868
    },
    {
        "id": 9,
        "name": "新社星願紫風車",
        "address": "426台灣台中市新社區中興嶺99號",
        "city": "台中市",
        "region": "新社區",
        "time": "每日10:00、16:00、19:00，定時啟動15分鐘。",
        "info": "台中新社結合「幸福、夢想」的概念，將此風車命名為「星願紫風車」，其花朵造型獨特，\r\n漆上新社商圈浪漫、幸福的紫色，成為來到新社時必訪的打卡景點。每日10:00、16:00、19:00，會定時啟動15分鐘，紫風車上的滾輪會滾動，使啄木鳥敲打出清脆的音樂，搭配花朵造型風扇緩緩轉動，非常浪漫。後方的小公園，可以發現2019年新社花海的小王子主題造景，離開前也別忘了找小王子拍拍照！",
        "star": 3.6,
        "place_id": "ChIJbX0ooEkZaTQRNvqMRiAnwIw",
        "lat": 24.2040754,
        "lng": 120.7968419
    },
    {
        "id": 10,
        "name": "薰衣草森林",
        "address": "426台灣台中市新社區中興街20號",
        "city": "台中市",
        "region": "新社區",
        "time": "週一～週五10:30～18:30\n週六～週日10:00～18:30",
        "info": "位於台中新社山區中的薰衣草森林，宛如世外桃源，依不同季節盛開的美麗繡球花、整片的薰衣草花田，及其他各式各樣四季花朵，讓人們遠離城市喧囂，漫步在森林中深呼吸。園區內有許多可愛的小造景，像是小熊的家、繪本館，以及全台首座夢幻的森林旋轉木馬，愜意放鬆又可以拍照拍得超過癮。門票可抵園區內食物消費，在森林花草包圍中用餐，享受難得的寧靜時光。",
        "star": 4.8,
        "place_id": "ChIJaZ3vnX0faTQR7k6z9R-LcsY",
        "lat": 24.1284777,
        "lng": 120.841348
    },
    {
        "id": 11,
        "name": "新社莊園古堡",
        "address": "426台灣台中市新社區協中街23號",
        "city": "台中市",
        "region": "新社區",
        "time": "平日9:00～18:00\n假日8:00～18:00",
        "info": "一踏入新社莊園古堡，彷彿瞬間穿越至中古世紀的歐洲，石磚砌成的古堡、花園、酒莊、虹橋、石磚路、護城河，每一處設計都巧妙的與大自然結合，濃厚的歐風造景怎麼拍都好看，非常殺記憶體！這裡有浪漫的花園與美麗的景色，適合情侶們度過幸福時光，也有大片青草地與美食，適合帶著孩子來此放電享受闔家時光。可與附近景點新社花海、薰衣草森林做結合，安排新社一日遊行程！",
        "star": 4,
        "place_id": "ChIJCaPtUs4eaTQRQkwZ7aZ07hU",
        "lat": 24.1880699,
        "lng": 120.8133518
    },
    {
        "id": 12,
        "name": "心之芳庭",
        "address": "406台灣台中市北屯區芳庭路1號",
        "city": "台中市",
        "region": "北屯區",
        "time": "週二～週五10:30～18:30\n週六～週日 10:00～18:30",
        "info": "想要在台中尋找一處可以甜蜜約會的景點嗎？首選就是「心之芳庭」，心之芳庭是台灣唯一結合婚禮與遊憩的夢幻場地，分為婚禮區與約會區，婚禮區不開放一般遊客入場，一走進約會區就能感受到濃濃的愛情氣息，彷彿置身歐洲庭園一般，隨處都是可愛歐式小屋，也有設置白色鋼琴、花牆、歐式城牆等豐富的浪漫打卡必拍點，一定能為情侶之間感情加溫！不僅戶外好拍，室內的「親親我的家」以戀人為主題，將室內空間打造成溫暖的家一般，有浴缸、臥室、梳妝台等可愛造景，非常好拍！",
        "star": 4.6,
        "place_id": "ChIJ08JpKjofaTQRxQEa4hE7l2I",
        "lat": 24.1637238,
        "lng": 120.7673215
    },
    {
        "id": 13,
        "name": "BACiTALi小義大利威尼斯宮",
        "address": "40880台灣台中市南屯區龍富路三段589號",
        "city": "台中市",
        "region": "南屯區",
        "time": "11時00分～16時00分\n17時00分～21時30分",
        "info": "BACiTALi小義大利威尼斯宮是坐落於都市中的異國歐風城堡莊園餐廳，非常適合情侶約會或閨蜜聚餐！彷彿瞬間踏入義大利威尼斯一般，園內的戶外庭園、夢幻噴泉、花園步道以及城堡餐廳，每個角落都超美超好拍，成為網美必拍的打卡點。走進餐廳更是令人眼睛一亮，書牆、壁爐、沙發、水晶吊燈，用餐空間寬敞舒適，彷彿歐洲王公貴族們用餐的環境，又像是歐洲的美術館，每一區座位都有不同的設計風格，也有室外座位，美得令人拍到捨不得放下相機！餐點部分有提供每日湯品、前菜、沙拉、義大利麵飯、排餐、飲料、甜點與酒類等。餐點美味、環境優美、宛如化身為貴族一般的享受，下一次台中約會首選就決定是小義大利威尼斯宮了！",
        "star": 4.5,
        "place_id": "ChIJn7qvau09aTQR_0OA3W9MQqI",
        "lat": 24.1385728,
        "lng": 120.625589
    },
    {
        "id": 14,
        "name": "彩虹眷村",
        "address": "408台灣台中市南屯區春安路56巷25號",
        "city": "台中市",
        "region": "南屯區",
        "time": "8:00～18:00",
        "info": "彩虹眷村原本面臨被拆除的命運，居住在眷村中的彩虹爺爺突發奇想在牆壁與地面畫上繽紛色彩，一手打造出這個夢幻彩虹眷村，一炮而紅，被國際媒體喻為全台10大IG打卡熱點、最想去拍照景點與世界的秘密奇蹟，是網美們最愛的打卡景點之一，也是前往台中旅遊的必去景點之一。可愛又充滿童趣的俏皮塗鴉，寫滿正面話語的字句，處處療癒旅客的心，讓來訪者帶著滿滿的正能量離開。眷村內還有故事館、彩虹溜滑梯和沙坑、彩虹眷村美食-雷公蛋＆彩虹冰棒可暫時充飢，可愛的彩繪杯裝手搖杯、販售彩虹眷村風格伴手禮品的「藝彩本舖」，據說彩虹爺爺經常會在此跟旅客們聊天合照喔！好拍、好逛、又好玩的彩虹眷村等著各位來訪！",
        "star": 4.1,
        "place_id": "ChIJ25Ul-Ic-aTQRNnMAjMs2iJo",
        "lat": 24.133681,
        "lng": 120.609832
    },
    {
        "id": 15,
        "name": "柳川水岸景觀步道",
        "address": "400台灣台中市中區柳川西路三段",
        "city": "台中市",
        "region": "中區",
        "time": "星期一: 06:00 – 22:00\n星期二: 06:00 – 22:00\n星期三: 06:00 – 22:00\n星期四: 06:00 – 22:00\n星期五: 06:00 – 22:00\n星期六: 06:00 – 00:00\n星期日: 06:00 – 00:00",
        "info": "柳川位於台中火車站附近，是台中市中心四條重要河川之一，整治之後便成為台中市區最具代表性的新興熱門景點之一。白天景色宜人，入夜點燈之後燈火璀璨浪漫，不僅是拍美照、欣賞夜景的好地方，也非常適合情侶來此散步，漫步在富有藝術感的步道上，伴隨著潺潺流水聲，放鬆身心，度過專屬兩人的浪漫時光。",
        "star": 4.2,
        "place_id": "ChIJqUZvRQ09aTQRqh9vWv4suqs",
        "lat": 24.1424817,
        "lng": 120.6770897
    },
    {
        "id": 16,
        "name": "草悟道",
        "address": "403台灣台中市西區向上北路",
        "city": "台中市",
        "region": "西區",
        "time": "24小時營業",
        "info": "台中知名的草悟道，溶入了書法的行草藝術，將綠園道打造成為都會綠洲。北起自科學博物館，南至台灣美術館、途經勤美誠品綠園道、市民廣場、草悟廣場、審計新村等景點，草悟道沿途也有許多大小型裝置藝術和兒童遊戲區，非常適合情侶約會或爸媽帶著孩子出來放電。白天與夜晚的草悟道有著不同的氛圍感受，令人放鬆身心！假日會有市集攤位，非常熱鬧。不論是想找藝文空間、文創市集、公園綠地還是特色美食都能在台中草悟道沿途周邊找到！",
        "star": 4.4,
        "place_id": "ChIJh5VW1qY9aTQRgVpjgx_xu0s",
        "lat": 24.1484004,
        "lng": 120.66477
    },
    {
        "id": 17,
        "name": "台中中央公園",
        "address": "407台灣台中市西屯區中科路2966號",
        "city": "台中市",
        "region": "西屯區",
        "time": "6:00～22:00",
        "info": "台中水湳中央公園是位於台中市西屯區水湳經貿園區內的大型公園，前身為水湳機場，占地面積約254公頃，是台灣第四大公園。以智慧、創新、低碳為設計概念，並導入十二感官的哲學理念，讓大眾可以透過特具特色的視覺、思考、平衡等十二個感知體驗區更深入探索自我。公園內規劃了多條涼爽完善的步道、小橋水池、充滿特色的建築、孩子們的遊樂設施，視野開闊，是個適合散步、帶小孩玩耍放電、拍照放鬆轉換心情的好去處。",
        "star": 4,
        "place_id": "ChIJdXCHCzgWaTQRNlum28Vllkw",
        "lat": 24.1867791,
        "lng": 120.6539576
    },
    {
        "id": 18,
        "name": "Molecure分子藥局",
        "address": "407台灣台中市西屯區惠來路二段236-1號",
        "city": "台中市",
        "region": "西屯區",
        "time": "10:00～21:00",
        "info": "分子藥局號稱台中最美的藥局，位於台中國家歌劇院斜對面，時尚華美的裝潢，一瓶瓶的藥罐與櫃上商品的包裝都充滿了設計感，玫瑰金旋轉樓梯是網美們最愛的拍照景點，顛覆了我們對於藥局的刻板印象。分子藥局的英文名字「Molecure」取自Molecule (分子) 的諧音，再加入Cure (治癒) 的概念，充滿創意。若有對於藥品的疑問，店內也有專業藥師能幫忙解答。逛累了還能點一杯香濃的手沖咖啡休息喘口氣，彷彿造訪的不是藥局而是貴婦百貨！",
        "star": 4.3,
        "place_id": "ChIJGafepO09aTQRRuX4zv4SJzU",
        "lat": 24.163165,
        "lng": 120.6420785
    },
    {
        "id": 19,
        "name": "台中國家歌劇院",
        "address": "407025台灣台中市西屯區惠來路二段101號",
        "city": "台中市",
        "region": "西屯區",
        "time": "週日、週二至週四11:30～21:00\n週五至週六及國定假日11:30～22:00",
        "info": "台中國家歌劇院是由日本建築大師伊東豐雄設計，採用無樑柱「曲牆」建築工法，業界稱為「全球最難蓋的建築」。完成後成為世界第九大新地標，也是台中在地人與外縣市造訪台中時必定朝聖的經典行程之一。歌劇院1樓為VVG School 好樣學潮文創市集，喜歡創意小物的人來這裡尋寶就對了！2樓最大亮點就是位於中劇院外的公共藝術《翩翩》，搭配上紅地毯，非常好拍。5樓有不定期更換展覽的「凸凸廳」，以及隱藏版景點「可以走出去的涵洞」，據說在此唱歌下方的人也能聽得到呢！頂樓的6樓則是空中花園，可以眺望台中車水馬龍的市景。台中國家歌劇院裡外處處都是驚奇，不論哪個角落都好拍，真的令人大開眼界。",
        "star": 4.5,
        "place_id": "ChIJcaKjTOw9aTQR4mAeJzejtdg",
        "lat": 24.1626492,
        "lng": 120.6403028
    },
    {
        "id": 20,
        "name": "樂樂書屋LELE_BOOKS_HOUSE",
        "address": "407台灣台中市西屯區玉成路6號",
        "city": "台中市",
        "region": "西屯區",
        "time": "週一～週五13:30～17:30\n（週六、日公休）",
        "info": "樂樂書屋又有全台最美書店、豪宅圖書館之稱，隱身在落羽松森林之中，門前有隻巨大貓頭鷹地標。壯觀的書櫃，提供免費咖啡、紅茶、玉米鬚茶，優雅華麗寬敞舒適充滿設計感的閱讀空間，讓愛書人能專心徜徉於書香與咖啡香之中。書屋空間中點綴著植物，除了一般座位之外，也有美麗的沙發區、樹屋座位，每一區都能拍出唯美的照片。書籍種類多元，包含了小說、美學、設計、童書、旅遊、食譜等，部分座位還有提供插座，也很適合來此辦公。",
        "star": 4.4,
        "place_id": "ChIJjUzp_v8VaTQRabqYuSneC1M",
        "lat": 24.177072,
        "lng": 120.6200231
    },
    {
        "id": 21,
        "name": "桑原商店",
        "star": 4.4,
        "info": "台南也能找到濃濃日本味，一秒到日本，這家在台南巷弄內的小店，販賣著冰淇淋及獨特的甜甜圈點心，冰淇淋還會不定期推出新口味！每次光臨都能有不一樣的驚喜，因濃濃的日式風格成為必拍景點，有到台南一定要來拜訪一下！滿足相機及你的胃～",
        "address": "701台灣台南市東區光華街122號",
        "city": "台南市",
        "region": "東區",
        "time": "11:00~22:00",
        "place_id": "ChIJyaq1NYV2bjQRr4U_rEXjJA4",
        "lat": 22.9864498,
        "lng": 120.2164189
    },
    {
        "id": 22,
        "name": "台江國家公園",
        "star": 4.2,
        "info": "310公頃，園區內有紅樹林、濕地、潟湖、海埔地與沙洲等景觀，還包含了黑面琵鷺保護區。國家公園內自然與生態景觀十分豐富，早期台江可以停泊上千艘船的海灣，附近的海域也是漢人先民渡台的主要航道之一，還有一些傳統的漁業文化，可說是結合了歷史、人文與自然生態的多樣化園區。台江國家公園管理處遊客中心則是以「高腳屋」的建築構造，降低對地景的破壞，並讓遊客能近距離觀察魚塭生態系統，也被評定為鑽石級綠建築。",
        "address": "709台灣台南市安南區四草大道118號",
        "city": "台南市",
        "region": "安南區",
        "time": "09:00-17:00 (遊客中心)",
        "place_id": "ChIJAV0H0pTYbTQRuS5hyXnarzE",
        "lat": 23.0019817,
        "lng": 120.1387646
    },
    {
        "id": 23,
        "name": "十鼓仁糖文創園區",
        "star": 4.3,
        "info": "園區約佔地5公頃，原為仁德車路墘糖廠，有16座日治時代的舊倉庫群，原本已經閒置了近百年之久，2005年時由十鼓接手重新規劃，夜間時在燈光的投射之下老糖廠顯得格外的夢幻，另外園區也融入了鼓樂的元素，是亞洲第一座鼓樂主題的國際藝術村。",
        "address": "717台灣台南市仁德區文華路二段326號",
        "city": "台南市",
        "region": "仁德區",
        "time": "10:00-20:20 （假日9:30開園）",
        "place_id": "ChIJA0P9eml0bjQRAFSV5Tjabuc",
        "lat": 22.9393947,
        "lng": 120.2302833
    },
    {
        "id": 24,
        "name": "台南美術館二館",
        "star": 4.4,
        "info": "台南美術館二館建築外觀是以鳳凰花為設計概念，由普立茲克建築獎得主所設計規劃，純白的建築外觀成為台南的新興打卡熱門地點，館內有17間展館，屋頂以大型碎形玻璃構為，可以讓大量的陽光撒入館內，目前展品以南臺灣近代的美術作品為主。",
        "address": "70041台灣台南市中西區忠義路二段1號",
        "city": "台南市",
        "region": "中西區",
        "time": "09:00-17:00 (週一休)",
        "place_id": "ChIJ7Ruxw3x2bjQRZk4MEAECIq4",
        "lat": 22.990375,
        "lng": 120.2013554
    },
    {
        "id": 25,
        "name": "國立臺灣史前文化博物館_南科考古館",
        "star": 4.4,
        "info": "南科考古館基地面積約為24,219平方公尺，於2010年3月徵選出優勝廠商「姚仁喜 | 大元聯合建築師事務所」負責執行後續建築設計與監造事宜。歷經多方努力與期待，南科考古館終於在2014年6月動工，2017年11月完工，為臺灣南部地區史前文化保存與文化資產研究奠定發展基礎。以黑色方塊及白色線條設計美學的南科考古館，不管從空拍或遠眺看起來都十分神似魔術方塊，沉穩的建築風格隱身在植栽叢林裡，為充滿科技感的台南科學園區注入全新元素！",
        "address": "744台灣台南市新市區南科三路10號",
        "city": "台南市",
        "region": "新市區",
        "time": "週二至週日09:00~17:00",
        "place_id": "ChIJUZ8OmPF7bjQRVeHBvWtusXg",
        "lat": 23.1007846,
        "lng": 120.2836638
    },
    {
        "id": 26,
        "name": "港濱歷史公園_大魚的祝福",
        "star": 4.2,
        "info": "港濱歷史公園擁有大片綠地、林蔭，也有堤岸及親水公園，平常是台南民眾散步休閒看夕陽的地方，在2019年有新增了一個鯨魚造型裝置藝術「大魚的祝福」，這是大型裝置藝術，長23公尺、寬10公尺、高8公尺，整體沒有用一根螺絲，內部還有台灣的意像裝置，也是2019年台灣景觀大獎特殊主題類的得獎作品。",
        "address": "708台灣台南市安平區安億橋港濱歷史公園邊安億路旁",
        "city": "台南市",
        "region": "安平區",
        "time": "24小時營業",
        "place_id": "ChIJienCC6x3bjQRPtKI0pyOt0Q",
        "lat": 22.9957536,
        "lng": 120.1633655
    },
    {
        "id": 27,
        "name": "海安路藝術街",
        "star": 4.2,
        "info": "海安路藝術街兩旁因道路拓寬的緣故，留下了房屋半拆除的頹廢景象，後來由十幾位藝術家重新創作規劃，加上各式風格的公共藝術，晚上再加上燈光的投射後就更具特色，讓海安路成為街頭美術館。另外海安路上也有燒烤攤、啤酒屋、 PUB等店家聚集，有些還設有戶外座位，是台南夜間最熱鬧的徒步藝術區。",
        "address": "700台灣台南市中西區海安路二段5號",
        "city": "台南市",
        "region": "中西區",
        "time": "24小時營業",
        "place_id": "ChIJ5VdaHmd2bjQRU4n5IbANoPk",
        "lat": 22.9935209,
        "lng": 120.1961733
    },
    {
        "id": 28,
        "name": "奇美博物館",
        "star": 4.7,
        "info": "2015年開幕，佔地9.5公頃，耗資13億打造而成的博物館，看起來就像歐洲宮殿一般，是奇美集團許文龍先生建造完成後捐贈給台南市的，博物館最高處有「榮耀天使」雕像，象徵著永遠守護這片土地，是臨摹法國雕塑家路易．巴里亞斯的作品，還有阿波羅噴泉在護城河的橋上則是有奧林帕斯眾神的塑像，博物館內也有許多珍貴的館藏，其中奇美博物館的名琴（提琴）館藏是世界最完整的。",
        "address": "717015台灣台南市仁德區文華路二段66號",
        "city": "台南市",
        "region": "仁德區",
        "time": "戶外園區 09:00-18:30 (免費參觀)\n博物館 09:30-17:30",
        "place_id": "ChIJq6qqqnp0bjQRpvTHZeYTjKg",
        "lat": 22.9345608,
        "lng": 120.2260268
    },
    {
        "id": 29,
        "name": "安平老街",
        "star": 4.2,
        "info": "安平老街有台灣第一街之稱，是荷蘭人在三百年前於當地所建，又稱「延平老街」，街上有各式老店，老街巷弄小徑也都各具特色，像是茉莉巷、胭脂巷等，到安平老街來除了逛街外，也別忘了走進小徑巷弄裡尋尋寶喔！建議可以預約租一套旗袍，拍起照來特別有感覺!",
        "address": "708台灣台南市安平區延平街",
        "city": "台南市",
        "region": "安平區",
        "time": "24小時營業",
        "place_id": "ChIJ_____wN2bjQRIOio8uGV_Og",
        "lat": 23.000728,
        "lng": 120.1617807
    },
    {
        "id": 30,
        "name": "斑比山丘",
        "star": 4.6,
        "info": "想看小鹿不用跑到日本去了！斑比山丘有著台版奈良之稱～這次全面升級不只可以零距離與梅花鹿互動，還有網美咖啡店、全新的美食市集登場。",
        "place_id": "ChIJwT71ucHnZzQRes_f4T3OmrE",
        "lat": 24.6468831,
        "lng": 121.7431712,
        "address": "269台灣宜蘭縣冬山鄉下湖路285號",
        "city": "宜蘭縣",
        "time": "星期一: 10:00 – 17:00\n星期二: 10:00 – 17:00\n星期三: 10:00 – 17:00\n星期四: 10:00 – 17:00\n星期五: 10:00 – 17:00\n星期六: 09:00 – 17:00\n星期日: 09:00 – 17:00",
        "region": "冬山鄉"
    },
    {
        "id": 31,
        "name": "太平山",
        "star": 4.5,
        "info": "擁有自然山脈與雲霧繚繞的優美環境，而有「人間仙境」的美稱，園區內群山青翠，設有多條各具特色的步道，更有溫泉、高山湖泊等豐富的自然景觀。",
        "place_id": "ChIJ_TaOy7JwaDQRFf4T-zm2dqo",
        "lat": 24.49772399999999,
        "lng": 121.5350318,
        "address": "267台灣宜蘭縣大同鄉太平巷58之1號",
        "city": "宜蘭縣",
        "time": "星期一: 06:00 – 18:00\n星期二: 06:00 – 18:00\n星期三: 06:00 – 18:00\n星期四: 06:00 – 18:00\n星期五: 06:00 – 18:00\n星期六: 02:30 – 18:00\n星期日: 04:00 – 18:00",
        "region": "大同鄉"
    },
    {
        "id": 32,
        "name": "張美阿嬤農場",
        "star": 4.8,
        "info": "宜蘭最新親子農場張美阿嬤農場，有可愛的小鹿和水豚，也提供豐富的DIY活動體驗手作窯烤PIZZA！喜歡小動物的親子家庭可以趕快來玩!",
        "place_id": "ChIJhfheDgnhZzQRzHYRfqcbt3E",
        "lat": 24.6748671,
        "lng": 121.675608,
        "address": "266台灣宜蘭縣三星鄉行健溪一路二段161號",
        "city": "宜蘭縣",
        "time": "星期一: 09:00 – 17:30\n星期二: 09:00 – 17:30\n星期三: 09:00 – 17:30\n星期四: 09:00 – 17:30\n星期五: 09:00 – 17:30\n星期六: 08:30 – 17:30\n星期日: 08:30 – 17:30",
        "region": "三星鄉"
    },
    {
        "id": 33,
        "name": "鳩之澤",
        "star": 4.3,
        "info": "鳩之澤溫泉以石頭、竹子為藩籬，既古樸雅緻又富山林野趣，還有泡湯之樂和體驗溫泉煮蛋的嘗鮮滋味。",
        "place_id": "ChIJxRliVRFxaDQRNX86f5azxyY",
        "lat": 24.5453779,
        "lng": 121.5081831,
        "address": "267台灣宜蘭縣大同鄉燒水巷25號",
        "city": "宜蘭縣",
        "region": "大同鄉",
        "time": "09:00-19:00"
    },
    {
        "id": 34,
        "name": "清水地熱",
        "star": 4.4,
        "info": "重新開幕的清水地熱，是最近熱門的景點～來泡泡地熱足浴、煮地熱美食，野餐品嚐溫泉蛋、玉米、地瓜吧！",
        "place_id": "ChIJVVVVVRVxaDQRDc3Y8MyRVlE",
        "lat": 24.6118089,
        "lng": 121.6365653,
        "address": "267台灣宜蘭縣大同鄉三星路八段501巷150號",
        "city": "宜蘭縣",
        "region": "大同鄉",
        "time": "星期一: 09:00 – 17:00\n星期二: 09:00 – 17:00\n星期三: 09:00 – 17:00\n星期四: 09:00 – 17:00\n星期五: 09:00 – 17:00\n星期六: 09:00 – 17:00\n星期日: 09:00 – 17:00"
    },
    {
        "id": 35,
        "name": "粉鳥林",
        "star": 4.3,
        "info": "碧綠青山偎傍湛藍海水，清爽的海風撲面而來，閒適優游，已成為東海岸遊客必訪之處。",
        "place_id": "ChIJRSeLXmHDZzQRhy8BftT4kAM",
        "lat": 24.4972724,
        "lng": 121.8431701,
        "address": "270台灣宜蘭縣蘇澳鎮",
        "city": "宜蘭縣",
        "region": "蘇澳鎮",
        "time": "星期一: 24 小時營業\n星期二: 24 小時營業\n星期三: 24 小時營業\n星期四: 24 小時營業\n星期五: 24 小時營業\n星期六: 24 小時營業\n星期日: 24 小時營業"
    },
    {
        "id": 36,
        "name": "渭水之丘",
        "star": 4.4,
        "info": "位在宜蘭礁溪櫻花陵園的「渭水之丘」，懸空800公尺俯瞰蘭陽平原、遠眺龜山島， 是宜蘭當紅的IG熱門景點～",
        "place_id": "ChIJ1bDi_mH8ZzQRnkhhoTrdJkg",
        "lat": 24.8244389,
        "lng": 121.7022625,
        "address": "262宜蘭縣礁溪鄉匏杓崙路139-1號",
        "city": "宜蘭縣",
        "region": "礁溪鄉",
        "time": "星期一: 06:00 – 17:00\n星期二: 06:00 – 17:00\n星期三: 06:00 – 17:00\n星期四: 06:00 – 17:00\n星期五: 06:00 – 17:00\n星期六: 06:00 – 17:00\n星期日: 06:00 – 17:00"
    },
    {
        "id": 37,
        "name": "宜蘭傳藝園區",
        "star": 4.4,
        "info": "匯集傳統民俗技藝與生活工藝，再現傳統繁華熱鬧的街道情境，欣賞戲曲表演、工藝體驗、懷舊童玩 。",
        "place_id": "ChIJjReEGkPvZzQR_8WyhotGs1o",
        "lat": 24.685587,
        "lng": 121.824053,
        "address": "268台灣宜蘭縣五結鄉五濱路二段201號",
        "city": "宜蘭縣",
        "region": "五結鄉",
        "time": "星期一: 09:00 – 18:00\n星期二: 09:00 – 18:00\n星期三: 09:00 – 18:00\n星期四: 09:00 – 18:00\n星期五: 09:00 – 18:00\n星期六: 09:00 – 18:00\n星期日: 09:00 – 18:00"
    },
    {
        "id": 38,
        "name": "羅東林場",
        "star": 4.3,
        "info": "與阿里山、八仙山林場並列為《日據時期三大林場》結合了休閒、教育、文化等多項功能，是當地做為生態教育的優質場所。 ",
        "place_id": "ChIJMY-Oj9blZzQR-KxtOScEVwc",
        "lat": 24.684278,
        "lng": 121.772358,
        "address": "265台灣宜蘭縣羅東鎮中正北路118號",
        "city": "宜蘭縣",
        "region": "羅東鎮",
        "time": "星期一: 08:00 – 17:00\n星期二: 08:00 – 17:00\n星期三: 08:00 – 17:00\n星期四: 08:00 – 17:00\n星期五: 08:00 – 17:00\n星期六: 08:00 – 17:00\n星期日: 08:00 – 17:00"
    },
    {
        "id": 39,
        "name": "北關海潮公園",
        "star": 4.3,
        "info": "蘭陽八景之一「北關海潮公園」位在宜蘭烏石港旁，正前方可以看到龜山島，設有步道與觀海亭，能漫步欣賞無敵海景。",
        "place_id": "ChIJe74Bdp9YXTQRvl8UD2Uhk3k",
        "lat": 24.9125557,
        "lng": 121.8776253,
        "address": "261台灣宜蘭縣頭城鎮濱海路四段10號",
        "city": "宜蘭縣",
        "region": "頭城鎮",
        "time": "星期一: 24 小時營業\n星期二: 24 小時營業\n星期三: 24 小時營業\n星期四: 24 小時營業\n星期五: 24 小時營業\n星期六: 24 小時營業\n星期日: 24 小時營業"
    },
    {
        "id": 40,
        "name": "抹茶山",
        "star": 4.6,
        "info": "其正式名稱為聖母登山步道。日本籍攝影師小林賢俉鏡頭中呈現披覆著綠色草浪的層層山巒引起熱烈迴響！ ",
        "place_id": "ChIJ5SRlYO_7ZzQRSTDCPIloAkc",
        "lat": 24.8481508,
        "lng": 121.7351666,
        "address": "262台灣宜蘭縣礁溪鄉262",
        "city": "宜蘭縣",
        "region": "礁溪鄉",
        "time": "星期一: 24 小時營業\n星期二: 24 小時營業\n星期三: 24 小時營業\n星期四: 24 小時營業\n星期五: 24 小時營業\n星期六: 24 小時營業\n星期日: 24 小時營業"
    },
    {
        "id": 41,
        "name": "山度空間",
        "star": 4.4,
        "info": "花蓮最新IG景點！海岸線上眺望美景的咖啡廳，帳篷座位、面海座位、野餐座位通通有，還有玻璃鞦韆喔！",
        "place_id": "ChIJv7HDVAWhaDQRvvCC2ouj1pU",
        "lat": 23.9108641,
        "lng": 121.6030659,
        "address": "974台灣花蓮縣壽豐鄉57號",
        "city": "花蓮縣",
        "region": "壽豐鄉",
        "time": "星期一: 09:30 – 17:00\n星期二: 09:30 – 17:00\n星期三: 09:30 – 17:00\n星期四: 09:30 – 17:00\n星期五: 09:30 – 17:00\n星期六: 09:30 – 17:00\n星期日: 09:30 – 17:00"
    },
    {
        "id": 42,
        "name": "花蓮大農大富",
        "star": 4.3,
        "info": "台灣首座平地森林園區，擁有豐富的自然生態，春天賞花、夏季賞螢與賞鳥、秋冬賞楓。",
        "place_id": "ChIJ-b_-vgFNbzQR8qkajZZrKqU",
        "lat": 23.6148548,
        "lng": 121.4177281,
        "address": "976台灣花蓮縣光復鄉農場路32號",
        "city": "花蓮縣",
        "region": "光復鄉",
        "time": "星期一: 08:00 – 17:00\n星期二: 08:00 – 17:00\n星期三: 08:00 – 17:00\n星期四: 08:00 – 17:00\n星期五: 08:00 – 17:00\n星期六: 08:00 – 17:00\n星期日: 08:00 – 17:00"
    },
    {
        "id": 43,
        "name": "花蓮雲山水",
        "star": 4,
        "info": " 有著絕美宛如歐洲明信片上的風景，翠綠的落羽，從原本的花蓮秘境變成必遊的花蓮景點之一唷！",
        "place_id": "ChIJjUh15b2laDQRVjXq04Hj33k",
        "lat": 23.8270051,
        "lng": 121.5154818,
        "address": "974台灣花蓮縣壽豐鄉豐坪路二段2巷201弄18號",
        "city": "花蓮縣",
        "region": "壽豐鄉",
        "time": "星期一: 08:00 – 17:00\n星期二: 08:00 – 17:00\n星期三: 08:00 – 17:00\n星期四: 08:00 – 17:00\n星期五: 08:00 – 17:00\n星期六: 08:00 – 17:00\n星期日: 08:00 – 17:00"
    },
    {
        "id": 44,
        "name": "六十石山",
        "star": 4.5,
        "info": "花蓮縣富里鄉六十石山是台灣三大金針花栽培地區之一，每年8月至10月的金針花季吸引來自各地的旅人。",
        "place_id": "ChIJKTUhPFxsbzQR8No95MV8Ipg",
        "lat": 23.2209221,
        "lng": 121.31118,
        "address": "983台灣花蓮縣富里鄉竹田村",
        "city": "花蓮縣",
        "region": "富里鄉",
        "time": "星期一: 24 小時營業\n星期二: 24 小時營業\n星期三: 24 小時營業\n星期四: 24 小時營業\n星期五: 24 小時營業\n星期六: 24 小時營業\n星期日: 24 小時營業"
    },
    {
        "id": 45,
        "name": "松園別館",
        "star": 4.1,
        "info": "園別館曾是花蓮港「兵事部」辦公室，獨特日式建築風格，加上四周老松林立、環境清幽，故而得名。",
        "place_id": "ChIJhbRgGMWfaDQRfYxPTbTPdoQ",
        "lat": 23.9828055,
        "lng": 121.6154938,
        "address": "970台灣花蓮縣花蓮市松園街65號",
        "city": "花蓮縣",
        "region": "花蓮市",
        "time": "星期一: 09:00 – 18:00\n星期二: 09:00 – 18:00\n星期三: 09:00 – 18:00\n星期四: 09:00 – 18:00\n星期五: 09:00 – 18:00\n星期六: 09:00 – 18:00\n星期日: 09:00 – 18:00"
    },
    {
        "id": 46,
        "name": "花蓮豐濱天空步道",
        "star": 3.3,
        "info": " 「全台最驚險天空步道」，斷崖峭壁間行走玻璃棧道上，看著一望無際的海，美景絕對讓你以忘懷！",
        "place_id": "ChIJAQP3dYKraDQRQJBUOkTQ4d0",
        "lat": 23.6753626,
        "lng": 121.5453191,
        "address": "977台灣花蓮縣豐濱鄉花東海岸公路",
        "city": "花蓮縣",
        "region": "豐濱鄉",
        "time": "星期一: 09:00 – 17:00\n星期二: 09:00 – 17:00\n星期三: 09:00 – 17:00\n星期四: 09:00 – 17:00\n星期五: 09:00 – 17:00\n星期六: 09:00 – 17:00\n星期日: 09:00 – 17:00"
    },
    {
        "id": 47,
        "name": "麻糬洞",
        "star": 4.4,
        "info": " 蝕洞遠看像一台小march汽車，且2016年美國好萊塢電影「沈默Silence」在此取景而知名度大增。",
        "place_id": "ChIJybYLthFRbzQRXGJU5Kt-xok",
        "lat": 23.5240439,
        "lng": 121.5042389,
        "address": "977台灣花蓮縣豐濱鄉",
        "city": "花蓮縣",
        "region": "豐濱鄉",
        "time": "星期一: 24 小時營業\n星期二: 24 小時營業\n星期三: 24 小時營業\n星期四: 24 小時營業\n星期五: 24 小時營業\n星期六: 24 小時營業\n星期日: 24 小時營業"
    },
    {
        "id": 48,
        "name": "翡翠谷水濂瀑布",
        "star": 4.4,
        "info": " 站在瀑布下，彷彿來到水濂洞，琉璃般清澈的瀑布傾瀉而下，是夏日最美的消暑戲水勝地！",
        "place_id": "ChIJ_a1qN2SiaDQRZHNavQE-JnM",
        "lat": 23.9683943,
        "lng": 121.4957039,
        "address": "972台灣花蓮縣秀林鄉榕樹",
        "city": "花蓮縣",
        "region": "秀林鄉",
        "time": "暫時關閉"
    },
    {
        "id": 49,
        "name": "太魯閣國家公園",
        "star": 4.4,
        "info": "觸目所及皆是壯麗峭壁、斷崖、峽谷、曲折山洞墜道、大理岩層和溪流等風光，讓人不得不讚嘆大自然力量。",
        "place_id": "ChIJjbRHE4SCaDQRdReIkienxno",
        "lat": 24.1580764,
        "lng": 121.6222377,
        "address": "972台灣花蓮縣秀林鄉富世291號",
        "city": "花蓮縣",
        "region": "秀林鄉",
        "time": "星期一: 08:30 – 17:00\n星期二: 08:30 – 17:00\n星期三: 08:30 – 17:00\n星期四: 08:30 – 17:00\n星期五: 08:30 – 17:00\n星期六: 08:30 – 17:00\n星期日: 08:30 – 17:00"
    },
    {
        "id": 50,
        "name": "鯉魚潭",
        "star": 4.3,
        "info": "擁有全台唯一的鋸齒堰溢洪道，水庫四周環抱翠綠的山巒景色，従高處鳥瞰，將美景盡收眼底。",
        "place_id": "ChIJ3eVHa7SjaDQR1K-MKuWZ5S4",
        "lat": 23.9278268,
        "lng": 121.5098787,
        "address": "974台灣花蓮縣壽豐鄉鯉魚潭",
        "city": "花蓮縣",
        "region": "壽豐鄉",
        "time": "24小時營業"
    },
    {
        "id": 51,
        "name": "瑞穂天合國際觀光酒店",
        "star": 4.4,
        "info": "距離瑞穗車站3公里，新開幕整體設計以南歐莊園風格為主，風光明媚的山水將花蓮瑞穗美景盡收眼底。",
        "place_id": "ChIJh3nIgv1FbzQRE78FUyX-EYI",
        "lat": 23.4935236,
        "lng": 121.3548326,
        "address": "978台灣花蓮縣瑞穗鄉溫泉路二段368號",
        "city": "花蓮縣",
        "region": "瑞穗鄉",
        "time": "星期一: 24 小時營業\n星期二: 24 小時營業\n星期三: 24 小時營業\n星期四: 24 小時營業\n星期五: 24 小時營業\n星期六: 24 小時營業\n星期日: 24 小時營業"
    },
    {
        "id": 52,
        "name": "瑞穗牧場",
        "star": 3.9,
        "info": "以鮮奶暢銷到全臺各地的瑞穗牧場，遼闊的園區可以讓小朋友盡情玩耍、跑跳，是個適合親子同遊的景點。",
        "place_id": "ChIJR32Q_HJGbzQRRL_0TxjNtQA",
        "lat": 23.4792093,
        "lng": 121.3459565,
        "address": "978台灣花蓮縣瑞穗鄉6鄰157號",
        "city": "花蓮縣",
        "region": "瑞穗鄉",
        "time": "星期一: 08:00 – 18:00\n星期二: 08:00 – 18:00\n星期三: 08:00 – 18:00\n星期四: 08:00 – 18:00\n星期五: 08:00 – 18:00\n星期六: 08:00 – 18:00\n星期日: 08:00 – 18:00"
    },
    {
        "id": 53,
        "name": "赤柯山",
        "star": 4.7,
        "info": "與六十石山齊名的赤科山，每逢8月至9月 的金針花季，整片山丘開滿了黃澄澄的金針花海，置身於花海之中，美不勝收! ",
        "place_id": "ChIJFelLXZBDbzQR_66RDxczjXs",
        "lat": 23.3962467,
        "lng": 121.3869664,
        "address": "981台灣花蓮縣玉里鎮赤科山",
        "city": "花蓮縣",
        "region": "玉里鎮",
        "time": "24小時營業"
    },
    {
        "id": 54,
        "name": "伽路蘭遊憩區",
        "star": 4.5,
        "info": "緊鄰「小野柳風景區」，除了欣賞自然美景之外，區內也有不少由漂流木所組成的裝置藝術作品。",
        "place_id": "ChIJt2OLZ168bzQRpVs1f_83iqA",
        "lat": 22.80775,
        "lng": 121.19607,
        "address": "950 臺東縣臺東市富岡漁港往北走1公里",
        "city": "臺東縣",
        "region": "臺東市",
        "time": "24小時營業"
    },
    {
        "id": 55,
        "name": "比西里海岸",
        "star": 4.2,
        "info": "位於成功鎮的小部落，幾米繪本彩繪於部落的11處，一起跟隨幾米的腳步探索比西里岸的美吧！ ",
        "place_id": "ChIJX-HBNjVwbzQRTwUXfv_SCOQ",
        "lat": 23.13072159999999,
        "lng": 121.4003642,
        "address": "961台灣台東縣成功鎮961",
        "city": "台東縣",
        "region": "成功鎮",
        "time": "星期日：08:00 – 17:00\n星期一：08:00 – 17:00\n星期二：08:00 – 17:00\n星期三：08:00 – 17:00\n星期四：08:00 – 17:00\n星期五：08:00 – 17:00\n星期六：08:00 – 17:00"
    },
    {
        "id": 56,
        "name": "台東三仙台",
        "star": 4.6,
        "info": "由離岸小島和珊瑚礁海岸所構成，從岸邊凝視，海景、奇石與雲彩襯著八座拱橋，隨手一拍都是美景~",
        "place_id": "ChIJp1E-7EhwbzQRuDsz-li3qrI",
        "lat": 23.1261358,
        "lng": 121.4216802,
        "address": "961台灣台東縣成功鎮基翬路74號",
        "city": "台東縣",
        "region": "成功鎮",
        "time": "星期一: 24 小時營業\n星期二: 24 小時營業\n星期三: 24 小時營業\n星期四: 24 小時營業\n星期五: 24 小時營業\n星期六: 24 小時營業\n星期日: 24 小時營業"
    },
    {
        "id": 57,
        "name": "台東阿伯小白屋",
        "star": 4,
        "info": "被稱為「台版霍爾的移動城堡」是一位退伍榮民拾荒所增建，以建築風格怪異聞名。",
        "place_id": "ChIJhzMr6Dm5bzQRCnTclVH3eb0",
        "lat": 22.7512319,
        "lng": 121.1588971,
        "address": "950台灣台東縣台東市中正路1號",
        "city": "台東縣",
        "region": "臺東市",
        "time": "星期一: 24 小時營業\n星期二: 24 小時營業\n星期三: 24 小時營業\n星期四: 24 小時營業\n星期五: 24 小時營業\n星期六: 24 小時營業\n星期日: 24 小時營業"
    },
    {
        "id": 58,
        "name": "國際地標海濱公園",
        "star": 4.3,
        "info": "融合地景與公共藝術，標誌臺東獨特的人文、歷史與自然景觀，獨樹一格的藤編屋頂造型讓人眼睛一亮。",
        "place_id": "ChIJHTgnDTa5bzQRuYGgnxcNp40",
        "lat": 22.7531204,
        "lng": 121.1646423,
        "address": "950台灣台東縣台東市大同路",
        "city": "台東縣",
        "region": "臺東市",
        "time": "星期一: 24 小時營業\n星期二: 24 小時營業\n星期三: 24 小時營業\n星期四: 24 小時營業\n星期五: 24 小時營業\n星期六: 24 小時營業\n星期日: 24 小時營業"
    },
    {
        "id": 59,
        "name": "台版櫻木平交道",
        "star": 3.9,
        "info": "台版「灌籃高手台版平交道」就在台東太麻里，是唯一可以看到無敵海景的火車站，很是療癒～",
        "place_id": "ChIJ8Q9twr7ObzQRCbLwwIBAuKU",
        "lat": 22.6214158,
        "lng": 121.0067576,
        "address": "963台灣台東縣太麻里鄉東63鄉道",
        "city": "台東縣",
        "region": "太麻里鄉",
        "time": "星期一: 24 小時營業\n星期二: 24 小時營業\n星期三: 24 小時營業\n星期四: 24 小時營業\n星期五: 24 小時營業\n星期六: 24 小時營業\n星期日: 24 小時營業"
    },
    {
        "id": 60,
        "name": "金剛大道",
        "star": 4.5,
        "info": "筆直且依山傍海的絕妙風景，被比喻為東海岸的伯朗大道。在這段道路上可以遠眺西側海岸山脈山勢俊朗的「金剛山」，因此命名。下次去台東不妨到這個秘境探索去！",
        "place_id": "ChIJ9TdAI9JdbzQRNMmKBWynQ-0",
        "lat": 23.33055,
        "lng": 121.451369,
        "address": "962台灣台東縣長濱鄉長光產業道路",
        "city": "台東縣",
        "region": "長濱鄉",
        "time": "星期一: 24 小時營業\n星期二: 24 小時營業\n星期三: 24 小時營業\n星期四: 24 小時營業\n星期五: 24 小時營業\n星期六: 24 小時營業\n星期日: 24 小時營業"
    },
    {
        "id": 61,
        "name": "鐵花村",
        "star": 4.4,
        "info": "由台東音樂人和藝術工作者共同打造的音樂聚落及在地發芽的慢市集，不定期舉辦藝文活動、演唱會、手作課程、二手市集等，是個很棒的藝文園區。",
        "place_id": "ChIJAzKH2hW5bzQRD7rKWL4N5KU",
        "lat": 22.7536794,
        "lng": 121.1458553,
        "address": "950台灣台東縣台東市新生路135巷26號",
        "city": "台東縣",
        "region": "臺東市",
        "time": "星期一: 休息\n星期二: 休息\n星期三: 17:00 – 22:00\n星期四: 17:00 – 22:00\n星期五: 17:00 – 22:00\n星期六: 17:00 – 22:00\n星期日: 17:00 – 22:00"
    },
    {
        "id": 62,
        "name": "池上天堂路",
        "star": 4.5,
        "info": "除了伯朗大道之外，稻田間穿插一條S線蜿蜒小徑就是天堂路，絕美又好拍的「天堂鞦韆」能由上向下俯瞰一望無際的稻浪，絕對是不能錯過的踏點勝地！",
        "place_id": "ChIJd2XXSp0LbzQRy5ALsA-IYUo",
        "lat": 23.0950435,
        "lng": 121.2156955,
        "address": "958台灣台東縣池上鄉萬新道路",
        "city": "台東縣",
        "region": "池上鄉",
        "time": "星期一: 24 小時營業\n星期二: 24 小時營業\n星期三: 24 小時營業\n星期四: 24 小時營業\n星期五: 24 小時營業\n星期六: 24 小時營業\n星期日: 24 小時營業"
    },
    {
        "id": 63,
        "name": "富山護漁區",
        "star": 4.2,
        "info": "富山漁業資源保育區位於臺東杉原，湛藍無瑕的海、細白柔軟與沙以及海底景觀，成就臺東最美麗的海岸。",
        "place_id": "ChIJ13X-u728bzQRF_7gbk2hI28",
        "lat": 22.836603,
        "lng": 121.1864236,
        "address": "954台灣台東縣卑南鄉杉原20號",
        "city": "台東縣",
        "region": "卑南鄉",
        "time": "星期一: 08:00 – 17:00\n星期二: 08:00 – 17:00\n星期三: 08:00 – 17:00\n星期四: 08:00 – 17:00\n星期五: 08:00 – 17:00\n星期六: 08:00 – 17:00\n星期日: 08:00 – 17:00"
    },
    {
        "id": 64,
        "name": "台東森林公園",
        "star": 4.4,
        "info": "台東森林公園夢幻的湖泊有種純粹又自然的美，十分療癒，一起走進大自然，享受悠閒靜謐的時光吧！",
        "place_id": "ChIJx9oJH165bzQRHtM1Bkgvyyo",
        "lat": 22.7681758,
        "lng": 121.156259,
        "address": "950台灣台東縣台東市華泰路300號",
        "city": "台東縣",
        "region": "臺東市",
        "time": "星期一: 07:30 – 19:30\n星期二: 07:30 – 19:30\n星期三: 07:30 – 19:30\n星期四: 07:30 – 19:30\n星期五: 07:30 – 19:30\n星期六: 07:30 – 19:30\n星期日: 07:30 – 19:30"
    },
    {
        "id": 65,
        "name": "關山米學校",
        "star": 4.1,
        "info": "台東好山水～產出美味白米！『看米、聽米、吃米、玩米、買米』的體驗碾製米過程，不僅有趣又能充實知識",
        "place_id": "ChIJFwdS3osJbzQRUdZk6fxexSU",
        "lat": 23.0609861,
        "lng": 121.1687306,
        "address": "956台灣台東縣關山鎮昌林路24之1號",
        "city": "台東縣",
        "region": "關山鎮",
        "time": "星期一: 08:00 – 17:00\n星期二: 08:00 – 17:00\n星期三: 08:00 – 17:00\n星期四: 08:00 – 17:00\n星期五: 08:00 – 17:00\n星期六: 08:00 – 17:00\n星期日: 08:00 – 17:00"
    },
    {
        "id": 66,
        "name": "太麻里金針花",
        "star": 4.4,
        "info": "太麻里的金針山是座名聞遐邇的賞花名勝，除了夏季的金針花季之外，１～３月初的櫻花也相當迷人，四季皆能觀賞到滿山遍野的美景。",
        "place_id": "ChIJ2dSwIurNbzQR2703kmhfZ8g",
        "lat": 22.643066,
        "lng": 120.9526277,
        "address": "96346台東縣太麻里鄉292號",
        "city": "台東縣",
        "region": "太麻里鄉",
        "time": "星期一: 24 小時營業\n星期二: 24 小時營業\n星期三: 24 小時營業\n星期四: 24 小時營業\n星期五: 24 小時營業\n星期六: 24 小時營業\n星期日: 24 小時營業"
    },
    {
        "id": 67,
        "name": "山里車站",
        "star": 4.6,
        "info": "孤寂而寧靜的坐落幾處農田間，宛如與世隔絕的小小車站，在作家劉克襄的筆下是一座「傳說中，到不了的車站」。",
        "place_id": "ChIJ873DDCilbzQRAuQDvH2xgMc",
        "lat": 22.8618774,
        "lng": 121.1378194,
        "address": "954台灣台東縣卑南鄉",
        "city": "台東縣",
        "region": "卑南鄉",
        "time": "06:00 - 22:30"
    },
    {
        "id": 68,
        "name": "阿里山",
        "star": 4.6,
        "info": "台灣經典必訪阿里山，春季賞櫻、夏季避暑、秋冬賞楓，一年四季美景常在！",
        "place_id": "ChIJOxUmrCDcbjQR1L87oFz49_8",
        "lat": 23.5112942,
        "lng": 120.8036725,
        "address": "605台灣嘉義縣阿里山鄉59號",
        "city": "嘉義縣",
        "region": "阿里山鄉",
        "time": "星期一: 24 小時營業\n星期二: 24 小時營業\n星期三: 24 小時營業\n星期四: 24 小時營業\n星期五: 24 小時營業\n星期六: 24 小時營業\n星期日: 24 小時營業"
    },
    {
        "id": 69,
        "name": "新嘉大昆蟲館",
        "star": 4.4,
        "info": "走進浪漫的蝴蝶森林裡吧！將森林搬進室內，還有台唯一的「旋轉彩蝶柱」超美！",
        "place_id": "ChIJ2WTFZ_aUbjQR91wY-cOT7WM",
        "lat": 23.4631267,
        "lng": 120.4815946,
        "address": "600台灣嘉義市東區學府路300號",
        "city": "嘉義市",
        "region": "東區",
        "time": "星期一: 休息\n星期二: 休息\n星期三: 09:30 – 16:30\n星期四: 09:30 – 16:30\n星期五: 09:30 – 16:30\n星期六: 09:30 – 16:30\n星期日: 09:30 – 16:30"
    },
    {
        "id": 70,
        "name": "臺灣花磚博物館",
        "star": 4.4,
        "info": "於2015年用逾千片的老花磚一一打造出台灣首座花磚博物館，將不同年代的台灣花磚，收納、陳列在博物館中。",
        "place_id": "ChIJJU4OmS2UbjQRgjVPo5_9ARw",
        "lat": 23.4833579,
        "lng": 120.4460308,
        "address": "600台灣嘉義市西區林森西路282號",
        "city": "嘉義市",
        "region": "西區",
        "time": "(暫時關閉)\n週三至週日 10:00-17:30"
    },
    {
        "id": 71,
        "name": "太平雲梯",
        "star": 4.2,
        "info": "全台最長、海拔最高的景觀吊橋！能俯瞰嘉義風光與雲海，就像漫步在雲端。",
        "place_id": "ChIJH4Ouo2rBbjQR50c88GP53ew",
        "lat": 23.5597128,
        "lng": 120.6008854,
        "address": "60345嘉義縣梅山鄉5號",
        "city": "嘉義縣",
        "region": "梅山鄉",
        "time": "星期一: 09:00 – 17:30\n星期二: 09:00 – 17:30\n星期三: 休息\n星期四: 09:00 – 17:30\n星期五: 09:00 – 17:30\n星期六: 09:00 – 17:30, 18:00 – 20:00\n星期日: 09:00 – 17:30"
    },
    {
        "id": 72,
        "name": "嘉義市立美術館",
        "star": 4.5,
        "info": "嘉義市立美術館由市定古蹟、菸酒公賣局嘉義分局原建物改建，於2020年開館，奠基於「畫都」的美術與人文歷史之上。 ",
        "place_id": "ChIJeZ7Y5yKVbjQRcBQkt_hiSI0",
        "lat": 23.4771015,
        "lng": 120.440663,
        "address": "600台灣嘉義市西區廣寧街101號",
        "city": "嘉義市",
        "region": "西區",
        "time": "星期一: 休息\n星期二: 09:00 – 17:00\n星期三: 09:00 – 17:00\n星期四: 09:00 – 17:00\n星期五: 09:00 – 17:00\n星期六: 09:00 – 17:00\n星期日: 09:00 – 17:00"
    },
    {
        "id": 73,
        "name": "臺南山上花園水道博物館",
        "star": 4.4,
        "info": "水道博物館是國定古蹟，園區內佔地寬敞，悠閒地來場歷史古蹟的文青之旅吧！",
        "place_id": "ChIJYbhn175kbjQRPNjpqtQF5gQ",
        "lat": 23.096825,
        "lng": 120.3600082,
        "address": "743台灣台南市山上區里山上16號",
        "city": "台南市",
        "region": "山上區",
        "time": "星期一: 09:30 – 17:30\n星期二: 休息\n星期三: 09:30 – 17:30\n星期四: 09:30 – 17:30\n星期五: 09:30 – 17:30\n星期六: 09:30 – 17:30\n星期日: 09:30 – 17:30"
    },
    {
        "id": 74,
        "name": "台南四草綠色隧道",
        "star": 4.3,
        "info": "台版亞馬遜森林！來這裡不可錯過觀光遊船，感受台江文史及大自然生態資源。",
        "place_id": "ChIJt0-ISOvYbTQRhg3rUteyQIw",
        "lat": 23.0196399,
        "lng": 120.1361465,
        "address": "709台灣台南市安南區大眾路360號",
        "city": "台南市",
        "region": "安南區",
        "time": "星期一: 08:00 – 16:00\n星期二: 08:00 – 16:00\n星期三: 08:00 – 16:00\n星期四: 08:00 – 16:00\n星期五: 08:00 – 16:00\n星期六: 08:00 – 16:00\n星期日: 08:00 – 16:00"
    },
    {
        "id": 75,
        "name": "台江學園水上屋",
        "star": 4.2,
        "info": "全台唯一水上高腳屋，是一座結合生態保育及濕地景觀的鑽石級綠建築。",
        "place_id": "ChIJB2cZCLfYbTQRniblbklXfGE",
        "lat": 23.0022921,
        "lng": 120.1384183,
        "address": "709台灣台南市安南區四草大道118號",
        "city": "台南市",
        "region": "安南區",
        "time": "星期一: 休息\n星期二: 09:00 – 17:00\n星期三: 09:00 – 17:00\n星期四: 09:00 – 17:00\n星期五: 09:00 – 17:00\n星期六: 09:00 – 17:00\n星期日: 09:00 – 17:00"
    },
    {
        "id": 76,
        "name": "漁光島",
        "star": 4.3,
        "info": "台南最浪漫的小島！漫遊在沙灘上，吹舒服的海風，傍晚還能看到美麗的夕陽。",
        "place_id": "ChIJ87qwKf11bjQRMuEmcom6RX8",
        "lat": 22.981044,
        "lng": 120.1556693,
        "address": "708台灣台南市安平區漁光路114號",
        "city": "台南市",
        "region": "安平區",
        "time": "星期一: 24 小時營業\n星期二: 24 小時營業\n星期三: 24 小時營業\n星期四: 24 小時營業\n星期五: 24 小時營業\n星期六: 24 小時營業\n星期日: 24 小時營業"
    },
    {
        "id": 77,
        "name": "安平定情碼頭_德陽艦園區",
        "star": 4.2,
        "info": "除役的德陽艦停靠在安平港區，打造為全台唯一的軍艦博物館。",
        "place_id": "ChIJOYFDzarYbTQRB7SC69TUJa8",
        "lat": 22.9891513,
        "lng": 120.1565805,
        "address": "708台灣台南市安平區安億路115號",
        "city": "台南市",
        "region": "安平區",
        "time": "星期一: 09:00 – 19:00\n星期二: 09:00 – 19:00\n星期三: 09:00 – 19:00\n星期四: 09:00 – 19:00\n星期五: 09:00 – 19:00\n星期六: 09:00 – 19:00\n星期日: 09:00 – 19:00"
    },
    {
        "id": 78,
        "name": "趣淘漫旅",
        "star": 4.5,
        "info": "台南趣淘漫旅為台南的一間冒險體驗主題飯店，挑戰你的體能極限",
        "place_id": "ChIJsftZERmLbjQRihlLENLIIg8",
        "lat": 23.2243615,
        "lng": 120.5009409,
        "address": "715台灣台南市楠西區密枝產業道路102-5號",
        "city": "台南市",
        "region": "楠西區",
        "time": "星期一: 24 小時營業\n星期二: 24 小時營業\n星期三: 24 小時營業\n星期四: 24 小時營業\n星期五: 24 小時營業\n星期六: 24 小時營業\n星期日: 24 小時營業"
    },
    {
        "id": 79,
        "name": "億載金城",
        "star": 4.2,
        "info": "台灣第 1 座現代化西洋式砲台，在台灣砲台史上具有十分重要的開創性地位。",
        "place_id": "ChIJk_qk9P91bjQRTolgNlHUSrc",
        "lat": 22.987883,
        "lng": 120.159255,
        "address": "708台灣台南市安平區光州路3號",
        "city": "台南市",
        "region": "安平區",
        "time": "星期一: 08:30 – 17:30\n星期二: 08:30 – 17:30\n星期三: 08:30 – 17:30\n星期四: 08:30 – 17:30\n星期五: 08:30 – 17:30\n星期六: 08:30 – 17:30\n星期日: 08:30 – 17:30"
    },
    {
        "id": 80,
        "name": "捷絲旅台南十鼓館",
        "star": 4.4,
        "info": "2021年新開幕飯店，是全台首間糖廠主題旅宿，飯店距離十鼓仁糖文創園區只要走路5分鐘就能抵達",
        "place_id": "ChIJCZ16cGd0bjQRW_hHpDoCdPA",
        "lat": 22.9377756,
        "lng": 120.2301749,
        "address": "717台灣台南市仁德區文華路二段300號",
        "city": "台南市",
        "region": "仁德區",
        "time": "星期一: 24 小時營業\n星期二: 24 小時營業\n星期三: 24 小時營業\n星期四: 24 小時營業\n星期五: 24 小時營業\n星期六: 24 小時營業\n星期日: 24 小時營業"
    },
    {
        "id": 81,
        "name": "又又美",
        "star": 4.5,
        "info": "位在台南民生綠園圓環旁，前身就是台南双美相機老店，結合了底片相機器材的複合式輕食餐廳。",
        "place_id": "ChIJqyY5XRd3bjQRdstdumxJeaU",
        "lat": 22.9920403,
        "lng": 120.2051638,
        "address": "700280台灣台南市中西區南門路15號",
        "city": "台南市",
        "region": "中西區",
        "time": "星期一: 11:00 – 19:00\n星期二: 11:00 – 19:00\n星期三: 11:00 – 19:00\n星期四: 11:00 – 19:00\n星期五: 11:00 – 19:00\n星期六: 11:00 – 19:00\n星期日: 11:00 – 19:00"
    },
    {
        "id": 82,
        "name": "河童町故事館",
        "star": 4.9,
        "info": "由台南安平蝦餅專門店「蝦米工坊」首度開設進駐的實體店舖旗艦館，日式懷舊氛圍成為台南IG打卡熱點之一。",
        "place_id": "ChIJLauEet51bjQRKltDzpRNftU",
        "lat": 23.0024159,
        "lng": 120.1594568,
        "address": "708台灣台南市安平區安北路207號",
        "city": "台南市",
        "region": "安平區",
        "time": "星期一: 11:00 – 19:00\n星期二: 11:00 – 19:00\n星期三: 11:00 – 19:00\n星期四: 11:00 – 19:00\n星期五: 11:00 – 19:00\n星期六: 10:00 – 19:00\n星期日: 10:00 – 19:00"
    },
    {
        "id": 83,
        "name": "台南旗袍體驗",
        "star": 4.5,
        "info": "用最華麗迷人的裝扮漫遊府城，身著旗袍漫步台南老街，探索當地文化，認識古城歷史",
        "place_id": "ChIJO8Cr5hx2bjQRx7GkoVQobQE",
        "lat": 23.0009885,
        "lng": 120.1622222,
        "address": "708台灣台南市安平區效忠街61號",
        "city": "台南市",
        "region": "安平區",
        "time": "星期一: 11:00 – 18:30\n星期二: 11:00 – 18:30\n星期三: 11:00 – 18:30\n星期四: 11:00 – 18:30\n星期五: 11:00 – 18:30\n星期六: 11:00 – 18:30\n星期日: 11:00 – 18:30"
    },
    {
        "id": 84,
        "name": "肉肉栽培研究所",
        "star": 4.2,
        "info": "療癒為概念的多肉植物園區，與自然共生，提供疲憊的城市人綠色療癒的充電廠。",
        "place_id": "ChIJLXcd4TodbjQRixybPyiW6-0",
        "lat": 22.5542582,
        "lng": 120.4096694,
        "address": "831台灣高雄市大寮區新一街223號建議用Google map搜尋地標「肉肉栽培研所」【平假日皆採預約制】",
        "city": "高雄市",
        "region": "大寮區",
        "time": "星期一: 休息\n星期二: 14:00 – 19:00\n星期三: 14:00 – 19:00\n星期四: 14:00 – 19:00\n星期五: 14:00 – 19:00\n星期六: 12:00 – 19:00\n星期日: 12:00 – 19:00"
    },
    {
        "id": 85,
        "name": "淨園休閒農場",
        "star": 4,
        "info": "位在機場旁可看到飛機起降，園內還能近距離與可愛的小動物接觸，超值得一遊！",
        "place_id": "ChIJgxkqwcwcbjQRbF5mihW9XUE",
        "lat": 22.5789945,
        "lng": 120.34442,
        "address": "812台灣高雄市小港區明聖街135巷10弄12號",
        "city": "高雄市",
        "region": "小港區",
        "time": "星期一: 09:30 – 21:00\n星期二: 09:30 – 21:00\n星期三: 09:30 – 21:00\n星期四: 09:30 – 21:00\n星期五: 09:30 – 21:00\n星期六: 09:30 – 21:00\n星期日: 09:30 – 21:00"
    },
    {
        "id": 86,
        "name": "大東濕地公園",
        "star": 4.2,
        "info": "高雄版忘憂森林！園區設有景觀綠地、生態濕地，欣賞湖面樹木錯落，美麗如畫。",
        "place_id": "ChIJg1S7ez4bbjQR4WYOnFVKSEM",
        "lat": 22.6282662,
        "lng": 120.3646902,
        "address": "830台灣高雄市鳳山區博愛路539巷41-1號",
        "city": "高雄市",
        "region": "鳳山區",
        "time": "星期一: 24 小時營業\n星期二: 24 小時營業\n星期三: 24 小時營業\n星期四: 24 小時營業\n星期五: 24 小時營業\n星期六: 24 小時營業\n星期日: 24 小時營業"
    },
    {
        "id": 87,
        "name": "柴山自然公園_台灣獼猴保護區",
        "star": 4.3,
        "info": "柴山有自然的生態環境，大量的猴子在山頭，可以近距離觀賞但禁止餵食猴子喔！",
        "place_id": "ChIJt5co6zoEbjQRpGMg0zsyQXo",
        "lat": 22.6544299,
        "lng": 120.2644499,
        "address": "804台灣高雄市鼓山區",
        "city": "高雄市",
        "region": "鼓山區",
        "time": "星期一: 24 小時營業\n星期二: 24 小時營業\n星期三: 24 小時營業\n星期四: 24 小時營業\n星期五: 24 小時營業\n星期六: 24 小時營業\n星期日: 24 小時營業"
    },
    {
        "id": 88,
        "name": "衛武營_衛武迷迷村",
        "star": 4.3,
        "info": "原是老眷村，藉由街頭藝術彩繪成全台最大的藝術彩繪社區，包裝斑駁的老建築。",
        "place_id": "ChIJxbfL3bQEbjQRTpVuYdMU8r4",
        "lat": 22.6271532,
        "lng": 120.3439306,
        "address": "802台灣高雄市苓雅區尚勇路6號",
        "city": "高雄市",
        "region": "苓雅區",
        "time": "星期一: 24 小時營業\n星期二: 24 小時營業\n星期三: 24 小時營業\n星期四: 24 小時營業\n星期五: 24 小時營業\n星期六: 24 小時營業\n星期日: 24 小時營業"
    },
    {
        "id": 89,
        "name": "高雄駁二藝術特區",
        "star": 4.4,
        "info": "碼頭旁的倉庫群跳脫舊有的使用僵制，以藝文與世界接軌，成為熱鬧的藝術特區。",
        "place_id": "ChIJW8ThIHYEbjQR8k12HL3R1uY",
        "lat": 22.6199803,
        "lng": 120.2815287,
        "address": "803台灣高雄市鹽埕區大勇路1號",
        "city": "高雄市",
        "region": "鹽埕區",
        "time": "星期一: 10:00 – 18:00\n星期二: 10:00 – 18:00\n星期三: 10:00 – 18:00\n星期四: 10:00 – 18:00\n星期五: 10:00 – 20:00\n星期六: 10:00 – 20:00\n星期日: 10:00 – 20:00"
    },
    {
        "id": 90,
        "name": "義大遊樂世界",
        "star": 4.2,
        "info": "全台唯一希臘情境主題樂園，47項遊樂設施獨冠全台。更擁有全台最高的義大摩天輪，眺望夜晚無限美景。",
        "place_id": "ChIJh-J5vhsRbjQR4AcXKxaTRt8",
        "lat": 22.7307878,
        "lng": 120.4089865,
        "address": "840台灣高雄市大樹區學城路一段10號",
        "city": "高雄市",
        "region": "大樹區",
        "time": "星期一: 09:00 – 17:30\n星期二: 09:00 – 17:30\n星期三: 09:00 – 17:30\n星期四: 09:00 – 17:30\n星期五: 09:00 – 17:30\n星期六: 09:00 – 20:00\n星期日: 09:00 – 17:30"
    },
    {
        "id": 91,
        "name": "蓮池潭",
        "star": 4.4,
        "info": "高雄市名聞遐邇的風景區，為康熙四十四年鳳山知縣宋永清所濬修，清代鳳山八景中的「泮水荷香」即指此地。",
        "place_id": "ChIJGfBXL54FbjQRLB_sHv5peWI",
        "lat": 22.6833323,
        "lng": 120.2966989,
        "address": "813台灣高雄市左營區蓮池潭",
        "city": "高雄市",
        "region": "左營區",
        "time": "24小時營業"
    },
    {
        "id": 92,
        "name": "田寮月世界",
        "star": 4.1,
        "info": "從田寮到旗山台28線沿路除了月世界景觀，有大小不等的二十多個泥火山，有著淒涼荒漠之美，像月球之景象而名聞遐邇。 ",
        "place_id": "ChIJeyXR0eJsbjQRWcw4qAiQNYM",
        "lat": 22.8858459,
        "lng": 120.3899615,
        "address": "823台灣高雄市田寮區月球路34號",
        "city": "高雄市",
        "region": "田寮區",
        "time": "星期一: 10:00 – 17:00\n星期二: 10:00 – 17:00\n星期三: 10:00 – 17:00\n星期四: 10:00 – 17:00\n星期五: 10:00 – 17:00\n星期六: 10:00 – 17:00\n星期日: 10:00 – 17:00"
    },
    {
        "id": 93,
        "name": "國立海洋生物博物館",
        "star": 4.6,
        "info": "展示多樣化魚種並模擬海洋環境生態，三層樓高的水族箱與海底隧道，超級夢幻！",
        "place_id": "ChIJL-PBocS5cTQRxKGnoxLUwj8",
        "lat": 22.0460173,
        "lng": 120.6989058,
        "address": "944台灣屏東縣車城鄉後灣路2號",
        "city": "屏東縣",
        "region": "車城鄉",
        "time": "星期一: 09:00 – 18:00\n星期二: 09:00 – 18:00\n星期三: 09:00 – 18:00\n星期四: 09:00 – 18:00\n星期五: 09:00 – 18:00\n星期六: 08:00 – 18:00\n星期日: 08:00 – 18:00"
    },
    {
        "id": 94,
        "name": "鹿境生態梅花鹿園",
        "star": 4.3,
        "info": "不用飛日本！台灣就有原生種梅花鹿，享受被鹿包圍，近距離玩耍超有趣！",
        "place_id": "ChIJ-baSVPywcTQR9otP4FjiF_A",
        "lat": 22.0124394,
        "lng": 120.7416877,
        "address": "946台灣屏東縣恆春鎮恆公路1097-1號",
        "city": "屏東縣",
        "region": "恆春鎮",
        "time": "星期一: 10:00 – 17:00\n星期二: 10:00 – 17:00\n星期三: 10:00 – 17:00\n星期四: 10:00 – 17:00\n星期五: 10:00 – 17:00\n星期六: 10:00 – 17:00\n星期日: 10:00 – 17:00"
    },
    {
        "id": 95,
        "name": "大樹舊鐵橋",
        "star": 4.3,
        "info": "超過百年的舊鐵橋，退役後轉變為天空步道，可居高臨下一覽濕地的美麗景色！",
        "place_id": "ChIJ______9abjQRfOd2A9JmIwg",
        "lat": 22.6623098,
        "lng": 120.4268314,
        "address": "840台灣高雄市大樹區旗甲公路21號",
        "city": "高雄市",
        "region": "大樹區",
        "time": "星期一: 09:00 – 17:00\n星期二: 09:00 – 17:00\n星期三: 09:00 – 17:00\n星期四: 09:00 – 17:00\n星期五: 09:00 – 17:00\n星期六: 09:00 – 17:00\n星期日: 09:00 – 17:00"
    },
    {
        "id": 96,
        "name": "涼山遊憩區",
        "star": 4.2,
        "info": "就像走進魔戒哈比人村，彩虹巴士、彩繪階梯超好拍，就像置身在童話中。",
        "place_id": "ChIJv9lERJc7bjQRfo7lDFiVTH4",
        "lat": 22.6861185,
        "lng": 120.6380465,
        "address": "903台灣屏東縣瑪家鄉涼山村涼山14-20號",
        "city": "屏東縣",
        "region": "瑪家鄉",
        "time": "星期一: 08:00 – 17:00\n星期二: 08:00 – 17:00\n星期三: 08:00 – 17:00\n星期四: 08:00 – 17:00\n星期五: 08:00 – 17:00\n星期六: 08:00 – 17:00\n星期日: 08:00 – 17:00"
    },
    {
        "id": 97,
        "name": "紫心樓",
        "star": 3.8,
        "info": "想看美景還得試膽量！天空步道的盡頭可一覽超遼闊的美景，晚間夜景也超浪漫！",
        "place_id": "ChIJh6nuylwkbjQRMX2wGqZMn_E",
        "lat": 22.5763599,
        "lng": 120.6465298,
        "address": "921台灣屏東縣泰武鄉老潭巷7號",
        "city": "屏東縣",
        "region": "泰武鄉",
        "time": "星期一: 10:00 – 20:00\n星期二: 休息\n星期三: 10:00 – 20:00\n星期四: 10:00 – 20:00\n星期五: 10:00 – 20:00\n星期六: 10:00 – 20:00\n星期日: 10:00 – 20:00"
    },
    {
        "id": 98,
        "name": "山川琉璃吊橋",
        "star": 3.9,
        "info": "全國最長的臥床式吊橋，可俯瞰壯闊的山巒美景，夜晚還會展現特別的光雕藝術。",
        "place_id": "ChIJp0CM9Ng7bjQRynJKMvyv-Mc",
        "lat": 22.708136,
        "lng": 120.652929,
        "address": "901台灣屏東縣三地門鄉瑪家鄉",
        "city": "屏東縣",
        "region": "三地門鄉",
        "time": "星期一: 休息\n星期二: 09:00 – 17:00\n星期三: 09:00 – 17:00\n星期四: 09:00 – 17:00\n星期五: 09:00 – 17:00\n星期六: 09:00 – 17:00\n星期日: 09:00 – 17:00"
    },
    {
        "id": 99,
        "name": "橙香森林",
        "star": 4,
        "info": "網美最愛夢幻玻璃屋！黃澄澄橘子園超欠拍，是童話世界才有的場景阿！",
        "place_id": "ChIJJcpdE1RTaDQRwkn5tX5Le54",
        "lat": 24.5908687,
        "lng": 120.918348,
        "address": "362台灣苗栗縣頭屋鄉明德路6號",
        "city": "苗栗縣",
        "region": "頭屋鄉",
        "time": "星期一: 09:00 – 18:00\n星期二: 休息\n星期三: 09:00 – 18:00\n星期四: 09:00 – 18:00\n星期五: 09:00 – 18:00\n星期六: 09:00 – 18:00\n星期日: 09:00 – 18:00"
    },
    {
        "id": 100,
        "name": "龍騰斷橋",
        "star": 4.2,
        "info": "百年古蹟走一遭！台灣鐵路藝術極品因意外留下的遺跡，更顯滄桑歲月美感。",
        "place_id": "ChIJf5KKExgEaTQRP_-VlaaKJU4",
        "lat": 24.3585179,
        "lng": 120.7740367,
        "address": "367台灣苗栗縣三義鄉龍騰村",
        "city": "苗栗縣",
        "region": "三義鄉",
        "time": "星期一: 24 小時營業\n星期二: 24 小時營業\n星期三: 24 小時營業\n星期四: 24 小時營業\n星期五: 24 小時營業\n星期六: 24 小時營業\n星期日: 24 小時營業"
    },
    {
        "id": 101,
        "name": "舊山線鐵道自行車",
        "star": 4.2,
        "info": "不用跑韓國！鐵道自行車體驗山線美景，必看隧道燈光秀，感受奇幻世界。",
        "place_id": "ChIJf5hiYY4FaTQRwPcak944Lys",
        "lat": 24.3881805,
        "lng": 120.7819812,
        "address": "367苗栗縣三義鄉十四鄰八十八號",
        "city": "苗栗縣",
        "region": "三義鄉",
        "time": "星期一: 08:30 – 17:30\n星期二: 08:30 – 17:30\n星期三: 08:30 – 17:30\n星期四: 08:30 – 17:30\n星期五: 08:30 – 17:30\n星期六: 08:30 – 17:30\n星期日: 08:30 – 17:30"
    },
    {
        "id": 102,
        "name": "半天寮好望角",
        "star": 4.3,
        "info": "沿著山稜線步道無敵海景還有一望無際的沙丘地景、巨大風車拍好拍滿。",
        "place_id": "ChIJVVVVVWWuaTQRsf_BtcIo5Yo",
        "lat": 24.601974,
        "lng": 120.731191,
        "address": "356台灣苗栗縣後龍鎮半天寮",
        "city": "苗栗縣",
        "region": "後龍鎮",
        "time": "星期一: 24 小時營業\n星期二: 24 小時營業\n星期三: 24 小時營業\n星期四: 24 小時營業\n星期五: 24 小時營業\n星期六: 24 小時營業\n星期日: 24 小時營業"
    },
    {
        "id": 103,
        "name": "花露休閒農場",
        "star": 4.1,
        "info": "童話城堡、香草花園、趣味小火車！週末親子半日遊全家都會愛的悠閒旅行。",
        "place_id": "ChIJ1_PC148EaTQRzj9R-wIG8IE",
        "lat": 24.332778,
        "lng": 120.8261689,
        "address": "369台灣苗栗縣卓蘭鎮號",
        "city": "苗栗縣",
        "region": "卓蘭鎮",
        "time": "星期一: 09:00 – 17:00\n星期二: 09:00 – 17:00\n星期三: 休息\n星期四: 09:00 – 17:00\n星期五: 09:00 – 17:00\n星期六: 08:30 – 17:00\n星期日: 08:30 – 17:00"
    },
    {
        "id": 104,
        "name": "苗栗山腳國小",
        "star": 4.4,
        "info": "日式風格的山腳國小日治後期宿舍群，一個有著獨特百年風情魅力的遊覽景點，角落都散發著濃厚的日式風情~",
        "place_id": "ChIJ89BlGRgJaTQR0_cdlwXXGG8",
        "lat": 24.417608,
        "lng": 120.685172,
        "address": "358台灣苗栗縣苑裡鎮舊社里10鄰47號",
        "city": "苗栗縣",
        "region": "苑裡鎮",
        "time": "星期一: 07:00 – 16:00\n星期二: 07:00 – 16:00\n星期三: 07:00 – 16:00\n星期四: 07:00 – 16:00\n星期五: 07:00 – 16:00\n星期六: 休息\n星期日: 休息"
    },
    {
        "id": 105,
        "name": "南寮魚鱗天梯",
        "star": 4.1,
        "info": "層層堆疊的白色階梯，取代傳統的消波塊，遠看就好像魚鱗片一樣，吸引不少人前往取景拍攝，是新竹IG打卡的美拍景點!",
        "place_id": "ChIJY-OlAOw0aDQRjfBy4mJvQHs",
        "lat": 24.8522122,
        "lng": 120.9236597,
        "address": "300台灣新竹市北區新港路",
        "city": "新竹市",
        "region": "北區",
        "time": "星期一: 24 小時營業\n星期二: 24 小時營業\n星期三: 24 小時營業\n星期四: 24 小時營業\n星期五: 24 小時營業\n星期六: 24 小時營業\n星期日: 24 小時營業"
    },
    {
        "id": 106,
        "name": "苗栗天空之城",
        "star": 4,
        "info": "中台灣最美城堡！走入童話故事的奇幻體驗，親子、情侶、全家大小郊遊好去處！",
        "place_id": "ChIJvUPWZPMEaTQRREYN-6zPUEo",
        "lat": 24.34937,
        "lng": 120.7785788,
        "address": "364台灣苗栗縣大湖鄉33號",
        "city": "苗栗縣",
        "region": "大湖鄉",
        "time": "星期一: 10:00 – 19:00\n星期二: 10:00 – 19:00\n星期三: 10:00 – 19:00\n星期四: 10:00 – 19:00\n星期五: 10:00 – 19:00\n星期六: 09:00 – 20:00\n星期日: 09:00 – 20:00"
    },
    {
        "id": 107,
        "name": "烏嘎彥竹林",
        "star": 4.2,
        "info": "層層交錯的翠綠竹林直衝雲霄，營造出宛如電影《臥虎藏龍》及武俠小說般的場景，網友稱作是「台版的嵐山」",
        "place_id": "ChIJlRNeXbj_aDQRauwM1S6XdIU",
        "lat": 24.4209213,
        "lng": 120.9196081,
        "address": "365台灣苗栗縣泰安鄉大興村",
        "city": "苗栗縣",
        "region": "泰安鄉",
        "time": "星期一: 24 小時營業\n星期二: 24 小時營業\n星期三: 24 小時營業\n星期四: 24 小時營業\n星期五: 24 小時營業\n星期六: 24 小時營業\n星期日: 24 小時營業"
    },
    {
        "id": 108,
        "name": "鳶嘴山步道",
        "star": 4.7,
        "info": "山系最夯景點！來一趟大自然芬多精洗禮，不過要注意沿途的陡峭登山爬坡道喔！",
        "place_id": "ChIJNdr610PjaDQRzApQirjCqvI",
        "lat": 24.2347631,
        "lng": 120.9543033,
        "address": "424台灣台中市和平區200號林道",
        "city": "台中市",
        "region": "和平區",
        "time": "星期一: 24 小時營業\n星期二: 24 小時營業\n星期三: 24 小時營業\n星期四: 24 小時營業\n星期五: 24 小時營業\n星期六: 24 小時營業\n星期日: 24 小時營業"
    },
    {
        "id": 109,
        "name": "審計新村",
        "star": 4.4,
        "info": "文青最愛，火紅文創聚落！逛逛手作、美食、創意小店，來這裡悠閒半日遊剛好。",
        "place_id": "ChIJZc4QyaE9aTQRRVwjmQmYS7g",
        "lat": 24.1447331,
        "lng": 120.6626426,
        "address": "403台灣台中市西區民生路368巷4弄8號",
        "city": "台中市",
        "region": "西區",
        "time": "星期一: 09:00 – 19:00\n星期二: 09:00 – 19:00\n星期三: 09:00 – 19:00\n星期四: 09:00 – 19:00\n星期五: 09:00 – 19:00\n星期六: 09:00 – 19:00\n星期日: 09:00 – 19:00"
    },
    {
        "id": 110,
        "name": "沙鹿九天黑森林",
        "star": 0,
        "info": "漫步魔法森林！外拍最愛秘境，奇幻氛圍，映著樹林間灑落的陽光，超級好拍！",
        "place_id": "ChIJL_-sgD4VaTQR40YNCpJGaOM",
        "lat": 24.2292325,
        "lng": 120.597409,
        "address": "433台灣台中市沙鹿區6HHW+MX",
        "city": "台中市",
        "region": "沙鹿區",
        "time": "無"
    },
    {
        "id": 111,
        "name": "麗寶樂園",
        "star": 4.2,
        "info": "結合水陸樂園、住宿、Outlet，全台首選超級娛樂城，一站滿足全家人願望。",
        "place_id": "ChIJ1bZU8hkQaTQRqWPxCYpghHE",
        "lat": 24.3230546,
        "lng": 120.695524,
        "address": "42145台灣台中市后里區福容路8號",
        "city": "台中市",
        "region": "后里區",
        "time": "星期一: 09:30 – 18:00\n星期二: 09:30 – 18:00\n星期三: 09:30 – 18:00\n星期四: 09:30 – 18:00\n星期五: 09:30 – 18:00\n星期六: 09:30 – 20:00\n星期日: 09:30 – 18:00"
    },
    {
        "id": 112,
        "name": "田尾公路花園波波草",
        "star": 4.2,
        "info": "不用飛國外！超萌台版波波草在這裡！整齊劃一的綠色團子排排站，超級療癒。",
        "place_id": "ChIJk1RMRYY1aTQRzWdjguu8Z-Q",
        "lat": 23.8960062,
        "lng": 120.5317669,
        "address": "522台灣彰化縣田尾鄉民族路一段156號",
        "city": "彰化縣",
        "region": "田尾鄉",
        "time": "星期一: 08:00 – 18:00\n星期二: 08:00 – 18:00\n星期三: 08:00 – 18:00\n星期四: 08:00 – 18:00\n星期五: 08:00 – 18:00\n星期六: 08:00 – 18:00\n星期日: 08:00 – 18:00"
    },
    {
        "id": 113,
        "name": "農村仙人掌園",
        "star": 4,
        "info": "超壯觀比人高仙人掌叢林，不說還以為是沙漠祕境！玩彰化不能錯過的秘密基地。",
        "place_id": "ChIJybG6p4c1aTQRSN44NYzwbAU",
        "lat": 23.905841,
        "lng": 120.530028,
        "address": "522台灣彰化縣田尾鄉民生路一段347巷17號",
        "city": "彰化縣",
        "region": "田尾鄉",
        "time": "08:00~17:30(周六日開放)"
    },
    {
        "id": 114,
        "name": "田尾九重葛花園",
        "star": 4.4,
        "info": "少女心噴發！享受花仙子浪漫，粉色系花牆、花園迷宮，不殺光底片誰捨得離開！",
        "place_id": "ChIJKzPHLoc1aTQREulB1k51NbE",
        "lat": 23.9024786,
        "lng": 120.5303608,
        "address": "522台灣彰化縣田尾鄉民族路一段477號",
        "city": "彰化縣",
        "region": "田尾鄉",
        "time": "星期一: 09:00 – 19:00\n星期二: 09:00 – 19:00\n星期三: 09:00 – 19:00\n星期四: 09:00 – 19:00\n星期五: 09:00 – 19:00\n星期六: 09:00 – 19:00\n星期日: 09:00 – 19:00"
    },
    {
        "id": 115,
        "name": "大村雙心池塘",
        "star": 3.5,
        "info": "情侶必遊！充滿幸福泡泡的夢幻地標，隨處是LOVE字樣造景，感情加溫首選。",
        "place_id": "ChIJxSi6UXQ3aTQR2JHHcmhhzZc",
        "lat": 23.9967481,
        "lng": 120.577244,
        "address": "515台灣彰化縣大村鄉平和社區",
        "city": "彰化縣",
        "region": "大村鄉",
        "time": "星期一: 24 小時營業\n星期二: 24 小時營業\n星期三: 24 小時營業\n星期四: 24 小時營業\n星期五: 24 小時營業\n星期六: 24 小時營業\n星期日: 24 小時營業"
    },
    {
        "id": 116,
        "name": "台灣銘園庭園美術館",
        "star": 4.5,
        "info": "迷你版兼六園！貼心免費入園，感受道地日式庭園景觀，讓人大飽眼福。",
        "place_id": "ChIJhxsap5FLaTQRj62ECGZQ7TQ",
        "lat": 23.8923642,
        "lng": 120.5223078,
        "address": "522台灣彰化縣田尾鄉三豐路102號",
        "city": "彰化縣",
        "region": "田尾鄉",
        "time": "星期一: 08:00 – 17:00\n星期二: 08:00 – 17:00\n星期三: 08:00 – 17:00\n星期四: 08:00 – 17:00\n星期五: 08:00 – 17:00\n星期六: 08:00 – 18:00\n星期日: 08:00 – 18:00"
    },
    {
        "id": 117,
        "name": "成美文化園",
        "star": 4.3,
        "info": "結合歷史人文及觀光休閒的庭園空間，種植多種樹木花草，不同時節來景觀皆美。",
        "place_id": "ChIJ_9bBguk1aTQRhCIhRswPh4o",
        "lat": 23.9201615,
        "lng": 120.5481614,
        "address": "512台灣彰化縣永靖鄉中山路二段60號",
        "city": "彰化縣",
        "region": "永靖鄉",
        "time": "星期一: 09:00 – 17:00\n星期二: 09:00 – 17:00\n星期三: 09:00 – 17:00\n星期四: 09:00 – 17:00\n星期五: 09:00 – 17:00\n星期六: 09:00 – 17:00\n星期日: 09:00 – 17:00"
    },
    {
        "id": 118,
        "name": "扇形車庫",
        "star": 4.3,
        "info": "是全國僅存的扇形火車庫，蒸汽機車火車頭於完成懷舊之旅後，進駐彰化扇形車庫，讓這座扇形車庫更具歷史和文化保存價值。",
        "place_id": "ChIJzdeE7Zc4aTQRmhsTYz5Q_kw",
        "lat": 24.08594819999999,
        "lng": 120.540171,
        "address": "500台灣彰化縣彰化市彰美路一段1號",
        "city": "彰化縣",
        "region": "彰化市",
        "time": "星期一: 休息\n星期二: 13:00 – 16:00\n星期三: 13:00 – 16:00\n星期四: 13:00 – 16:00\n星期五: 13:00 – 16:00\n星期六: 10:00 – 16:00\n星期日: 10:00 – 16:00"
    },
    {
        "id": 119,
        "name": "八卦山大佛風景區",
        "star": 4.2,
        "info": "八卦山是彰化地區名勝景點，大佛建於海拔74公尺的山腰，高約23公尺，是彰化縣著名地標。",
        "place_id": "ChIJyzuWapM4aTQRlftmw1KoTHo",
        "lat": 24.0784879,
        "lng": 120.5488211,
        "address": "500台灣彰化縣彰化市溫泉路31號",
        "city": "彰化縣",
        "region": "彰化市",
        "time": "星期一: 08:30 – 17:30\n星期二: 08:30 – 17:30\n星期三: 08:30 – 17:30\n星期四: 08:30 – 17:30\n星期五: 08:30 – 17:30\n星期六: 08:30 – 17:30\n星期日: 08:30 – 17:30"
    },
    {
        "id": 120,
        "name": "銀杏森林",
        "star": 4.3,
        "info": "交錯於茶園間的銀杏樹，成了如夢似幻銀杏森林，交織綠葉及山嵐景緻，美不勝收。",
        "place_id": "ChIJV3bsSQHRbjQRimGQlPwDxks",
        "lat": 23.6797159,
        "lng": 120.7623682,
        "address": "558台灣南投縣鹿谷鄉羊灣巷800-1號",
        "city": "南投縣",
        "region": "鹿谷鄉",
        "time": "星期一: 10:00 – 15:00\n星期二: 10:00 – 15:00\n星期三: 10:00 – 15:00\n星期四: 休息\n星期五: 10:00 – 15:00\n星期六: 08:30 – 15:00\n星期日: 08:30 – 15:00"
    },
    {
        "id": 121,
        "name": "日月潭蔣公碼頭",
        "star": 4.3,
        "info": "傳說中的日月潭秘境，木質的碼頭步道，搭配紅燈籠，彷彿回到舊時代單詩情畫意。",
        "place_id": "ChIJTXWPSA_WaDQRkICwLfHvMyY",
        "lat": 23.8622607,
        "lng": 120.9085261,
        "address": "555台灣南投縣魚池鄉中興路142號",
        "city": "南投縣",
        "region": "魚池鄉",
        "time": "08:00-17:00"
    },
    {
        "id": 122,
        "name": "清境天空步道",
        "star": 4.2,
        "info": "全台最高步道！山腳美景一覽無遺，途中許多的懸空看台，是拍美照的絕佳位置。",
        "place_id": "ChIJzQyPrg_CaDQR6BsIIu_pkR0",
        "lat": 24.0483992,
        "lng": 121.1568039,
        "address": "546台灣南投縣仁愛鄉仁和路186-3號",
        "city": "南投縣",
        "region": "仁愛鄉",
        "time": "星期一: 08:00 – 16:30\n星期二: 08:00 – 16:30\n星期三: 08:00 – 16:30\n星期四: 08:00 – 16:30\n星期五: 08:00 – 16:30\n星期六: 08:00 – 16:30\n星期日: 08:00 – 16:30"
    },
    {
        "id": 123,
        "name": "合歡山國家森林遊樂區",
        "star": 4.5,
        "info": "擁有「雪鄉」美稱，除了賞雪還能觀星、賞日出，更是登百岳入門首選。",
        "place_id": "ChIJo_KBYGjjaDQRAeXct0zwb5Y",
        "lat": 24.244563,
        "lng": 120.9751163,
        "address": "424台灣台中市和平區雪山路18號",
        "city": "台中市",
        "region": "和平區",
        "time": "星期一: 06:30 – 17:00\n星期二: 06:30 – 17:00\n星期三: 06:30 – 17:00\n星期四: 06:30 – 17:00\n星期五: 06:30 – 17:00\n星期六: 06:30 – 17:00\n星期日: 06:30 – 17:00"
    },
    {
        "id": 124,
        "name": "忘憂森林",
        "star": 4.2,
        "info": "高聳入天的柳杉木群形成特殊的景緻，吸引許多遊客及攝影愛好者慕名而來。",
        "place_id": "ChIJg7jzNMfQbjQR7VW8vQdOTlU",
        "lat": 23.6497266,
        "lng": 120.7936233,
        "address": "557台灣南投縣竹山鎮溪山路3-25號2樓",
        "city": "南投縣",
        "region": "竹山鎮",
        "time": "星期一: 08:00 – 17:00\n星期二: 休息\n星期三: 休息\n星期四: 休息\n星期五: 08:00 – 17:00\n星期六: 08:00 – 17:00\n星期日: 08:00 – 17:00"
    },
    {
        "id": 125,
        "name": "毓鏽美術館",
        "star": 4.4,
        "info": "清水模建築配合充滿禪意的庭園，展現出現代藝術創作，是網美網帥IG打卡神秘熱點！",
        "place_id": "ChIJM3-m_6ElaTQRoa5YMFh5TM4",
        "lat": 23.992797,
        "lng": 120.7665846,
        "address": "542台灣南投縣草屯鎮健行路150巷26號",
        "city": "南投縣",
        "region": "草屯鎮",
        "time": "星期一: 休息\n星期二: 10:00 – 17:00\n星期三: 10:00 – 17:00\n星期四: 10:00 – 15:00\n星期五: 10:00 – 17:00\n星期六: 10:00 – 17:00\n星期日: 10:00 – 17:00"
    },
    {
        "id": 126,
        "name": "妮娜巧克力城堡",
        "star": 4.4,
        "info": "偌大雄偉的歐洲風城堡在桃米村內拔地而起，有如走進霍格華茲魔法城堡",
        "place_id": "ChIJHRsWmszZaDQR1yhoiOKZpwc",
        "lat": 23.9433221,
        "lng": 120.9295109,
        "address": "545台灣南投縣埔里鎮桃米路32號",
        "city": "南投縣",
        "region": "埔里鎮",
        "time": "星期一: 10:00 – 17:30\n星期二: 10:00 – 17:30\n星期三: 10:00 – 17:30\n星期四: 10:00 – 17:30\n星期五: 10:00 – 17:30\n星期六: 10:00 – 17:30\n星期日: 10:00 – 17:30"
    },
    {
        "id": 127,
        "name": "鹿篙咖啡莊園",
        "star": 4.1,
        "info": "結合歷史人文及觀光休閒的庭園空間，種植多種樹木花草，不同時節來景觀皆美。",
        "place_id": "ChIJw0w9Ff_XaDQR2AF8EkDj5Xw",
        "lat": 23.9166701,
        "lng": 120.9422494,
        "address": "555台灣南投縣魚池鄉香茶巷31-6號",
        "city": "南投縣",
        "region": "魚池鄉",
        "time": "星期一: 09:00 – 17:00\n星期二: 09:00 – 17:00\n星期三: 09:00 – 17:00\n星期四: 09:00 – 17:00\n星期五: 09:00 – 17:00\n星期六: 09:00 – 17:00\n星期日: 09:00 – 17:00"
    },
    {
        "id": 128,
        "name": "象鼻岩",
        "star": 4.4,
        "info": "象鼻岩搭配碧海藍天怎麼拍都美，但請注意自身安全喔！",
        "place_id": "ChIJR3oKC51FXTQRV7n_bJH8yjI",
        "lat": 25.1355953,
        "lng": 121.8244308,
        "address": "224台灣新北市瑞芳區",
        "city": "新北市",
        "region": "瑞芳區",
        "time": "星期一: 24 小時營業\n星期二: 24 小時營業\n星期三: 24 小時營業\n星期四: 24 小時營業\n星期五: 24 小時營業\n星期六: 24 小時營業\n星期日: 24 小時營業"
    },
    {
        "id": 129,
        "name": "老梅綠石槽",
        "star": 4.3,
        "info": "期間限定抹茶地毯，大片海藻綠意盎然～",
        "place_id": "ChIJ7UGTS9K1QjQRsjAjSS-NpSg",
        "lat": 25.29243989999999,
        "lng": 121.5447193,
        "address": "253台灣新北市石門區老梅里",
        "city": "新北市",
        "region": "石門區",
        "time": "星期一: 24 小時營業\n星期二: 24 小時營業\n星期三: 24 小時營業\n星期四: 24 小時營業\n星期五: 24 小時營業\n星期六: 24 小時營業\n星期日: 24 小時營業"
    },
    {
        "id": 130,
        "name": "八斗子潮境公園",
        "star": 4.4,
        "info": "北台灣最美海濱公園，還有巨大飛天掃帚！",
        "place_id": "ChIJGTT2a3lPXTQRjkhw37cYOJM",
        "lat": 25.1434517,
        "lng": 121.8034149,
        "address": "202台灣基隆市中正區北寧路369巷61號",
        "city": "基隆市",
        "region": "中正區",
        "time": "星期一: 24 小時營業\n星期二: 24 小時營業\n星期三: 24 小時營業\n星期四: 24 小時營業\n星期五: 24 小時營業\n星期六: 24 小時營業\n星期日: 24 小時營業"
    },
    {
        "id": 131,
        "name": "烏來瀑布",
        "star": 4.3,
        "info": "觀瀑第一排，絕美透明玻璃屋超好拍！",
        "place_id": "ChIJ2fpFp28GaDQR3N-e1P4HJ-8",
        "lat": 24.84744259999999,
        "lng": 121.5519459,
        "address": "233台灣新北市烏來區瀑布路16號",
        "city": "新北市",
        "region": "烏來區",
        "time": "星期一: 24 小時營業\n星期二: 24 小時營業\n星期三: 24 小時營業\n星期四: 24 小時營業\n星期五: 24 小時營業\n星期六: 24 小時營業\n星期日: 24 小時營業"
    },
    {
        "id": 132,
        "name": "公雞咖啡",
        "star": 4.3,
        "info": "擁淺水灣無敵海景，悠閒度假感滿分。",
        "place_id": "ChIJ28XGCMWwQjQRjQ6vICgDG2k",
        "lat": 25.2503579,
        "lng": 121.467927,
        "address": "252台灣新北市三芝區北勢子45-16號",
        "city": "新北市",
        "region": "三芝區",
        "time": "星期一: 11:00 – 20:00\n星期二: 11:00 – 20:00\n星期三: 休息\n星期四: 11:00 – 20:00\n星期五: 11:00 – 20:00\n星期六: 11:00 – 20:00\n星期日: 11:00 – 20:00"
    },
    {
        "id": 133,
        "name": "銀河洞",
        "star": 4.4,
        "info": "根這根本仙境！空靈瀑布仙氣破表！",
        "place_id": "ChIJxSNAVTUAaDQR7vNyKE1bJtU",
        "lat": 24.9584884,
        "lng": 121.5834063,
        "address": "231台灣新北市新店區銀河越嶺步道",
        "city": "新北市",
        "region": "新店區",
        "time": "星期一: 休息\n星期二: 休息\n星期三: 休息\n星期四: 休息\n星期五: 休息\n星期六: 08:00 – 17:00\n星期日: 08:00 – 17:00"
    },
    {
        "id": 134,
        "name": "陽明山海芋",
        "star": 4.1,
        "info": "置身在白色海芋圍中且被山群圍繞，輕易都能拍出新清仙女照",
        "place_id": "ChIJY-MnDh-yQjQRpXfU_6UZ9tA",
        "lat": 25.1786938,
        "lng": 121.5405652,
        "address": "112台灣台北市北投區竹子湖路67之8號之",
        "city": "台北市",
        "region": "北投區",
        "time": "星期一: 08:00 – 17:00\n星期二: 08:00 – 17:00\n星期三: 08:00 – 17:00\n星期四: 08:00 – 17:00\n星期五: 08:00 – 17:00\n星期六: 08:00 – 17:00\n星期日: 08:00 – 17:00"
    },
    {
        "id": 135,
        "name": "陽明山繡球花",
        "star": 4,
        "info": "繡球花遍及平地和山壁，有高高的花牆讓你完全被花叢給包圍，拍起來整個仙氣十足！",
        "place_id": "ChIJBWW9QBKuQjQRQdUbBwD61iI",
        "lat": 25.1726811,
        "lng": 121.5394351,
        "address": "112台灣台北市北投區竹子湖路",
        "city": "台北市",
        "region": "北投區",
        "time": "星期一: 08:00 – 18:00\n星期二: 08:00 – 18:00\n星期三: 08:00 – 18:00\n星期四: 08:00 – 18:00\n星期五: 08:00 – 18:00\n星期六: 08:00 – 18:00\n星期日: 08:00 – 18:00"
    },
    {
        "id": 136,
        "name": "蓮荷園休閒農場",
        "star": 3.8,
        "info": "大王蓮拍一波，秒變拇指姑娘啦！",
        "place_id": "ChIJST7H3HomaDQREHDxorRttMc",
        "lat": 25.012855,
        "lng": 121.115894,
        "address": "328台灣桃園市觀音區金華路690號",
        "city": "桃園市",
        "region": "觀音區",
        "time": "星期一: 08:30 – 17:30\n星期二: 休息\n星期三: 08:30 – 17:30\n星期四: 08:30 – 17:30\n星期五: 08:30 – 17:30\n星期六: 08:30 – 18:00\n星期日: 08:30 – 18:00"
    },
    {
        "id": 137,
        "name": "GOGOBOX_餐車誌",
        "star": 4.4,
        "info": "美式鄉村風餐車，夢幻野餐必備。",
        "place_id": "ChIJ2Rc-pPgWaDQRMi0iC-SqxKw",
        "lat": 24.8250728,
        "lng": 121.306979,
        "address": "335台灣桃園市大溪區復興路二段138號",
        "city": "桃園市",
        "region": "大溪區",
        "time": "星期一: 09:00 – 17:00\n星期二: 09:00 – 17:00\n星期三: 09:00 – 17:00\n星期四: 09:00 – 17:00\n星期五: 09:00 – 17:00\n星期六: 08:00 – 17:00\n星期日: 08:00 – 17:00"
    },
    {
        "id": 138,
        "name": "大溪茶廠",
        "star": 4.2,
        "info": "文青網美必訪，純白建築、茶香瀰漫～",
        "place_id": "ChIJNRoI4B4XaDQRl0iNJO8_NOc",
        "lat": 24.8306561,
        "lng": 121.328373,
        "address": "335台灣桃園市大溪區復興路二段732巷80號",
        "city": "桃園市",
        "region": "大溪區",
        "time": "星期一: 09:30 – 17:00\n星期二: 09:30 – 17:00\n星期三: 09:30 – 17:00\n星期四: 09:30 – 17:00\n星期五: 09:30 – 17:00\n星期六: 09:30 – 17:00\n星期日: 09:30 – 17:00"
    },
    {
        "id": 139,
        "name": "埔心牧場",
        "star": 3.8,
        "info": "就要親近大自然，草泥馬、小鹿、水豚君都萌萌噠！",
        "place_id": "ChIJHQzvohcjaDQRB17Edit8-x4",
        "lat": 24.9259421,
        "lng": 121.1763718,
        "address": "32659台灣桃園市楊梅區幼獅路一段439號",
        "city": "桃園市",
        "region": "楊梅區",
        "time": "星期一: 09:00 – 17:00\n星期二: 09:00 – 17:00\n星期三: 09:00 – 17:00\n星期四: 09:00 – 17:00\n星期五: 09:00 – 17:00\n星期六: 09:00 – 17:00\n星期日: 09:00 – 17:00"
    },
    {
        "id": 140,
        "name": "三坑自然生態公園",
        "star": 4.3,
        "info": "湖岸美景大草坪，最新美拍景點。",
        "place_id": "ChIJmzhLXIE9aDQRrumrssL4PmU",
        "lat": 24.8389549,
        "lng": 121.2573802,
        "address": "325台灣桃園市龍潭區三坑里",
        "city": "桃園市",
        "region": "龍潭區",
        "time": "星期一: 24 小時營業\n星期二: 24 小時營業\n星期三: 24 小時營業\n星期四: 24 小時營業\n星期五: 24 小時營業\n星期六: 24 小時營業\n星期日: 24 小時營業"
    },
    {
        "id": 141,
        "name": "觀音草漯沙丘",
        "star": 4.2,
        "info": "台版撒哈拉，沙海同框、沿岸風車徐徐～",
        "place_id": "ChIJbwWD3GQnaDQRrj1U5-u5Q9Q",
        "lat": 25.0735925,
        "lng": 121.126474,
        "address": "328台灣桃園市觀音區保障里",
        "city": "桃園市",
        "region": "觀音區",
        "time": "星期一: 24 小時營業\n星期二: 24 小時營業\n星期三: 24 小時營業\n星期四: 24 小時營業\n星期五: 24 小時營業\n星期六: 24 小時營業\n星期日: 24 小時營業"
    },
    {
        "id": 142,
        "name": "向陽農場",
        "star": 4,
        "info": "占地18000平，為北台灣最大的向日葵主題農場，一大片向日葵花海視覺效果極佳，是超好拍照打卡點！",
        "place_id": "ChIJ162sPncmaDQRF67DL3vwg3s",
        "lat": 25.0078319,
        "lng": 121.1116417,
        "address": "328台灣桃園市觀音區藍埔里11鄰52號",
        "city": "桃園市",
        "region": "觀音區",
        "time": "星期一: 休息\n星期二: 09:00 – 18:00\n星期三: 09:00 – 18:00\n星期四: 09:00 – 18:00\n星期五: 09:00 – 18:00\n星期六: 09:00 – 18:00\n星期日: 09:00 – 18:00"
    },
    {
        "id": 143,
        "name": "康莊蓮園",
        "star": 3.8,
        "info": "一日蓮花仙子體驗！可以坐在上面的大王蓮花葉子，體驗大王蓮好地方！",
        "place_id": "ChIJ3bO_fiokaDQRSoocEh1jiTE",
        "lat": 25.0011412,
        "lng": 121.1281145,
        "address": "184, 大堀村, 觀音區桃園市台灣 328",
        "city": "桃園市",
        "region": "觀音區",
        "time": "08:00-20:00"
    },
    {
        "id": 144,
        "name": "香山濕地賞蟹步道",
        "star": 4.3,
        "info": "絕美夕陽、濕地潮汐，最適合親子同樂。",
        "place_id": "ChIJP0L-NKNKaDQRZp5YgpymGy4",
        "lat": 24.7831722,
        "lng": 120.9143118,
        "address": "300台灣新竹市香山區中華路五段320巷35號",
        "city": "新竹市",
        "region": "香山區",
        "time": "星期一: 休息\n星期二: 09:00 – 18:00\n星期三: 09:00 – 18:00\n星期四: 09:00 – 18:00\n星期五: 09:00 – 18:00\n星期六: 09:00 – 18:00\n星期日: 09:00 – 18:00"
    },
    {
        "id": 145,
        "name": "新竹動物園",
        "star": 4,
        "info": "棲地式動物園，美美森林食堂、森林野餐必拍。",
        "place_id": "ChIJl78Wnt01aDQRz1shOsBVUGU",
        "lat": 24.8001561,
        "lng": 120.9799218,
        "address": "300台灣新竹市東區食品路66號",
        "city": "新竹市",
        "region": "東區",
        "time": "星期一: 休息\n星期二: 09:00 – 17:00\n星期三: 09:00 – 17:00\n星期四: 09:00 – 17:00\n星期五: 09:00 – 17:00\n星期六: 09:00 – 18:00\n星期日: 09:00 – 18:00"
    },
    {
        "id": 146,
        "name": "豆腐岩",
        "star": 4,
        "info": "療癒系豆腐岩，白天夜晚都美翻。",
        "place_id": "ChIJaY3_dVI2aDQRw2GdEz-a_Lk",
        "lat": 24.7998907,
        "lng": 121.0296557,
        "address": "302台灣新竹縣竹北市頭前溪",
        "city": "新竹縣",
        "region": "竹北市",
        "time": "星期一: 24 小時營業\n星期二: 24 小時營業\n星期三: 24 小時營業\n星期四: 24 小時營業\n星期五: 24 小時營業\n星期六: 24 小時營業\n星期日: 24 小時營業"
    },
    {
        "id": 147,
        "name": "六福村",
        "star": 4.5,
        "info": "異國風樂園+野生動物園，一次搞定玩不膩！",
        "place_id": "ChIJV-Ai7AQ8aDQRU-Dpi0F7gUE",
        "lat": 24.8252393,
        "lng": 121.1806029,
        "address": "306台灣新竹縣關西鎮60號",
        "city": "新竹縣",
        "region": "關西鎮",
        "time": "星期一: 09:00 – 18:30\n星期二: 09:00 – 18:30\n星期三: 09:00 – 18:30\n星期四: 09:00 – 18:30\n星期五: 09:00 – 18:30\n星期六: 09:00 – 20:00\n星期日: 09:00 – 20:00"
    },
    {
        "id": 148,
        "name": "司馬庫斯",
        "star": 4.5,
        "info": "櫻花步道、神木群，滿滿芬多精身心都健康。",
        "place_id": "ChIJab5AF0FpaDQRFn-92oaqBWc",
        "lat": 24.578691,
        "lng": 121.3344606,
        "address": "313台灣新竹縣尖石鄉玉峰村14鄰司馬庫斯2號",
        "city": "新竹縣",
        "region": "尖石鄉",
        "time": "可上山時間：12:40以前、15:00以後\n上山車輛不得在其他時間越過泰崗岔路口進入司馬庫斯產業道路\n\n可下山時間：14:00以前、16:20以後\n下山車輛不得在其他時間從司馬庫斯部落出發"
    },
    {
        "id": 149,
        "name": "新豐紅樹林",
        "star": 3.9,
        "info": "遼闊樹海木棧道，彷彿漫步在宮崎駿動畫場景！",
        "place_id": "ChIJy2hWnDIyaDQRP5rJ63VJQ5Y",
        "lat": 24.9100094,
        "lng": 120.9714337,
        "address": "304台灣新竹縣新豐鄉池府路156號",
        "city": "新竹縣",
        "region": "新豐鄉",
        "time": "星期一: 24 小時營業\n星期二: 24 小時營業\n星期三: 24 小時營業\n星期四: 24 小時營業\n星期五: 24 小時營業\n星期六: 24 小時營業\n星期日: 24 小時營業"
    },
    {
        "id": 150,
        "name": "麗池公園",
        "star": 4.4,
        "info": "九區橋與涼亭就在湖上，仿造蘇州庭園，曲曲折折連接至對岸的河畔料亭，園內蒼松翠柏、花木扶疏，構成一幅絕美景象。",
        "place_id": "ChIJQ7chTNw1aDQRPyxUWhoe5sI",
        "lat": 24.8009119,
        "lng": 120.9773311,
        "address": "300台灣新竹市東區東山街162號",
        "city": "新竹市",
        "region": "東區",
        "time": "星期一: 24 小時營業\n星期二: 24 小時營業\n星期三: 24 小時營業\n星期四: 24 小時營業\n星期五: 24 小時營業\n星期六: 24 小時營業\n星期日: 24 小時營業"
    },
    {
        "id": 151,
        "name": "福祥仙人掌與多肉植物園",
        "star": 4.1,
        "info": "園區蒐集來自世界各地的多肉植物共八千餘種，現場除了賞肉買肉，還可組盆DIY，輕鬆體驗多肉植物的療癒力～",
        "place_id": "ChIJrauPPRI6aDQRftk5__tiDHc",
        "lat": 24.8571509,
        "lng": 121.0940552,
        "address": "305台灣新竹縣新埔鎮38號",
        "city": "新竹縣",
        "region": "新埔鎮",
        "time": "星期一: 休息\n星期二: 08:00 – 17:00\n星期三: 08:00 – 17:00\n星期四: 08:00 – 17:00\n星期五: 08:00 – 17:00\n星期六: 08:00 – 17:00\n星期日: 08:00 – 17:00"
    },
    {
        "id": 152,
        "name": "味衛佳柿餅",
        "star": 4.2,
        "info": "每年9月至隔年1月為柿子產收季節，黃澄澄的柿子鋪滿整片棚架，吸引許多遊客盡情徜徉在金黃柿海中。",
        "place_id": "ChIJ8Qh0-VQ3aDQRhWn-YEkJW40",
        "lat": 24.8406343,
        "lng": 121.0763459,
        "address": "305台灣新竹縣新埔鎮旱坑路一段283巷53號",
        "city": "新竹縣",
        "region": "新埔鎮",
        "time": "08:00-18:30\n柿餅產季(9月至隔年1月)每天開放"
    },
    {
        "id": 153,
        "name": "亞果帆船出海",
        "star": 5,
        "info": "澎湖最美海灣巡航，享受澎湖的海風與自由，在帆船上享用限定版海上餐盒以及飲品無限暢飲",
        "place_id": "ChIJH0crZY1abDQRkA5bOMPHd7Y",
        "lat": 23.56231649999999,
        "lng": 119.5681779,
        "address": "880台灣澎湖縣馬公市啟明里海安街1號",
        "city": "澎湖縣",
        "region": "馬公市",
        "time": "星期一: 09:00 – 18:00\n星期二: 09:00 – 18:00\n星期三: 09:00 – 18:00\n星期四: 09:00 – 18:00\n星期五: 09:00 – 18:00\n星期六: 09:00 – 18:00\n星期日: 09:00 – 18:00"
    },
    {
        "id": 154,
        "name": "澎湖大菓葉神秘三石壁",
        "star": 4.5,
        "info": "世界級旅遊景點的指標之一，讓您不用花大錢到國外就能近距離觀看世界自然遺產的柱狀玄武岩。",
        "place_id": "ChIJ1wybt9RbbDQRF2QDMGePpXQ",
        "lat": 23.5972843,
        "lng": 119.5148664,
        "address": "881台灣澎湖縣西嶼鄉",
        "city": "澎湖縣",
        "region": "西嶼鄉",
        "time": "星期一: 24 小時營業\n星期二: 24 小時營業\n星期三: 24 小時營業\n星期四: 24 小時營業\n星期五: 24 小時營業\n星期六: 24 小時營業\n星期日: 24 小時營業"
    },
    {
        "id": 155,
        "name": "澎湖小池角雙曲橋",
        "star": 4.3,
        "info": "近年興起的著名IG打卡景點，漲潮時潔白橋樑佇立於海上，與清澈的海水搭配下呈現出唯美的景色！",
        "place_id": "ChIJ-dU4BYJZbDQRaybATzqsE-M",
        "lat": 23.5987037,
        "lng": 119.5044665,
        "address": "881台灣澎湖縣西嶼鄉池西村",
        "city": "澎湖縣",
        "region": "西嶼鄉",
        "time": "星期一: 24 小時營業\n星期二: 24 小時營業\n星期三: 24 小時營業\n星期四: 24 小時營業\n星期五: 24 小時營業\n星期六: 24 小時營業\n星期日: 24 小時營業"
    },
    {
        "id": 156,
        "name": "二崁聚落",
        "star": 4.5,
        "info": "古色古香的傳統閩南合院建築，連咖啡館和生魚片店拍起來都很有FU！",
        "place_id": "ChIJgWTbWNBbbDQR8CTWafLvjDg",
        "lat": 23.60517399999999,
        "lng": 119.519615,
        "address": "881台灣澎湖縣西嶼鄉",
        "city": "澎湖縣",
        "region": "西嶼鄉",
        "time": "星期一: 24 小時營業\n星期二: 24 小時營業\n星期三: 24 小時營業\n星期四: 24 小時營業\n星期五: 24 小時營業\n星期六: 24 小時營業\n星期日: 24 小時營業"
    },
    {
        "id": 157,
        "name": "外垵漁港",
        "star": 4.4,
        "info": "從三仙塔眺望外垵漁港，感受有如希臘般的度假風情，看夕陽、觀星也很棒！",
        "place_id": "ChIJsViIJaRZbDQRvUuVgsc4u0s",
        "lat": 23.5639893,
        "lng": 119.4774794,
        "address": "881台灣澎湖縣西嶼鄉148-14",
        "city": "澎湖縣",
        "region": "西嶼鄉",
        "time": "無"
    },
    {
        "id": 158,
        "name": "林投金沙灘",
        "star": 4.6,
        "info": "不輸沖繩的林投金沙灘！漂亮的白色珊瑚碎屑沙灘綿延近3公里是澎湖最長的沙灘-",
        "place_id": "ChIJjWSpRwZFbDQRs9156_cvdus",
        "lat": 23.5606694,
        "lng": 119.6460154,
        "address": "885澎湖縣湖西鄉",
        "city": "澎湖縣",
        "region": "湖西鄉",
        "time": "24小時營業"
    },
    {
        "id": 159,
        "name": "波浪海堤",
        "star": 4.3,
        "info": "在澎湖水族館對面的波浪海堤，彷彿能走到大海盡頭的蜿蜒小路",
        "place_id": "ChIJt7AY4M5dbDQRiQgT5XtD42g",
        "lat": 23.6489999,
        "lng": 119.6034319,
        "address": "884台灣澎湖縣白沙鄉港子村",
        "time": "星期一: 24 小時營業\n星期二: 24 小時營業\n星期三: 24 小時營業\n星期四: 24 小時營業\n星期五: 24 小時營業\n星期六: 24 小時營業\n星期日: 24 小時營業",
        "city": "澎湖縣",
        "region": "白沙鄉"
    },
    {
        "id": 160,
        "name": "奎壁山摩西分海",
        "star": 4.5,
        "info": "超Q澎湖打卡地標，退潮時會出現一條海中道路通往對岸的小島赤嶼正是奎壁山摩西分海",
        "place_id": "ChIJhWgytnJEbDQR420Ap52ceMw",
        "lat": 23.5978987,
        "lng": 119.672563,
        "address": "885台灣澎湖縣湖西鄉北寮村",
        "time": "08:00~17:30\n旺季4~9月公告特定日延長06:00~18:30",
        "city": "澎湖縣",
        "region": "湖西鄉"
    },
    {
        "id": 161,
        "name": "菓葉灰窯",
        "star": 4.1,
        "info": "一棟棟白色小古堡的菓葉灰窯，是曾經在澎湖寫下輝煌歷史的灰窯遺跡，一旁即是菓葉村海堤，各種角度取景都美翻",
        "place_id": "ChIJH9J1RjpEbDQRdW393Jccoaw",
        "lat": 23.5752796,
        "lng": 119.6806883,
        "address": "885台灣澎湖縣湖西鄉菓葉村",
        "time": "星期一: 24 小時營業\n星期二: 24 小時營業\n星期三: 24 小時營業\n星期四: 24 小時營業\n星期五: 24 小時營業\n星期六: 24 小時營業\n星期日: 24 小時營業",
        "city": "澎湖縣",
        "region": "湖西鄉"
    },
    {
        "id": 162,
        "name": "蒔裡沙灘寬版_SUP",
        "star": 4.4,
        "info": "有趣的 SUP 體驗，吹著海風邊欣賞世界最美麗海灣，在美麗的澎湖海域，協同三五好友共享愉快的水上活動時光",
        "place_id": "ChIJnZkDamZQbDQRiPG5OO_VxL8",
        "lat": 23.5256797,
        "lng": 119.5669337,
        "address": "880台灣澎湖縣馬公市嵵裡沙灘",
        "time": "24小時營業",
        "city": "澎湖縣",
        "region": "馬公市"
    },
    {
        "id": 163,
        "name": "澎湖澎澎灘",
        "star": 4.6,
        "info": "澎澎攤為澎湖最年輕新生島嶼，全島由白沙、珊瑚礁形成綿延數公里。",
        "place_id": "ChIJX-CeBf1CbDQR3gtVCvziRO8",
        "lat": 23.6590377,
        "lng": 119.6396995,
        "address": "884澎湖縣白沙鄉鳥嶼村",
        "time": "星期一: 24 小時營業\n星期二: 24 小時營業\n星期三: 24 小時營業\n星期四: 24 小時營業\n星期五: 24 小時營業\n星期六: 24 小時營業\n星期日: 24 小時營業",
        "city": "澎湖縣",
        "region": "白沙鄉"
    },
    {
        "id": 164,
        "name": "山水沙灘SUP",
        "star": 4.3,
        "info": "有衝浪客天堂之稱的山水沙灘，是水上活動愛好者的必訪之地。",
        "place_id": "ChIJQa4sO_NabDQRuJLYHSj9lvs",
        "lat": 23.5129795,
        "lng": 119.5911178,
        "address": "880台灣澎湖縣馬公市山水里山水沙灘",
        "time": "無",
        "city": "澎湖縣",
        "region": "馬公市"
    },
    {
        "id": 165,
        "name": "南寮古厝",
        "star": 4.3,
        "info": "除了保留咾咕石老厝、福記魚灶等傳統生活痕跡，將一個一個大小不一、五顏六色的彩色浮球懸掛起來。",
        "place_id": "ChIJzVG1REBEbDQR75wh7bRAego",
        "lat": 23.5841027,
        "lng": 119.6711953,
        "address": "885台灣澎湖縣湖西鄉南寮78號",
        "time": "星期一: 24 小時營業\n星期二: 24 小時營業\n星期三: 24 小時營業\n星期四: 24 小時營業\n星期五: 24 小時營業\n星期六: 24 小時營業\n星期日: 24 小時營業",
        "city": "澎湖縣",
        "region": "湖西鄉"
    },
    {
        "id": 166,
        "name": "篤行十村",
        "star": 4.3,
        "info": "篤行十村堪稱是全台最早的眷村，也是歌手張雨生、潘安邦的故居。",
        "place_id": "ChIJb5mgoItabDQRD_06Ch4YNZk",
        "lat": 23.5638542,
        "lng": 119.5609494,
        "address": "880台灣澎湖縣馬公市新復路二巷22號",
        "time": "星期一: 08:00 – 21:30\n星期二: 08:00 – 21:30\n星期三: 08:00 – 21:30\n星期四: 08:00 – 21:30\n星期五: 08:00 – 21:30\n星期六: 08:00 – 21:30\n星期日: 08:00 – 21:30",
        "city": "澎湖縣",
        "region": "馬公市"
    },
    {
        "id": 167,
        "name": "九孔瀑布",
        "star": 4.6,
        "info": "養殖九孔的廢棄魚塭，拍起來別有風情，宛若海底遺跡的「池西岩瀑」。",
        "place_id": "ChIJ____v4RZbDQRQe848YTFCLU",
        "lat": 23.6039079,
        "lng": 119.5024858,
        "address": "881台灣澎湖縣西嶼鄉",
        "time": "星期一: 24 小時營業\n星期二: 24 小時營業\n星期三: 24 小時營業\n星期四: 24 小時營業\n星期五: 24 小時營業\n星期六: 24 小時營業\n星期日: 24 小時營業",
        "city": "澎湖縣",
        "region": "西嶼鄉"
    },
    {
        "id": 168,
        "name": "大菓葉神秘三石壁",
        "star": 4.5,
        "info": "三石壁擁有4層樓高的玄武岩，重點是人煙稀少，適合想要拍好拍滿的網美網帥們！。",
        "place_id": "ChIJ1wybt9RbbDQRF2QDMGePpXQ",
        "lat": 23.5972843,
        "lng": 119.5148664,
        "address": "881台灣澎湖縣西嶼鄉",
        "time": "星期一: 24 小時營業\n星期二: 24 小時營業\n星期三: 24 小時營業\n星期四: 24 小時營業\n星期五: 24 小時營業\n星期六: 24 小時營業\n星期日: 24 小時營業",
        "city": "澎湖縣",
        "region": "西嶼鄉"
    },
    {
        "id": 169,
        "name": "天堂路",
        "star": 4.5,
        "info": "荒廢已久的東港舊碼頭，如今卻有著澎湖天堂路的美稱。",
        "place_id": "ChIJ2xO01xhdbDQRdduR3uHfk5Q",
        "lat": 23.6760643,
        "lng": 119.5783015,
        "address": "884台灣澎湖縣白沙鄉後寮村",
        "time": "星期一: 24 小時營業\n星期二: 24 小時營業\n星期三: 24 小時營業\n星期四: 24 小時營業\n星期五: 24 小時營業\n星期六: 24 小時營業\n星期日: 24 小時營業",
        "city": "澎湖縣",
        "region": "白沙鄉"
    },
    {
        "id": 170,
        "name": "西瀛虹橋",
        "star": 4.6,
        "info": "夜幕降臨總會點上紅、橙、黃、​綠、藍、靛、紫七彩霓虹光，因此命名為「西瀛虹橋」",
        "place_id": "ChIJQbU0lPRabDQRownCt9m6zD4",
        "lat": 23.56924829999999,
        "lng": 119.5599959,
        "address": "880台灣澎湖縣馬公市觀音亭海水浴場",
        "time": "星期一: 24 小時營業\n星期二: 24 小時營業\n星期三: 24 小時營業\n星期四: 24 小時營業\n星期五: 24 小時營業\n星期六: 24 小時營業\n星期日: 24 小時營業",
        "city": "澎湖縣",
        "region": "馬公市"
    },
    {
        "id": 171,
        "name": "金門陳清吉洋樓",
        "star": 4.2,
        "info": "建築中蘊含中西合璧的歷史印記，因電影《軍中樂園》在此取景而爆紅。",
        "place_id": "ChIJLWUO_N66FDQRIn1WKtvNEK0",
        "lat": 24.4858313,
        "lng": 118.4430834,
        "address": "890金門縣金沙鎮",
        "time": "暫時關閉",
        "city": "金門縣",
        "region": "金沙鎮"
    },
    {
        "id": 172,
        "name": "金門珠山聚落",
        "star": 4.5,
        "info": "珠山聚落位於金門西南邊，走訪閩南古厝及洋樓建築，感受珠山聚落風情。",
        "place_id": "ChIJQQvP6_ShFDQRilxX835X7JQ",
        "lat": 24.4014828,
        "lng": 118.3205759,
        "address": "893金門縣金城鎮",
        "time": "星期一: 24 小時營業\n星期二: 24 小時營業\n星期三: 24 小時營業\n星期四: 24 小時營業\n星期五: 24 小時營業\n星期六: 24 小時營業\n星期日: 24 小時營業",
        "city": "金門縣",
        "region": "金城鎮"
    },
    {
        "id": 173,
        "name": "金門新湖漁港",
        "star": 4.6,
        "info": "金門三大漁港之一，IG熱門的打卡景為消波塊景觀，怎麼拍都好看！",
        "place_id": "ChIJ-6JrAGKkFDQRd7dJkucT4i4",
        "lat": 24.4303837,
        "lng": 118.4103241,
        "address": "891金門縣金湖鎮新湖漁港",
        "time": "星期一: 24 小時營業\n星期二: 24 小時營業\n星期三: 24 小時營業\n星期四: 24 小時營業\n星期五: 24 小時營業\n星期六: 24 小時營業\n星期日: 24 小時營業",
        "city": "金門縣",
        "region": "金湖鎮"
    },
    {
        "id": 174,
        "name": "金門民俗文化村",
        "star": 4.3,
        "info": "全村房舍採用閩南傳統建築，受到南洋文化的影響，又同時具有南洋風格的建築",
        "place_id": "ChIJAQAAADC7FDQRSsMDz6QkKfE",
        "lat": 24.5038116,
        "lng": 118.4404129,
        "address": "890金門縣金沙鎮",
        "time": "星期一: 08:00 – 17:00\n星期二: 08:00 – 17:00\n星期三: 08:00 – 17:00\n星期四: 08:00 – 17:00\n星期五: 08:00 – 17:00\n星期六: 08:00 – 17:00\n星期日: 08:00 – 17:00",
        "city": "金門縣",
        "region": "金沙鎮"
    },
    {
        "id": 175,
        "name": "金門沙美老街",
        "star": 4.2,
        "info": "舊稱八卦街，這裡曾是金門最熱鬧的地方，品嚐在地傳統小吃、感受傳統的樣貌。",
        "place_id": "ChIJi-QwLkG7FDQRYJKkRA_ST1Y",
        "lat": 24.4906075,
        "lng": 118.4122725,
        "address": "890金門縣金沙鎮",
        "time": "星期一: 24 小時營業\n星期二: 24 小時營業\n星期三: 24 小時營業\n星期四: 24 小時營業\n星期五: 24 小時營業\n星期六: 24 小時營業\n星期日: 24 小時營業",
        "city": "金門縣",
        "region": "金沙鎮"
    },
    {
        "id": 176,
        "name": "金門峰上巡檢司城",
        "star": 4.4,
        "info": "因為綿延的磚石又有「小長城」之稱。在小長城上向外看也是清爽的海藍喔！",
        "place_id": "ChIJJw4hnMylFDQR_Ds3-8t3YRU",
        "lat": 24.42747779999999,
        "lng": 118.4600984,
        "address": "891金門縣金湖鎮峰上",
        "time": "全天",
        "city": "金門縣",
        "region": "金湖鎮"
    },
    {
        "id": 177,
        "name": "馬祖芹壁村",
        "star": 4.7,
        "info": "古宅群順著山勢成梯形羅列，櫛比鱗次。於此觀海欣賞一幢幢的石屋，非常浪漫。",
        "place_id": "ChIJEx76E15lQTQRDDNjnKZ9oKA",
        "lat": 26.2234479,
        "lng": 119.9812799,
        "address": "210連江縣北竿鄉芹壁村",
        "time": "無",
        "city": "連江縣",
        "region": "北竿鄉"
    },
    {
        "id": 178,
        "name": "馬祖藍眼淚",
        "star": 4.6,
        "info": "每年4-6月時，馬祖海面上產生的藍光即為「藍眼淚」，不用跑國外，出發馬祖去！",
        "place_id": "ChIJWU2mQeZwQTQRpB9qXiwyOoM",
        "lat": 26.1530621,
        "lng": 119.9377867,
        "address": "209連江縣南竿鄉清水路117號",
        "time": "星期一: 08:00 – 23:00\n星期二: 08:00 – 23:00\n星期三: 08:00 – 23:00\n星期四: 08:00 – 23:00\n星期五: 08:00 – 23:00\n星期六: 08:00 – 23:00\n星期日: 08:00 – 23:00",
        "city": "連江縣",
        "region": "南竿鄉"
    },
    {
        "id": 179,
        "name": "馬祖大坵島",
        "star": 4.5,
        "info": "擁有超過250隻的梅花鹿，想看看萌萌的梅花鹿家族，來大坵島與鹿同遊吧！",
        "place_id": "ChIJweJicaFlQTQRMGjgyCWIqcM",
        "lat": 26.2471252,
        "lng": 120.0011488,
        "address": "連江縣北竿鄉大坵島",
        "time": "無",
        "city": "連江縣",
        "region": "北竿鄉"
    },
    {
        "id": 180,
        "name": "蘭嶼東清秘境",
        "star": 4.7,
        "info": "佇立著許多奇形怪狀的珊瑚礁石，使得港灣別具風情，是捕捉日出畫面的最佳地點。",
        "place_id": "ChIJMfU5iO8IcDQROHdCs6LIP38",
        "lat": 22.0602993,
        "lng": 121.5693228,
        "address": "952台灣台東縣蘭嶼鄉東清村",
        "time": "星期一: 24 小時營業\n星期二: 24 小時營業\n星期三: 24 小時營業\n星期四: 24 小時營業\n星期五: 24 小時營業\n星期六: 24 小時營業\n星期日: 24 小時營業",
        "city": "台東縣",
        "region": "蘭嶼鄉"
    },
    {
        "id": 181,
        "name": "綠島牛頭山",
        "star": 4.7,
        "info": "綠島有兩個大草原之一，牛頭山因為長得像牛頭而得名，山上將綠島東海岸風光一覽無遺。",
        "place_id": "ChIJS7bv3EaMbzQRWr5LtUKEGa0",
        "lat": 22.676996,
        "lng": 121.5067899,
        "address": "951台灣台東縣綠島鄉",
        "time": "星期一: 24 小時營業\n星期二: 24 小時營業\n星期三: 24 小時營業\n星期四: 24 小時營業\n星期五: 24 小時營業\n星期六: 24 小時營業\n星期日: 24 小時營業",
        "city": "台東縣",
        "region": "綠島鄉"
    },
    {
        "id": 182,
        "name": "小琉球",
        "star": 4.5,
        "info": "望海亭位於美人洞景點的靠海側，欣賞琉球嶼的海崖、珊瑚裙礁海岸美景，一覽海天一色的湛藍海景。",
        "place_id": "ChIJVakFmYvvcTQRW2lecOLzlcY",
        "lat": 22.3404158,
        "lng": 120.3715149,
        "address": "929台灣屏東縣琉球鄉琉球嶼",
        "time": "無",
        "city": "屏東縣",
        "region": "琉球鄉"
    }
]