[
    {
        "id": 0,
        "name": "太平山國家森林遊樂區",
        "address": "267臺灣宜蘭縣大同鄉太平巷58之1號",
        "city": "宜蘭縣",
        "region": "大同鄉",
        "star": 4.5,
        "info": "蹦蹦車、溫泉、高山湖泊、巨木森林與國寶山毛櫸，鋪成了太平山國家森林遊樂區超過百年歷史的綿長軌跡。\n\n海拔1950公尺的太平山，是僅次於阿里山的林業傳奇，1915年日本人開始這裡的伐木事業，後來由國民政府接手，成為台灣最大的林場，最後在1983年轉型為遊樂區，留下見晴鐵道、蹦蹦車等珍貴的遺跡。\n\n太平山舊稱「眠腦」，是泰雅族語「鬱鬱蒼蒼」之意，人們可以漫步在鎮安宮後的原始林間，讓思緒翱翔在過往巨木滿山的年代。沿著時常遇見台灣獼猴、帝雉等動物的翠峰林道行駛，終點是台灣最大高山湖泊：海拔1840公尺的翠峰湖，對岸是國寶台灣山毛櫸的家，秋天可以沿著4公里的步道欣賞滿山金黃。\n\n收費站不遠處的鳩之澤溫泉，是聞名遐邇的碳酸泉，也是這裏的一大特色。太平山國家森林遊樂區，絕對是喜歡大自然的你，拜訪宜蘭的第一選擇。",
        "time": "因應新冠肺炎防疫措施，調整開園時間\n平日為6:00-18:00\n假日為04:00-18:00(建議16:00前購票入園)",
        "place_id": "ChIJ_TaOy7JwaDQRFf4T-zm2dqo",
        "lat": 24.49772399999999,
        "lng": 121.5350318,
        "type": "nature"
    },
    {
        "id": 1,
        "name": "滿月圓國家森林遊樂區",
        "address": "237新北市三峽區有木里174-1號",
        "city": "新北市",
        "region": "三峽區",
        "star": 4.4,
        "info": "在三峽大豹溪的上游，一條叫做蚋子溪的支流上，座落著一個擁有瀑布、生態與楓紅的美麗小天地：滿月圓國家森林遊樂區。\n\n距離三峽市區約40分鐘的滿月圓國家森林遊樂區，海拔在300至1700公尺之間，終年潮濕涼爽，孕育了豐富的蕨類生態，連對環境要求高的「團扇蕨」都可以找到。過去這裡曾有小規模的伐木，今日整齊的人造林見證了那段歲月。\n\n這裡有豐富的鳥類與兩棲、蝴蝶生態，像是少見的白喉笑鶇、赤腹山雀等，都是滿月圓重要的鳥明星喔！而每年12月左右，這裏的楓紅也美的動人，有「台灣最美低海拔楓紅」的美譽。\n\n位於健行步道盡頭的滿月圓瀑布與處女瀑布，也是遊樂區的兩大美景，從滿月小橋上望去，只見一垂高十餘公尺之大石壁遮掩滿月圓瀑布上端，瀑布直沖而下，聲勢極為壯麗，處女瀑布則較為溫柔婉約，在陽光普照之日，光影在水瀑間折射變化，時常可見瀑布有著虹彩般的絢麗。",
        "time": "非假日：08:00-17:00\n假日：07:00-17:00 （園區僅除夕休園一日）",
        "place_id": "ChIJ6Qt4s7kaaDQRIn1JLUkhyXo",
        "lat": 24.83039119999999,
        "lng": 121.444704,
        "type": "nature"
    },
    {
        "id": 2,
        "name": "內洞國家森林遊樂區",
        "address": "新北市烏來區信賢里娃娃谷46號",
        "city": "新北市",
        "region": "烏來區",
        "star": 4.5,
        "info": "瀑聲隆隆，依山傍水的蕨類樂園，小巧精緻的內洞國家森林遊樂區，是南勢溪上游一個享受寧靜與綠意的好所在。\n\n距新店約50分鐘，內洞可說是大台北地區交通最方便的國家森林遊樂區，海拔在230~800公尺之間，被內洞溪流貫，潮濕而溫暖，是名副其實的蕨類樂園：光觀瀑步道的短短數百公尺，就能發現將近65種蕨類，包括稀有的垂枝馬尾杉與藤蕨等，都是大樹身上附生的嬌客。而這裡舊稱「娃娃谷」，相傳是因為蛙類眾多，在夜裡暢鳴的聲響迴盪山谷而得，步道旁的水溝就有機會見到青蛙的身影喔！\n\n內洞瀑布是遊樂區的主角，在觀瀑步道終點，有著二層不同的風貌帶給遊人們多元享受，與暢快的負離子芬芳。炎炎夏日，不妨從悶熱的都市出走，到內洞國家森林遊樂區享受一個清涼的午後森林浴吧！",
        "time": "非假日08:00-17:00\n例假日07:00-17:00",
        "place_id": "ChIJR4ii8PkFaDQRIan3ODvud_U",
        "lat": 24.8273179,
        "lng": 121.5262296,
        "type": "nature"
    },
    {
        "id": 3,
        "name": "東眼山國家森林遊樂區",
        "address": "桃園市復興區霞雲里佳志35號",
        "city": "桃園市",
        "region": "復興區",
        "star": 4.4,
        "info": "距離大溪約1小時車程的東眼山國家森林遊樂區，過去曾是林務局的伐木林班，留下了許多林業遺跡，如集材機、索道、台車等，隱身在知性步道旁。現今漫步在雲霧繚繞、整齊美麗的柳杉林間，拾級而上登頂海拔1,212公尺的東眼山一覽桃園到大台北的景緻。\r\n東眼山林道旁座落著一塊造林紀念石，見證著台灣林業的過去。\r\n\r\n東眼山豐富的生態，擁有約43種山鳥，以及為數眾多的哺乳動物，連中高海拔才有的白面鼯鼠都可以在這裡看見。春季賞櫻、夏季白天蟬和夜間各種青蛙比大聲，秋季東眼山林道染上濃濃的秋愁，最特別的是，有不少台灣野兔住在這裡，漫步林間時，別忘了注意您的腳邊唷！\r\n\r\n而位於東眼山林道旁的化石區，擁有千萬年歷史的化石與地景，伴隨生痕化石、沉積地質等沿途漫步至東滿步道入口，十分愜意。有機會到大溪一遊，不妨也安排到東眼山國家森林遊樂區，來趟洗滌心神的森林之旅吧！",
        "time": "非假日：08:00-17:00\n例假日：07:00-17:00",
        "place_id": "ChIJQXkJkKg9aDQRroQxl2JMErY",
        "lat": 24.831161,
        "lng": 121.408162,
        "type": "nature"
    },
    {
        "id": 4,
        "name": "阿里山國家森林遊樂區",
        "address": "605嘉義縣阿里山鄉中正村59號",
        "city": "嘉義縣",
        "region": "阿里山鄉",
        "star": 4.6,
        "info": "阿里山國家森林遊樂區擁有森林小火車、神木、雲海、日出與櫻花「五奇」景致，是台灣最具知名、也最受歡迎的森林遊樂區，是阿里山山脈上的一枚翡翠，閃著耀眼的光芒。\r\n\r\n阿里山林業鐵路為著名的高山觀光森林鐵道，您可以至嘉義火車站搭乘森林小火車，一路輕晃享盡森林風情前往終點站阿里山(目前林業鐵路本線營運嘉義-十字路站，預估112年7月後全線通車)。又或者駕車沿台18線蜿蜒而上，不到兩個小時就能抵達88.2k處，海拔2,216公尺的阿里山國家森林遊樂區。\r\n\r\n阿里山山脈為台灣五大山脈之一，惟阿里山並不是一座山，而是泛指這個山區；自古擁有豐沛的檜木資源，1912-1960年間為台灣最具規模的林場。歷經長期的採伐後，原始檜木林幾乎伐盡，現今存有第一期與第二期巨木群棧道近四十株的紅檜巨木，讓人緬懷過去神木林的壯闊神聖。著名的阿里山神木於1956年遭受雷擊後1997年又有半邊因雨倒伏，林務局為了順應自然生態、尊重生命及維護遊客安全，於1998年6月將阿里山神木原地放倒供遊客欣賞。於2006年經票選由「阿里山香林神木」當選第二代神木，高45公尺，樹圍12.3公尺，是到訪阿里山的必遊之處。\r\n\r\n在阿里山國家森林遊樂區內有豐富的生態，其中最特殊的植物，莫過於稀有的蓧蕨、相馬氏石杉、阿里山十大功勞與臺灣一葉蘭了；動物則有台灣獼猴、帝雉、藪鳥、阿里山鴝、阿里山山椒魚等小明星助陣，熱鬧非凡。\r\n\r\n除了神木，阿里山還有非常多具可看性的景點：森林小火車、空靈飄渺的姊妹潭、壯闊動人的雲海、美麗的祝山日出、受鎮宮、百年慈雲寺、林業史蹟、春天盛開的各類櫻花與杜鵑…阿里山森林遊樂區是一個足以代表臺灣霧林帶的國際級觀光景點，歡迎著來自全世界的旅人們，前來認識台灣山林豐富而美麗的面貌。",
        "time": "全年24小時開放",
        "place_id": "ChIJOxUmrCDcbjQR1L87oFz49_8",
        "lat": 23.5112942,
        "lng": 120.8036725,
        "type": "nature"
    },
    {
        "id": 5,
        "name": "武陵國家森林遊樂區",
        "address": "台中市和平區武陵路3號",
        "city": "台中市",
        "region": "和平區",
        "star": 4.6,
        "info": "深藏在武陵農場深處，楓紅、松林、瀑布與櫻花鉤吻鮭譜出的森林之歌，是武陵國家森林遊樂區最令人印象深刻的意象。\r\n\r\n這是台灣第三座國家森林遊樂區，距離台北約4個小時車程，海拔約1800公尺，但因高山寒氣沈降，十分寒冷。\r\n\r\n園區內最具代表性的景點，莫過於桃山瀑布步道，沿途的二葉松林相十分幽靜，豐富的森林生態也是這裡的一大特色，台灣獼猴、帝雉、藍腹鷴、酒紅朱雀都是這裡的常客，步道盡頭水與霧雄壯澎湃的「桃山瀑布」令人歎為觀止，釋放滿滿的負離子療癒旅人的心靈。\r\n\r\n在武陵吊橋上，還可以觀賞七家灣溪裡的國寶魚——櫻花鉤吻鮭呢！秋天的台灣紅榨槭、青楓紅葉，與春天的櫻花更是武陵國家森林遊樂區美麗的季節特色，是來到武陵一帶不可錯過的行程喔！",
        "time": "24小時開放(配合武陵農場)",
        "place_id": "ChIJ73KaN1RgaDQRUW2buK9_mgw",
        "lat": 24.403596,
        "lng": 121.303982,
        "type": "nature"
    },
    {
        "id": 6,
        "name": "八仙山國家森林遊樂區",
        "address": "424台中市和平區東關路一段200之8號",
        "city": "台中市",
        "region": "和平區",
        "star": 4.2,
        "info": "走過繁華喧囂的林業時光，如今的八仙山國家森林遊樂區是山鳥樂園，還有景色多樣化的輕裝短途步道，能尋訪美麗的十文溪、櫻花林、油桐林與竹林，更能循階登頂谷關七雄之首：海拔2366公尺的八仙山。\n\n\t「八仙山」是日本名字，因為八仙山有「八千」日尺高，取其諧音「八仙」命名。1915年起，直到1963年，八仙山長達48年輝煌的林業時光，留下了滿山整齊的人造林與索道頭、神社和國小遺址，訴說著林業的故事。至於曾有過的森林鐵道，也在結束伐木後全數拆除，僅剩園區內的老照片供人憑弔了。\n\n除了史蹟尋訪外，這裡也是山鳥樂園，有非常豐富的鳥類生態，青背山雀、赤腹山雀等都是常見的小明星。距離台中市不遠的八仙山國家森林遊樂區，是個適合一家老小單日踏青，或留宿一宿享受山林之夜的好選擇唷！",
        "time": "07:00-17:00",
        "place_id": "ChIJ79f6-D7kaDQRHaQqCw9elXA",
        "lat": 24.1805572,
        "lng": 121.0024962,
        "type": "nature"
    },
    {
        "id": 7,
        "name": "大雪山國家森林遊樂區",
        "img": "大雪山國家森林遊樂區.jpg",
        "address": "台中市和平區雪山路18號",
        "city": "台中市",
        "region": "和平區",
        "star": 4.5,
        "info": "秋天的紅榨槭楓紅、夏夜的星空、向晚的雲海、穿梭林道間的山羌、帝雉與大台中唯一親民的紅檜巨木-雪山神木，是大雪山國家森林遊樂區最迷人的印象。\n\n這裡曾是民國47年開採的大雪山林場，繁榮了東勢與豐原，如今這個距離東勢只消1小時的山城成為了森林遊樂區，繼續為中部的人們帶來屬於自然的恩惠。此地海拔超過2000公尺，氣候涼爽，目前僅存小神木步道與木馬道一帶保有原始的扁柏巨木林，是遊樂區最美的景色之一；而位於遊樂區最深處，高50公尺的雪山神木則曾是台灣第11大巨木呢！\n\n野生動物更是大雪山最大的寶藏：山羌、長鬃山羊與白面鼯鼠熱鬧了黑夜，而白天則有帝雉、藍腹鷴與冠羽畫眉等一干山鳥雀越跳耀；漫步林間享受森林浴的舒心之餘，也很容易跟這些小明星們不期而遇喔！",
        "time": "06:30-17:00。",
        "place_id": "ChIJo_KBYGjjaDQRAeXct0zwb5Y",
        "lat": 24.244563,
        "lng": 120.9751163,
        "type": "nature"
    },
    {
        "id": 8,
        "name": "合歡山國家森林遊樂區",
        "address": "花蓮縣秀林鄉關原65號",
        "city": "花蓮縣",
        "region": "秀林鄉",
        "star": 4.5,
        "info": "說到雪與高山，「合歡山」肯定是台灣人的首選了，這也正是合歡山國家森林遊樂區最獨一無二的景緻。\r\n\r\n合歡山國家森林遊樂區是台灣第一座國家森林遊樂區——早在1963年，因為特殊的景色與高山生態系而得此殊榮，在這裡你可以看見廣大的玉山箭竹草原、體驗整整低平地18度C的凜冽氣溫、輕鬆登臨園區內三座百岳名山：合歡主峰、合歡東峰與石門山，並住宿松雪樓享受夜裡華麗的壯闊星海。這裡也有許多高海拔限定的鳥兒：岩鷚、酒紅朱雀、火冠戴菊…等著你來拜訪喔！\r\n\r\n雪景是合歡山的一大特色，冬季皚皚白雪是亞熱帶台灣最讓人心醉的夢幻景象，而每年五月，清麗動人的森氏杜鵑花海，將翠綠的山頭綴的紅白交錯，好像又降下瑞雪一般，令人驚艷，演繹著四季都精彩的合歡山國家森林遊樂區。",
        "time": "松雪樓：07:00-20:00\n合歡山莊(遊客中心目前休館中，僅開放販賣部)：08:00-17:00",
        "place_id": "ChIJo_KBYGjjaDQRAeXct0zwb5Y",
        "lat": 24.244563,
        "lng": 120.9751163,
        "type": "nature"
    },
    {
        "id": 9,
        "name": "奧萬大國家森林遊樂區",
        "address": "546台灣南投縣仁愛鄉大安路153號",
        "city": "南投縣",
        "region": "仁愛鄉",
        "star": 4.3,
        "info": "滿山金黃的楓紅、壯觀的吊橋與野生動物環繞，奧萬大國家森林遊樂區是一座充滿魅力的森林。\r\n\r\n距離埔里1個多小時，位於萬大水庫後方，這裡原為泰雅族及賽德克族部落，日本時代開始進行水力發電建設，在1994年才成為國家森林遊樂區。\r\n\r\n奧萬大海拔在1100~2600公尺之間，生態豐富，原生櫸木、青剛櫟、霧社櫻、松林景觀等，有橿鳥、台灣藍鵲等120種鳥類棲息其中；5月起黑翅螢悄悄登場，台灣長臂金龜與為數不少的蝴蝶也很有看頭。\r\n\r\n賞楓步道上大片的原生楓香林，與遊客中心週遭的落羽松、青楓等，每逢秋季必將園區點綴得萬紫千紅，是奧萬大最熱鬧的季節，但春天櫻花的美其實也不遑多讓。而壯觀的「奧萬大吊橋」連接著美麗的松林區，長180公尺，高90公尺，可以眺望萬大南北溪交匯，也是拜訪奧萬大必遊的景點喔！",
        "time": "08:00-17:00",
        "place_id": "ChIJXx8RkabGaDQR--M93L8duRo",
        "lat": 23.9643714,
        "lng": 121.1801555,
        "type": "nature"
    },
    {
        "id": 10,
        "name": "觀霧國家森林遊樂區",
        "address": "苗栗縣泰安鄉梅園村8鄰觀霧1-3號",
        "city": "苗栗縣",
        "region": "泰安鄉",
        "star": 4.6,
        "info": "在滿山的迷霧之中擁抱神木、春天欣賞全台最大霧社山櫻花的一樹雪白、登高一覽雪山山脈「聖稜線」的英姿、還可能巧遇國寶，這裡是觀霧國家森林遊樂區，在竹苗交界帶給人們最豐盛的霧林帶饗宴。\n\n距離竹東2小時的觀霧，泰雅族語是「茂義利」，意思是「更高的山嶺」。這裡在1940年成為伐木林場，1980年才結束營業，留下了滿山整齊的人造林；而神木步道上五株壯碩的紅檜巨木，則對著遊人們訴說昔日台灣森林的壯美。\n\n觀霧的野生動物很有看頭，除了漫步林道的帝雉與山羌外，最特別的是全世界獨一無二的棣慕華鳳仙花，以及兩種台灣特有種國寶：寬尾鳳蝶與以「觀霧」為名的觀霧山椒魚。\n\n園區聯外道路大鹿林道在此分叉，東線是往大霸尖山的路，而西線則可通往園區最高的榛山，帶領人們享受雪山山脈聖稜線所勾勒出的動人景緻。",
        "time": "08:00-17:00 ",
        "place_id": "ChIJq6qafjBaaDQR1Rv5IzOB178",
        "lat": 24.505912,
        "lng": 121.1140678,
        "type": "nature"
    },
    {
        "id": 11,
        "name": "藤枝國家森林遊樂區",
        "address": "高雄市桃源區寶山里寶山巷150號",
        "city": "高雄市",
        "region": "桃源區",
        "star": 4.3,
        "info": "進入藤枝須預約入園，預約網址：https://tj.forest.gov.tw/\r\n\r\n目前藤枝因考量用水量，且為顧及遊憩品質、環境永續使用的條件，每天仍維持開放500人，其中300人以官網預約購票入園。（其餘200名分配給策略聯盟及在地部落，不提供未預約入園者現場購票）\r\n\r\n有「森濤」美名的藤枝國家森林遊樂區，是南部地區享受森林浴、夏日避暑、玩賞生態最好的去處。\r\n距離高雄市、屏東市、臺南市約莫2小時車程的藤枝，過去是布農族人的生活區域，日治時期在此設立京都大學演習林，因此有台灣少見的日本扁柏造林地。而著名的六龜警備道通過此地，留有不少遺跡。\r\n\r\n園區海拔在1500~1804公尺間，涼爽宜人。此地的「熱帶高山闊葉霧林」中，生長著牛樟、木荷等大樹，更有以此為名的「藤枝秋海棠」與眾多稀有蕨類，十分珍貴；並且孕育了豐富的生態，能找到許多難得一見的昆蟲，如路易士角葫蘆鍬形蟲、大綠目天蠶蛾、台灣爺蟬等。這裡也是全台灣最容易看見黃山雀的地點之一，十分特別，是個十分適合健行賞鳥的好地方呢！ ",
        "time": "110年5月7日開園，服務時間每日8:00-17:00，除夕休園。",
        "place_id": "ChIJBbU9UZFMLzcR_lcJSGlmCh8",
        "lat": 23.0677024,
        "lng": 120.754703,
        "type": "nature"
    },
    {
        "id": 12,
        "name": "墾丁國家森林遊樂區",
        "address": "屏東縣恆春鎮墾丁里公園路201號",
        "city": "屏東縣",
        "region": "恆春鎮",
        "star": 4.6,
        "info": "墾丁國家森林遊樂區原本是許多石珊瑚蟲、石灰藻類、有孔蟲及貝殼聚生的海洋花園，因為50萬年前地球的板塊運動，成為了一種特殊的森林生態系─高位珊瑚礁林，兼具豐富生態、季風雨林、石灰岩地形，為遊客提供了不一樣的墾丁遊憩選擇。\n\n這裡距離墾丁大街只有10分鐘，是台灣第二座國家森林遊樂區，擁有發達的高位珊瑚礁森林與季風雨林：緊嵌礁岩上的大茄苳、板根發達的銀葉樹與氣根無數的白榕等。1906年日本人在此成立「恆春熱帶植物園」，至今已有百年歷史。\n\n園區常見成群台灣獼猴與赤腹松鼠，但最有看頭的莫過於秋冬來訪的候鳥了，如10月的灰面鵟鷹，甚至稀有的黃鸝，都能一見芳蹤，而森林底層則住著台灣特有的黃灰澤蟹與班卡拉蝸牛等小嬌客。\n\n墾丁國家森林遊樂區另一大特色就是石灰岩地形，在銀龍洞、石筍寶穴等溶洞裡，可以看見鐘乳石、石筍等地質寶藏。這個奇幻森林，絕對能讓喜愛探險的你大飽眼福！",
        "time": "08:00-17:00",
        "place_id": "ChIJ-zAOmNCzcTQRhEu_pVhjoV8",
        "lat": 21.9589636,
        "lng": 120.8118718,
        "type": "nature"
    },
    {
        "id": 13,
        "name": "雙流國家森林遊樂區",
        "address": "屏東縣獅子鄉丹路村丹路二巷23號",
        "city": "屏東縣",
        "region": "獅子鄉",
        "star": 4.5,
        "info": "來到雙流國家森林遊樂區，您可以欣賞一樹成林的白榕、徜徉在美麗的人造林內、登上帽子山遠眺，又或者沿著楓港溪上溯，抵達曾被票選為台灣第二美瀑的雙流瀑布，並擁有豐富的負離子及清新的空氣，讓遊客感受不一樣的恆春半島風情。\r\n\r\n這裡是屏東縣獅子鄉，距離楓港只有不到半小時車程。「雙流」之名源於此地為楓港溪上游支流達仁溪與內文溪所匯流之處，過去是排灣族的生活區域，在白榕步道上留有其特色建築「龜甲屋」之遺址。而由於1965年林務局在此種下了大片光蠟樹、相思樹等熱帶造林樹種，是欣賞闊葉人造林之美的好所在。\r\n\r\n其間特別的生態，是在帽子山步道沿線可見的恆春半島代表植物：恆春山枇杷與港口木荷、小笠原卷柏等。林間還有台灣藍鵲、台灣畫眉等鳥兒與超過196種蝴蝶等著你來探訪，說不定還可以遇見保育類的黃裳鳳蝶喔！",
        "time": "08:00-17:00",
        "place_id": "ChIJRxD2nPbOcTQRp5yP9r8ZTWw",
        "lat": 22.2161497,
        "lng": 120.7995687,
        "type": "nature"
    },
    {
        "id": 14,
        "name": "知本國家森林遊樂區",
        "address": "臺東縣卑南鄉溫泉村龍泉路290號",
        "city": "臺東縣",
        "region": "卑南鄉溫泉村",
        "star": 4.3,
        "info": "有一片彷彿熱帶雨林般的魔幻森林、巨大鳳蝶飛舞白榕之間，深藏台東「知本溫泉」的盡頭，它就是「知本國家森林遊樂區」。\r\n\r\n這裡是一片海拔100-650公尺間的亞熱帶季風林，過去曾進行過小規模林業，因此可以看見台灣少有的桃花心木、柚木等熱帶樹種的人工林。\r\n\r\n亞熱帶氣候造就了園區獨特的植物相，在森林浴步道上可以看見各式各樣以榕屬家族為基礎，熱帶雨林樣貌的大樹，包括園區招牌：氣根滿佈一樹成林的百年大白榕─千根榕、與附生其上的稀有藤蕨、酸藤，還有「板根」發達的九丁榕等，頗有南國雨林之感，園區內有一座面積三百多坪，種植有50多種芳香藥草的花見知本百草園花園，金色鈕扣的六神花、金黃色的芳香萬壽菊等50多種芳香藥草，景觀平台還可以進行瑜珈伸展，讓遊客身心靈都能獲得舒展。\r\n\r\n而動物也不遑多讓，像是稀有的朱鸝、東部特有的烏頭翁等等，都是這裡的常客，甚至有可能遇見臺灣最大的黃裳鳳蝶也不一定喔！到知本泡湯之餘，也別忘了來這裡享受熱帶森林浴生態之旅吧！",
        "time": "07:30-17:00",
        "place_id": "ChIJz3XTnoHJbzQRPeHfWKc1twg",
        "lat": 22.6874498,
        "lng": 120.9912777,
        "type": "nature"
    },
    {
        "id": 15,
        "name": "向陽國家森林遊樂區",
        "address": "957台灣台東縣海端鄉嘉明湖登山步道",
        "city": "台東縣",
        "region": "海端鄉",
        "star": 4.4,
        "info": "\t漫步在整齊的二葉松與紅檜造林地間蜿蜒的林道上，不時與背著巨大背包的山友相遇，互相招呼之際，帝雉悄悄穿越身後的林道沒入草叢，樹梢的火冠戴菊等也未曾停止啁啾；這是人們來訪向陽國家森林遊樂區時，非常容易遇見的場景。\r\n\r\n相較於「嘉明湖」的名聞遐邇，位於南橫公路154k，海拔2320公尺面積不大的向陽國家森林遊樂區，就顯得低調多了。這裡有著優美的人造林與平緩的步道群，園區內步道可以輕易聽見十來種山鳥鳴唱、見到漫步的國寶帝雉與鬼靈精怪的山羌與山羊，是個十分適合享受高海拔涼爽、人造林的整齊優美與豐富的生態，來個輕鬆半日遊的小天地呢！\r\n\r\n註：向陽國家森林遊樂區休園中，開園時間將另公告",
        "time": "休園中",
        "place_id": "ChIJZ8DkL68cbzQRNLujXIJfjvg",
        "lat": 23.2509498,
        "lng": 120.981229,
        "type": "nature"
    },
    {
        "id": 16,
        "name": "富源國家森林遊樂區",
        "address": "978003台灣花蓮縣瑞穗鄉廣東路161號",
        "city": "花蓮縣",
        "region": "瑞穗鄉",
        "star": 4.2,
        "info": "富源國家森林遊樂區被富源溪所貫穿，有四通八達的環山步道，最深處為龍吟吊橋、富源吊橋、龍吟瀑布，十分清幽，集賞鳥、賞蝶、森林浴與泡湯為一體，提供遊客多樣化的遊憩體驗。\r\n\r\n從花蓮市出發約一個多小時，就能抵達有「蝴蝶谷」之稱的富源國家森林遊樂區。這裡附近曾為清代「關門古道」東端終點，目前擁有大片40年生的樟樹造林地，優美宜人。原始林則有九芎、猴歡喜等低海拔森林的代表樹種，滿滿的附生植物更有阿凡達森林的美感。\r\n\r\n因位處中央山派淺山地區，園區鳥類資源豐富，為花蓮著名的賞鳥之地，包括花蓮縣鳥朱鸝、五色鳥、黃腹琉璃、台灣藍鵲、灰喉山椒及不時盤旋天際的大冠鷲。另外，每年春夏之際(3月-8月)是最佳的賞蝶時段，多樣的蝶類資源更獲得「蝴蝶谷」之美名。園區潮濕無汙染的環境，使得富源的螢類多樣，3-6月的黑翅晦螢及10-12月的台灣山窗螢輪番登場，近年已成為國人賞螢的熱門景點。",
        "time": "08:00-17:00",
        "place_id": "ChIJ721oHQBMbzQROsJyI8l0yAk",
        "lat": 23.5886601,
        "lng": 121.3539837,
        "type": "nature"
    },
    {
        "id": 17,
        "name": "池南國家森林遊樂區",
        "address": "花蓮縣壽豐鄉池南村林園路65號",
        "city": "花蓮縣",
        "region": "壽豐鄉",
        "star": 4.2,
        "info": "如果你喜歡探究歷史，那麼你絕對不能錯過池南國家森林遊樂區：老火車頭、集材機、林業陳列館中的老照片與無數文物，就這樣保存在花蓮鯉魚潭畔的小小園區中，彷彿1960年代的縮影。\r\n\r\n池南是花蓮林業史上三大傳奇之一：哈崙山地鐵道的起點。從1930年開始，日本人規劃、國民政府擴建，打造了全長將近50公里，花蓮最輝煌的林業鐵道帝國。\r\n\r\n直到1989年全面禁伐，地處深山的哈崙工作站裁撤，從此與世隔絕，僅留下池南轉運站轉型為森林遊樂區，讓人們緬懷這段林業時光。除了歷史，池南的森林以桑科、樟科為主，交雜著光蠟樹等造林樹種，東部特有的烏頭翁時常出沒其中，也是人們親近大自然的好選擇。\r\n\r\n來到池南國家森林遊樂區，可以在森林浴交織著歷史的氛圍裡，理解不同時代背景下，林業管理的蛻變與展望。",
        "time": "08:00-17:00，除夕休園",
        "place_id": "ChIJ6_l_SaOjaDQRqExTAVDYBGQ",
        "lat": 23.91840819999999,
        "lng": 121.5011924,
        "type": "nature"
    },
    {
        "id": 18,
        "name": "蘇花古道_大南澳越嶺段",
        "address": "975台灣花蓮縣秀林鄉",
        "city": "花蓮縣",
        "region": "秀林鄉",
        "star": 4,
        "info": "蘇花古道建造於清朝同治13 年(1874 年)，是聯絡蘇澳與花蓮之間最早的一條官道；日人19 世紀於蘇花海岸之間先後開鑿了北段的大南澳路、南段的沿岸理番道路及東海徒步道，即今日蘇花公路的前身，但早已荒廢舊跡難尋。經過調查後整建「蘇花古道-- 大南澳越嶺段」。 \r\n\r\n古道呈南北縱向，北側為軍方管制道路無法通行，建議由南側登山口往北走再折返，海拔落差近七百公尺，來回行走約5小時，路程頗具挑戰性。 從南口入古道，一路陡上，約十餘分鐘後抵達一處較平緩的空曠處，路旁有處碉堡遺跡以及水泥護欄，此為崩坍廢棄的舊蘇花公路。\r\n\r\n沿路隔著樹林間隙，可以遙望汪洋大海。在1.2 K里程處抵達休息平臺，即是南澳嶺的主峰所在，再攀至0.6 公里附近的觀景臺，古道在此豁然開朗。繼續陡下至鞍部，再爬坡至烏石鼻戰備道路上的北端起點。\r\n",
        "time": "星期一: 24 小時營業\n星期二: 24 小時營業\n星期三: 24 小時營業\n星期四: 24 小時營業\n星期五: 24 小時營業\n星期六: 24 小時營業\n星期日: 24 小時營業",
        "place_id": "ChIJo1Ndx0rTZzQRQaEvNClWBtQ",
        "lat": 24.26467,
        "lng": 121.740875,
        "type": "nature"
    },
    {
        "id": 19,
        "name": "南澳古道",
        "address": "宜蘭縣南澳鄉",
        "city": "宜蘭縣",
        "region": "南澳鄉",
        "star": 4.4,
        "info": "南澳古道位在南澳鄉金洋村，是通往泰雅族舊部落的路徑之一，為「舊武塔古道」的一部分，也是泰雅族的傳統獵場。自旋檀駐在所遺址起，循南澳南溪上溯至古道終點，至合流溪與南澳南溪匯流口，共 3.8 公里。沿途平緩好走，野生動植物生態豐富，沿途有吊橋遺址、警備道路基等遺跡。",
        "time": "無",
        "place_id": "ChIJoadw22nXZzQRxjv1i3NieBg",
        "lat": 24.4273965,
        "lng": 121.6949299,
        "type": "nature"
    },
    {
        "id": 20,
        "name": "金瓜寮魚蕨步道",
        "address": "新北市坪林區",
        "city": "新北市",
        "region": "坪林區",
        "star": 4.4,
        "info": "金瓜寮魚蕨步道位於坪林，步道南北端皆可出入。步道有拱橋及觀景平臺，有較多階梯，走出南出口後向南續行可連接到觀魚蕨類步道。全線沿著金瓜寮溪蜿蜒行進，溪水淙淙，可觀苦花魚、馬口魚等，亦有多種蕨類，適合親子出遊。",
        "time": "星期一: 24 小時營業\n星期二: 24 小時營業\n星期三: 24 小時營業\n星期四: 24 小時營業\n星期五: 24 小時營業\n星期六: 24 小時營業\n星期日: 24 小時營業",
        "place_id": "ChIJB1L_Q1_-ZzQR7h0Sg_d3ct0",
        "lat": 24.89911409999999,
        "lng": 121.6729201,
        "type": "nature"
    },
    {
        "id": 21,
        "name": "拳頭姆自然步道",
        "address": "宜蘭縣三星鄉",
        "city": "宜蘭縣",
        "region": "三星鄉",
        "star": 4.1,
        "info": "海拔三百多公尺的拳頭姆山位於宜蘭縣三星鄉境內天送埤地區，步道入口位於臺7丙9.5公里處，步道坡度平緩，行走輕鬆，步道環境為烏心石造林地，有豐富的蕨類與多樣的植物，隨著時序變化展現不同風情，也為鳥類及各種小生物提供良好的棲息環境；登頂可以俯瞰蘭陽溪及蘭陽平原，遙望中央山脈與雪山山脈。 \r\n\r\n拳頭姆步道原為荒草蔓生的舊林道，經林務局以自然工法施設整修、並搭建觀景平臺，成為穿梭在林務局羅東事業區47林班烏心石與肖楠造林地的生態步道。以如拳頭般山頭命名的拳頭姆步道，於民國96年9月中旬啟用。\r\n",
        "time": "星期一: 08:00 – 17:00\n星期二: 08:00 – 17:00\n星期三: 08:00 – 00:00\n星期四: 08:00 – 17:00\n星期五: 08:00 – 17:00\n星期六: 08:00 – 17:00\n星期日: 08:00 – 17:00",
        "place_id": "ChIJVfHJCJcKaDQR8y1rWQdanwU",
        "lat": 24.6568,
        "lng": 121.6148389,
        "type": "nature"
    },
    {
        "id": 22,
        "name": "松羅步道",
        "address": "宜蘭縣大同鄉",
        "city": "宜蘭縣",
        "region": "大同鄉",
        "star": 4.3,
        "info": "松羅步道依昔日泰雅獵徑整修而成。步道沿著松羅溪而行，林蔭蒼蒼，溪水淙淙，著生殖物繁盛，是步道最大的特色。低海拔及濕潤的環境，造就了雨林般的森林植被原始景觀。沿途松羅溪一路陪伴，可以在水中清楚看到近年保育的成果「臺灣?魚」優游其中，似乎也能感受到牠們的自在與喜樂。步道最讓人驚豔的是擁有其他步道無法相比的濕生動植物，以生意盎然的姿態在此生長，如濃密的山蘇隧道、大面積蕨類植物、隨處飛舞的蜻蜓等，彷彿置身亞馬遜。\r\n為了維護原始生態環境，自然步道皆是就地取材施作，儘量不使用違背原始自然生態的人工建材，因此行走起來特別舒服、也特別能融入於這片美麗的自然中。\r\n",
        "time": "星期一: 24 小時營業\n星期二: 24 小時營業\n星期三: 24 小時營業\n星期四: 24 小時營業\n星期五: 24 小時營業\n星期六: 24 小時營業\n星期日: 24 小時營業",
        "place_id": "ChIJWzHb6rV2aDQR3gS_C2yi9As",
        "lat": 24.669464,
        "lng": 121.5558427,
        "type": "nature"
    },
    {
        "id": 23,
        "name": "礁溪跑馬古道",
        "address": "新北市坪林區；宜蘭縣礁溪鄉、頭城鎮",
        "city": "宜蘭縣",
        "region": "礁溪鄉",
        "star": 4.4,
        "info": "跑馬古道早期是先民搬運貨物或日軍巡邏、運輸補給的路線，雖時至今日，古道已翻修拓寬，但早期便於搬運的圓木枕和拖運的木馬仍有部份保留，讓現代人雖然是以悠閒的步調走訪，卻仍能夠感受到先人們匆匆不懈的勤奮步伐，更能體認到臺灣早期開墾的辛苦。 \r\n\r\n一走進古道，就可感受到樹林間吹來的清涼微風和芬多精，十分涼爽舒適，道路寬廣且坡度平緩好走，多以碎石道路居多，沿途更有可瞭望蘭陽平原、龜山島之路段、廢棄礦坑、柑橘果園、溪流等，適合闔家前往。\r\n",
        "time": "星期一: 24 小時營業\n星期二: 24 小時營業\n星期三: 24 小時營業\n星期四: 24 小時營業\n星期五: 24 小時營業\n星期六: 24 小時營業\n星期日: 24 小時營業",
        "place_id": "ChIJZ8N9PyT6ZzQRoEhRc2pkUkE",
        "lat": 24.8379958,
        "lng": 121.7725226,
        "type": "nature"
    },
    {
        "id": 24,
        "name": "林美石磐步道",
        "address": "宜蘭縣礁溪鄉",
        "city": "宜蘭縣",
        "region": "礁溪鄉",
        "star": 4.5,
        "info": "林美石磐步道有著低海拔亞熱帶溪谷的景色，步道沿舊水圳整建，現寬敞平緩好走、又不失幽幽古意；沿途生態豐富，樹林成蔭，潺潺流水，散發陣陣芬多精，走在其中清爽無比，非常適合闔家一起健行。 \r\n\r\n步道名稱是由「林美」與「石磐」兩個名字組成，「林美」是指礁溪鄉林美村，而「石磐」指的是石磐瀑布，因此在這條步道中沿途常見溪流瀑布、大小不一的水潭與峽谷地形，景色秀麗，有「宜蘭的小太魯閣」之稱。當陽光透過樹葉射在步道上時，光影迷人，時有樹蛙及昆蟲在葉片上休息，是一條可以呼吸到大自然生動氣息的野趣步道。\r\n",
        "time": "星期一: 24 小時營業\n星期二: 24 小時營業\n星期三: 24 小時營業\n星期四: 24 小時營業\n星期五: 24 小時營業\n星期六: 24 小時營業\n星期日: 24 小時營業",
        "place_id": "ChIJNdNOwpv7ZzQR6K_ktSipnsY",
        "lat": 24.8225555,
        "lng": 121.7357007,
        "type": "nature"
    },
    {
        "id": 25,
        "name": "聖母登山步道",
        "address": "宜蘭縣礁溪鄉",
        "city": "宜蘭縣",
        "region": "礁溪鄉",
        "star": 4.6,
        "info": "聖母登山步道位於宜蘭縣礁溪鄉五峰旗瀑布風景區上方，為天主教徒的朝聖之路，亦是前往蘭陽五岳之一的三角崙山之中繼站。終點的觀景平臺是宜蘭與臺北行政疆界，東臨蘭陽平原、西枕雪山山脈層巒疊翠；而稜線迎風面箭竹綠海隨風飄動、沙沙歌聲，美得讓人駐足忘返。",
        "time": "星期一: 24 小時營業\n星期二: 24 小時營業\n星期三: 24 小時營業\n星期四: 24 小時營業\n星期五: 24 小時營業\n星期六: 24 小時營業\n星期日: 24 小時營業",
        "place_id": "ChIJ5SRlYO_7ZzQRSTDCPIloAkc",
        "lat": 24.8481508,
        "lng": 121.7351666,
        "type": "nature"
    },
    {
        "id": 26,
        "name": "新寮瀑布步道",
        "address": "宜蘭縣南澳鄉",
        "city": "宜蘭縣",
        "region": "南澳鄉",
        "star": 4.4,
        "info": "新寮瀑布步道於宜蘭冬山中山村進入，沿著新寮溪溪谷溯源而上，全長1.5k。新寮溪因斷層地形發達，形成多座瀑布。步道林相豐富，生態多樣，流水潺潺，蛙鳴鳥語，極適合闔家出遊。第一層步道的前0.9k較為平坦，通往第二層瀑布的石階路較陡，但沿路更多激流斜瀑景致，且第二層瀑布規模較第一層更勝一倍，值得一觀。",
        "time": "星期一: 08:00 – 17:00\n星期二: 08:00 – 17:00\n星期三: 08:00 – 17:00\n星期四: 08:00 – 17:00\n星期五: 08:00 – 17:00\n星期六: 08:00 – 17:00\n星期日: 08:00 – 17:00",
        "place_id": "ChIJ8fa8A2HnZzQRfd1-P5qPIPQ",
        "lat": 24.605155,
        "lng": 121.745445,
        "type": "nature"
    },
    {
        "id": 27,
        "name": "九寮溪自然步道",
        "address": "宜蘭縣大同鄉",
        "city": "宜蘭縣",
        "region": "大同鄉",
        "star": 4.3,
        "info": "步道傍溪而行，終年溫暖潮濕。九寮溪由源自於雪山山脈拳頭姆山下的野溪匯集而成，水量充沛，溪水清澈，水溫近乎冷泉，流經多處斷層形成壯觀宏偉的飛瀑。步道入口位於大同鄉公所管轄九寮溪生態園區，步道全線為平坦土石路，輕鬆好走直達瀑布，林蔭茂密、附生植物及蕨類繁盛。",
        "time": "星期一: 24 小時營業\n星期二: 24 小時營業\n星期三: 24 小時營業\n星期四: 24 小時營業\n星期五: 24 小時營業\n星期六: 24 小時營業\n星期日: 24 小時營業",
        "place_id": "ChIJWRB2i6oLaDQRXioXUHhn_VE",
        "lat": 24.68429799999999,
        "lng": 121.580104,
        "type": "nature"
    },
    {
        "id": 28,
        "name": "台灣山毛櫸步道",
        "address": "宜蘭縣南澳鄉",
        "city": "宜蘭縣",
        "region": "南澳鄉",
        "star": 4.6,
        "info": "臺灣山毛櫸步道為太平山森林遊樂區步道較長的一條。前段較為平坦但雨天多泥濘；2.5公里後坡度變化較大，去程多為下坡，回程為上坡。步道沿途可見殘留的纜線、鐵道路基及轉轍器等林業遺跡，亦可觀察板岩岩壁、翠綠苔蘚、紅檜林、柳杉林、山櫻花林。終點的休閒平臺可眺望銅山上臺灣最大面積的山毛櫸原始林，秋天黃葉耀金，常有遊客慕名而來。",
        "time": "星期一: 06:00 – 20:00\n星期二: 06:00 – 20:00\n星期三: 06:00 – 20:00\n星期四: 06:00 – 20:00\n星期五: 06:00 – 20:00\n星期六: 04:00 – 20:00\n星期日: 04:00 – 20:00",
        "place_id": "ChIJhXAUyUl2aDQRpSelgttaQbc",
        "lat": 24.5092417,
        "lng": 121.61013,
        "type": "nature"
    },
    {
        "id": 29,
        "name": "翠峰湖環山步道",
        "address": "宜蘭縣南澳鄉",
        "city": "宜蘭縣",
        "region": "南澳鄉",
        "star": 4.7,
        "info": "翠峰湖環山步道環繞著臺灣最大的高山湖泊，循著昔日運材軌道路線整建而成，提供春浴新綠、夏洗雨霧、秋賞紅葉、冬觀白雪的四季體驗。翠峰湖海拔1840公尺，雨季時湖面達25公頃，為臺灣最大的高山湖泊，晨昏變化萬千，四季風情各異。 ",
        "time": "星期一: 24 小時營業\n星期二: 24 小時營業\n星期三: 24 小時營業\n星期四: 24 小時營業\n星期五: 24 小時營業\n星期六: 24 小時營業\n星期日: 24 小時營業",
        "place_id": "ChIJl44-diZxaDQRr1ZhH3jL3Ms",
        "lat": 24.5161633,
        "lng": 121.6027308,
        "type": "nature"
    },
    {
        "id": 30,
        "name": "茂興懷舊步道",
        "address": "宜蘭縣大同鄉",
        "city": "宜蘭縣",
        "region": "大同鄉",
        "star": 4.5,
        "info": "茂興懷舊步道起點為太平山蹦蹦車茂興月臺站，沿舊蹦蹦車軌道整建，坡度平緩，全程有完善的休憩設施與導覽解說牌，遊客可選擇步道主線、上環線、下環線不同的路線搭配。這條日治時期興建的「古運材軌道」，蜿蜒於紅檜、臺灣扁柏、柳杉林間，步道兩旁則滿佈著耐溼蔭的小林木、蕨類與地被植物；沿途穿過林間、繞過山壁、越過水澗，而古樸的鐵軌與工寮遺跡則見證太平山林木盛產的歲月。",
        "time": "星期一: 06:00 – 18:00\n星期二: 06:00 – 18:00\n星期三: 06:00 – 18:00\n星期四: 06:00 – 18:00\n星期五: 06:00 – 18:00\n星期六: 06:00 – 18:00\n星期日: 06:00 – 18:00",
        "place_id": "ChIJWzHb6rV2aDQRYvrRVz99v58",
        "lat": 24.4781784,
        "lng": 121.5356198,
        "type": "nature"
    },
    {
        "id": 31,
        "name": "鐵杉林自然步道",
        "address": "宜蘭縣南澳鄉",
        "city": "宜蘭縣",
        "region": "南澳鄉",
        "star": 4.5,
        "info": "鐵杉林自然步道位處中海拔的針葉林、闊葉林過度帶，因地勢高聳且面迎洋流，致水氣凝聚，終年雲霧瀰漫，宛如人間仙境，亦為太平山莊的水源地。沿途古木參天、蓊鬱蔽日、空氣氤氳。步道入口在太平山莊上方的檜木原始林步道後方，因此必經山莊的四百階中央階梯，兩旁植滿長年楓紅的紫葉槭，是條絕美的紅色隧道。途有密集的原始紅檜與臺灣扁柏，或俯或倒的巨木造就不少樹洞奇景，盤根錯節，姿態多端。",
        "time": "星期一: 24 小時營業\n星期二: 24 小時營業\n星期三: 24 小時營業\n星期四: 24 小時營業\n星期五: 24 小時營業\n星期六: 24 小時營業\n星期日: 24 小時營業",
        "place_id": "ChIJdzeMqbFwaDQRbNuKSZUqHc0",
        "lat": 24.4958754,
        "lng": 121.5288235,
        "type": "nature"
    },
    {
        "id": 32,
        "name": "見晴懷古步道",
        "address": "宜蘭縣大同鄉",
        "city": "宜蘭縣",
        "region": "大同鄉",
        "star": 4.6,
        "info": "步道全長0.9公里，沿路坡度平緩且設有休息用的木椅，老少咸宜。一走入見晴古道，即可看到舊時太平山運送木材之森林鐵路鐵軌，景色清麗幽美，蕨類與披上苔蘚的林木環繞，帶來涼爽潮濕的空氣。從步道一始即偶有展望點，天氣好時可眺望蘭陽平原及聖稜線，午後易出現瑰麗雲海。後段可見之懸空架高鐵路，人工精巧及時間流逝的痕跡交映，引人懷古之幽情。",
        "time": "星期一: 06:00 – 17:00\n星期二: 06:00 – 17:00\n星期三: 06:00 – 17:00\n星期四: 06:00 – 17:00\n星期五: 06:00 – 17:00\n星期六: 06:00 – 17:00\n星期日: 06:00 – 17:00",
        "place_id": "ChIJ98uHBshwaDQRbKW6Hrxd560",
        "lat": 24.5051895,
        "lng": 121.5256882,
        "type": "nature"
    },
    {
        "id": 33,
        "name": "鳩之澤自然步道",
        "address": "宜蘭縣大同鄉",
        "city": "宜蘭縣",
        "region": "大同鄉",
        "star": 4.2,
        "info": "步道位於太平山森林遊樂區內的鳩之澤風景區內，步道與鳩之澤溫泉隔著多望溪，以鳩澤橋相通。溫和的氣候、充沛的雨量以及河谷地形，孕育出豐富多樣的生態，沿途有完善的休憩設施；因群山環繞、多望溪穿越，而形成澤地，加以棲息鳥類繁多，鳥鳴聲不絕於耳，而得其名。 ",
        "time": "星期一: 06:00 – 17:00\n星期二: 06:00 – 17:00\n星期三: 06:00 – 17:00\n星期四: 06:00 – 17:00\n星期五: 06:00 – 17:00\n星期六: 06:00 – 17:00\n星期日: 06:00 – 17:00",
        "place_id": "ChIJl5IE6BNxaDQRyYnfSbSLSO0",
        "lat": 24.546855,
        "lng": 121.507051,
        "type": "nature"
    },
    {
        "id": 34,
        "name": "望洋山步道",
        "address": "宜蘭縣南澳鄉",
        "city": "宜蘭縣",
        "region": "南澳鄉",
        "star": 4.3,
        "info": "望洋山標高2,050公尺，步道終點有一景觀平臺，視野佳，可看到南澳北溪侵蝕而成的山谷，也是觀賞日出及雲海的好地點，天色全亮前，還可欣賞蘭陽平原夜景。在望洋山步道眺望太平洋，天氣晴朗時，連龜山島也清晰可辨。",
        "time": "星期一: 24 小時營業\n星期二: 24 小時營業\n星期三: 24 小時營業\n星期四: 24 小時營業\n星期五: 24 小時營業\n星期六: 24 小時營業\n星期日: 24 小時營業",
        "place_id": "ChIJWU9ZTzR2aDQRLxE5xRZTKFQ",
        "lat": 24.5101628,
        "lng": 121.609037,
        "type": "nature"
    },
    {
        "id": 35,
        "name": "朝陽步道",
        "address": "宜蘭縣蘇澳鎮",
        "city": "宜蘭縣",
        "region": "蘇澳鎮",
        "star": 4,
        "info": "朝陽步道位於宜蘭縣南澳地區的龜山山丘上；龜山為朝陽社區南側的獨立山頭，東臨花東海岸，西接丘陵起伏之農漁村落，遠遠望去，好似一隻海龜停泊山海之間，遂得其名。 \r\n\r\n步道是早年先民入山種植作物的主要山徑，沿途可由步步登高的四個觀景臺俯瞰南澳漁港，遙望蘇花海岸、烏石鼻岬、定情湖、鴛鴦山、神秘海灘，一路有浪潮與海風陪伴，十分愜意。\r\n\r\n可欣賞難得一見廣達7公頃的大頭茶純林及百年老梅樹。而登龜山賞日出、聽濤聲更是漫步朝陽步道最愜意的享受。\r\n",
        "time": "星期一: 24 小時營業\n星期二: 24 小時營業\n星期三: 24 小時營業\n星期四: 24 小時營業\n星期五: 24 小時營業\n星期六: 24 小時營業\n星期日: 24 小時營業",
        "place_id": "ChIJ-zlZLCrFZzQRptkEvIm7qx4",
        "lat": 24.4611582,
        "lng": 121.8192249,
        "type": "nature"
    },
    {
        "id": 36,
        "name": "東滿步道",
        "address": "桃園市復興區；新北市三峽區",
        "city": "桃園市",
        "region": "復興區",
        "star": 4.5,
        "info": "往來於東眼山與滿月圓兩處國家森林遊樂區之間的健行路徑，自海拔870公尺的東眼山林道終點開始，越過北插天山與東眼山間海拔1,130公尺的鞍部，再直下往海拔500尺的滿月圓瀑布區；主要步道是利用昔日的台車道、木馬道，再與滿月圓往北插天山登山步道連接而成。屬中低海拔常綠闊葉林的楠櫧林帶，沿途針、闊葉樹林交錯，林相鬱閉，孕育豐富多樣的鳥類、昆蟲，加上雲瀑、溪流、瀑布…等自然景觀，是北台灣四季宜人的健行步道。",
        "time": "星期一: 08:00 – 17:00\n星期二: 08:00 – 17:00\n星期三: 08:00 – 17:00\n星期四: 08:00 – 17:00\n星期五: 08:00 – 17:00\n星期六: 07:00 – 17:00\n星期日: 07:00 – 17:00",
        "place_id": "ChIJGS1KuE8QaDQRHux37KQC8xM",
        "lat": 24.8161877,
        "lng": 121.4167761,
        "type": "nature"
    },
    {
        "id": 37,
        "name": "福巴越嶺國家步道",
        "address": "新北市烏來區；桃園市復興區華陵里",
        "city": "新北市",
        "region": "烏來區",
        "star": 4.4,
        "info": "福巴越嶺古道從烏來福山到巴陵拉拉山，整個路徑貫穿拉拉山巨木區及插天山自然保留區，沿線有許多紅檜巨木，也是野生動物生活的重要棲地環境，物種豐富多樣。古道為早年泰雅人狩獵、通婚、訪親的社路，日治時期設隘勇線、作為山地警備道路，至今仍留有駐在所的遺跡。",
        "time": "星期一: 06:00 – 17:00\n星期二: 06:00 – 17:00\n星期三: 06:00 – 17:00\n星期四: 06:00 – 17:00\n星期五: 06:00 – 17:00\n星期六: 06:00 – 17:00\n星期日: 06:00 – 17:00",
        "place_id": "ChIJe-7gvs5saDQRf7PAfEhdzhY",
        "lat": 24.7116248,
        "lng": 121.4411608,
        "type": "nature"
    },
    {
        "id": 38,
        "name": "北插天山登山步道",
        "address": "桃園市復興區",
        "city": "桃園市",
        "region": "復興區",
        "star": 4.5,
        "info": "北插天山又稱為塔開山，是雪山山脈北段著名的中級山，是大漢溪支流宇內溪的源頭，地處桃園市復興區義盛村。\r\n\r\n山形峻峭挺拔，又因為地處雲務帶，每當山嵐湧起，如一倒插天際的樣貌，得名「插天山」。 溫帶氣候的山林，孕育著無數令人嘆為觀止的神木，也造就出大片山毛櫸純林。春夏，綠油油的森林裡，鳥語啁啾；深秋，山毛櫸的葉片轉為金黃，隨風搖曳、緩緩落下，美不勝收；隆冬，林間銀白的霧淞和遠方白靄靄的聖稜線，更是一絕。\r\n",
        "time": "無",
        "place_id": "ChIJJw1aoi4OaDQRXp7r_JyFM0I",
        "lat": 24.792002,
        "lng": 121.452628,
        "type": "nature"
    },
    {
        "id": 39,
        "name": "霞喀羅國家步道",
        "address": "新竹縣尖石鄉、五峰鄉",
        "city": "新竹縣",
        "region": "尖石鄉",
        "star": 4.6,
        "info": "Syakaro霞喀羅為泰雅族語的烏心石，因山區盛產此樹而得名。古道橫跨新竹縣五峰鄉、尖石鄉，是早期當地部落的聯外交通要道。 霞喀羅國家步道是一處具歷史與美景的夢幻級古道，沿線可看見日治時期，日人為討伐尖石、五峰一帶部落修築之駐在所、電線杆、碉堡、紀念碑、土牆及砲台遺址，步行其間，在解說牌的介紹之下，可以了解這一條有著可歌可泣的歷史古道背後的許多故事。 \r\n\r\n沿途景觀秀麗，吊橋、山澗林相美不勝收，栗園的竹林與馬鞍的楓香林，尤其迷人，讓人忍不住駐足流連。而步道有多處極佳的賞楓點，入秋時可見滿山火紅的楓樹林，是知名的賞楓景點。",
        "time": "星期一: 24 小時營業\n星期二: 24 小時營業\n星期三: 24 小時營業\n星期四: 24 小時營業\n星期五: 24 小時營業\n星期六: 24 小時營業\n星期日: 24 小時營業",
        "place_id": "ChIJ8QBR3C9DaDQRDoNIuTqsvq0",
        "lat": 24.5888581,
        "lng": 121.2540381,
        "type": "nature"
    },
    {
        "id": 40,
        "name": "大霸尖山登山步道",
        "address": "313台灣新竹縣尖石鄉大霸尖山",
        "city": "新竹縣",
        "region": "尖石鄉",
        "star": 4.4,
        "info": "大霸尖山海拔3492公尺，屬於雪山山脈，是聖稜線端點之一，因山勢磅礡奇特，而有「世紀奇峰」之美譽，自古是泰雅、賽夏兩原住民族的聖山；其山形突出、四面懸壁，外貌有如大酒桶，又稱「熬酒桶山」或「酒桶山」，與中央尖山、達芬尖山，合稱為「台灣三尖」。 \r\n\r\n大霸尖山步道可登加利山、伊澤山、大霸尖山、小霸尖山共四座百岳。 九九山莊海拔約2700公尺，是大霸步道上重要的前進基地，也是舒適的住宿地點，容納150床位，更是賞觀霧地區、看夕陽、觀星空的好地方。\r\n",
        "time": "星期一: 24 小時營業\n星期二: 24 小時營業\n星期三: 24 小時營業\n星期四: 24 小時營業\n星期五: 24 小時營業\n星期六: 24 小時營業\n星期日: 24 小時營業",
        "place_id": "ChIJO0E6hwBeaDQRLuPhmyGg1vA",
        "lat": 24.4579371,
        "lng": 121.2583318,
        "type": "nature"
    },
    {
        "id": 41,
        "name": "桶後越嶺步道",
        "address": "新北市烏來區",
        "city": "新北市",
        "region": "烏來區",
        "star": 4.5,
        "info": "桶後越嶺步道是一條穿越雪山山脈，從大台北直接進入宜蘭的越嶺步道，而且難度不高，半天就能走完。此外，桶後溪的溪流地形豐富，不同的區域呈現全然不同的風景，據說「不至桶後，不知台北溪流之美。」 \r\n\r\n桶後越嶺步道是烏來山區三大古道之一，是早期泰雅族由雪山山脈地區北上打獵遷移走出的路徑，現已成為登山健行的熱門路線。\r\n",
        "time": "星期一: 24 小時營業\n星期二: 24 小時營業\n星期三: 24 小時營業\n星期四: 24 小時營業\n星期五: 24 小時營業\n星期六: 24 小時營業\n星期日: 24 小時營業",
        "place_id": "ChIJL8Dt8uv8ZzQRptdlnrI3RaA",
        "lat": 24.8366053,
        "lng": 121.648535,
        "type": "nature"
    },
    {
        "id": 42,
        "name": "哈盆越嶺步道",
        "address": "新北市烏來區",
        "city": "新北市",
        "region": "烏來區",
        "star": 4.4,
        "info": "哈盆越嶺步道聯絡新北市與宜蘭兩地，歩道沿南勢溪而上往露門溪、哈盆溪前去。整建的步道止於露門溪交會地，再原路折返，來回約14公里，費時6～7小時。步道下方為南勢溪，林相為闊葉樹群落，著生的鳥巢蕨、書帶蕨等交織成亞熱帶森林景緻。步道終點仍留有警備道遺址。",
        "time": "星期一: 24 小時營業\n星期二: 24 小時營業\n星期三: 24 小時營業\n星期四: 24 小時營業\n星期五: 24 小時營業\n星期六: 24 小時營業\n星期日: 24 小時營業",
        "place_id": "ChIJAQAAAMAIaDQRG0biENM2UvY",
        "lat": 24.7761138,
        "lng": 121.5136414,
        "type": "nature"
    },
    {
        "id": 43,
        "name": "塔曼山步道",
        "address": "塔曼山, 烏來區新北市台灣 233",
        "city": "新北市",
        "region": "烏來區",
        "star": 4.6,
        "info": "塔曼山為新北市第一高峰，海拔2130公尺。沿途蓊鬱茂密，樹形奇特，巨木參天，倒木亦多，可見證山林榮枯。步道多為盤根錯節的樹根及土石路面，山頂腹地不大且無展望。",
        "time": "星期一: 06:00 – 17:00\n星期二: 06:00 – 17:00\n星期三: 06:00 – 17:00\n星期四: 06:00 – 17:00\n星期五: 06:00 – 17:00\n星期六: 06:00 – 17:00\n星期日: 06:00 – 17:00",
        "place_id": "ChIJ0YFoZXwNaDQRdKsDnDig78w",
        "lat": 24.7058333,
        "lng": 121.4505556,
        "type": "nature"
    },
    {
        "id": 44,
        "name": "北得拉曼巨木步道",
        "address": "新竹縣尖石鄉",
        "city": "新竹縣",
        "region": "尖石鄉",
        "star": 4.5,
        "info": "北得拉曼是部落裡泰雅人視之為「聖域」的傳統狩獵領域，為全台灣海拔最低的檜木巨木群落。林相隨海拔高度變化，從人工造林地、天然闊葉林區及檜木林帶，多樣的植物孕育豐富的動物，步道上可見動物丟棄的果實，尤其闊葉林中以飛鼠最常見，成為部落發展生態旅遊的要角，沿途有迴音谷、小瀑布等景點，1.6公里處下行往巨木群的步道為一循環線，沿途可欣賞四株紅檜巨木，號稱「四大天王」。",
        "time": "星期一: 24 小時營業\n星期二: 24 小時營業\n星期三: 24 小時營業\n星期四: 24 小時營業\n星期五: 24 小時營業\n星期六: 24 小時營業\n星期日: 24 小時營業",
        "place_id": "ChIJq6qqqloVaDQRksmEuE5FuSc",
        "lat": 24.7387583,
        "lng": 121.2797582,
        "type": "nature"
    },
    {
        "id": 45,
        "name": "馬里光瀑布步道",
        "address": "新竹縣尖石鄉",
        "city": "新竹縣",
        "region": "尖石鄉",
        "star": 4.4,
        "info": "馬里光瀑布步道短小精緻，平緩好走，沿途植被豐富，俯瞰溪谷在翠綠山巒之中蜿蜒，步行10分鐘即可聽到氣勢磅礡的水聲，一條白練從天而降，瀑布高約80公尺、寬約30公尺，注入碧綠深潭之中，聲勢浩大、雄偉壯觀，觀景平台設有長椅，坐在這裡欣賞瀑布一瀉千里的英姿，享受水氣氤氳，聆聽淙淙流水聲，愜意怡人。",
        "time": "星期一: 24 小時營業\n星期二: 24 小時營業\n星期三: 24 小時營業\n星期四: 24 小時營業\n星期五: 24 小時營業\n星期六: 24 小時營業\n星期日: 24 小時營業",
        "place_id": "ChIJcZtr9pZraDQRIfi9WP1i3Xo",
        "lat": 24.64097,
        "lng": 121.33425,
        "type": "nature"
    },
    {
        "id": 46,
        "name": "鎮西堡巨木群步道",
        "address": "新竹縣尖石鄉",
        "city": "新竹縣",
        "region": "尖石鄉",
        "star": 4.6,
        "info": "泰雅語稱鎮西堡部落為Cinsbu，意即「清晨熟睡中，陽光已經朗照大地，整天日曬不絕、直到黃昏，白晝溫暖、夜晚寒冷，這是個病蟲絕跡，作物生長良好的土地。」這裡孕育了全台最大的檜木原始林，隔著塔克金溪與司馬庫斯巨木群互望，東向宜蘭鴛鴦湖一帶，與棲蘭檜木原生林連成一片。 \r\n\r\n此處最知名的神木是擁有男、女性生殖器象徵的「亞當神木」及「夏娃神木」，維妙維肖的樹型令人印象深刻；此外，國王神木身形龐大、體態魁武，為全台灣神木排行榜第17名。\r\n",
        "time": "星期一: 24 小時營業\n星期二: 24 小時營業\n星期三: 24 小時營業\n星期四: 24 小時營業\n星期五: 24 小時營業\n星期六: 24 小時營業\n星期日: 24 小時營業",
        "place_id": "ChIJverCN2loaDQR8T9qGdISjYE",
        "lat": 24.5536537,
        "lng": 121.2927271,
        "type": "nature"
    },
    {
        "id": 47,
        "name": "鳥嘴山登山步道",
        "address": "苗栗縣泰安鄉",
        "city": "苗栗縣",
        "region": "泰安鄉",
        "star": 4.5,
        "info": "地處汶水溪南岸因山形有如巨鷹，山麓兩翼如翅，山頂突出的尖峰如鳥嘴，故得名，與鄰近的橫龍山、虎子山，形成鳳、 龍、虎三獸磐據的態勢，故有「水雲三星」之稱。鳥嘴山又稱上島山，因特殊的地質與地形結構，單程3.3公里的路程要爬昇海拔837公尺，所以步道陡峭、形勢險峻。沿途多為衫木造林及闊葉木林，山頂視野良好，可飽覽加里山、哈堪尼山、橫龍山、及虎子山之山勢。 ",
        "time": "星期一: 24 小時營業\n星期二: 24 小時營業\n星期三: 24 小時營業\n星期四: 24 小時營業\n星期五: 24 小時營業\n星期六: 24 小時營業\n星期日: 24 小時營業",
        "place_id": "ChIJAYLFC-pVaDQRJN78TZ2WWl8",
        "lat": 24.4602342,
        "lng": 120.9845785,
        "type": "nature"
    },
    {
        "id": 48,
        "name": "加里山登山步道",
        "address": "苗栗縣南庄鄉",
        "city": "苗栗縣",
        "region": "南庄鄉",
        "star": 4.6,
        "info": "加里山登山步道聯絡南庄蓬萊、風美及鹿場，沿途為柳杉人工造林及闊葉林，林下植被多以蕨類和耐蔭性物種為主，風美溪從中穿越，動植物生態豐富。\r\n\r\n沿途可見伐木時期的台車鐵軌，見證當年興盛的林業，且加里山為中北台名山，為一等三角點，山頂視野遼闊，可遠眺氣勢磅礡的雪山聖稜線和鄰近的鹿場大山。 \r\n",
        "time": "星期一: 24 小時營業\n星期二: 24 小時營業\n星期三: 24 小時營業\n星期四: 24 小時營業\n星期五: 24 小時營業\n星期六: 24 小時營業\n星期日: 24 小時營業",
        "place_id": "ChIJPxQ4riVRaDQRX_x8t49WrRM",
        "lat": 24.525804,
        "lng": 121.025541,
        "type": "nature"
    },
    {
        "id": 49,
        "name": "五指山登山步道",
        "address": "新竹縣北埔鄉",
        "city": "新竹縣",
        "region": "北埔鄉",
        "star": 4.3,
        "info": "五指山由五座山頭相連並列，宛如五指而得名，在清朝即享有盛名，「淡水廳志」中以「指峰凌霄」來形容山勢險要壯觀，並列為八景之一：日治時期被票選為全台風景十二勝之一。步道沿途遍植柳杉，綠意盎然，林景幽雅，因山勢俊秀靈奇，所以建有許多廟宇，雲光寺、玉皇宮及觀音禪寺等。山頂視野遼闊，峨眉、北埔、新竹、竹北等盡收眼底。",
        "time": "星期一: 24 小時營業\n星期二: 24 小時營業\n星期三: 24 小時營業\n星期四: 24 小時營業\n星期五: 24 小時營業\n星期六: 24 小時營業\n星期日: 24 小時營業",
        "place_id": "ChIJp1uHY5JFaDQREvACX_StXSg",
        "lat": 24.6440423,
        "lng": 121.0917545,
        "type": "nature"
    },
    {
        "id": 50,
        "name": "冬瓜山登山步道",
        "address": "Unnamed Rd, 泰安鄉苗栗縣台灣 365",
        "city": "苗栗縣",
        "region": "泰安鄉",
        "star": 4,
        "info": "冬瓜山登山步道位於俗稱冬瓜山的洗水山上，步道並未修築至冬瓜山頂，而終點為千年櫸木。\r\n\r\n冬瓜山區多人造柳杉林，筆直高聳的杉木林立，森幽鬱閉。春季展新葉、秋季轉黃、紅，冬季落葉後樹形猶如一支大掃把，蔚為特色。山腳邊客家農莊遍植桃、李，每年開花時節，蒼鬱的冬瓜山在一片紅白花海的烘托下，更顯得翠嫩鮮綠。穿梭在林間可窺見遠處的虎山、上島山、加里山，不時也會發現幾棵高頭大馬的九芎、櫸木。\r\n\r\n幾乎垂直的雄偉石壁也是步道一絕，過了大石壁之後會遇到幾段小崩塌和碎石坡，只要小心謹慎，便可安全通過。 來到步道盡頭，千年櫸木赫然矗立在眼前，它的塊頭或許沒有阿里山神木那麼大，卻是目前全台已知最大棵的櫸木，站在它面前，壯漢也顯得嬌小。\r\n",
        "time": "星期一: 24 小時營業\n星期二: 24 小時營業\n星期三: 24 小時營業\n星期四: 24 小時營業\n星期五: 24 小時營業\n星期六: 24 小時營業\n星期日: 24 小時營業",
        "place_id": "ChIJ0-_u_ulVaDQRntbaH5zjvXc",
        "lat": 24.4611726,
        "lng": 120.9706622,
        "type": "nature"
    },
    {
        "id": 51,
        "name": "馬那邦山登山步道",
        "address": "364台灣苗栗縣大湖鄉東興村上湖72號",
        "city": "苗栗縣",
        "region": "大湖鄉",
        "star": 4.5,
        "info": "馬拉邦古道為早年泰雅族北勢群交通往來及狩獵的山徑，日治時代闢為隘勇路，曾發生泰雅族人抗日事件，立有紀念碑。步道經杉木造林地、櫸木植群，四季各有特色，春天的桃花、夏季的綠竹、秋天的楓紅，冬日的寒梅。山頂可遠眺蜿蜒群山的大安溪、大霸尖山及雪山之間的聖稜線。 \r\n\r\n馬那邦山秋夏多雨、冬季乾燥，傳統路徑從上湖登山口進入，到海拔1250公尺左右的古戰場紀念碑，青楓、楓香樹林一路延伸到了岳界所稱「慶榮坡口」，深秋時滿山楓紅。\r\n\r\n天然湖登山口0.7K處為1944年所栽種台灣櫸母樹林，樹葉四季幻化，春吐紅蕊、夏葉翠綠、秋染褐黃、冬枝蕭索，是山區秋賞變葉植物的指標性物種之一。\r\n",
        "time": "星期一: 24 小時營業\n星期二: 24 小時營業\n星期三: 24 小時營業\n星期四: 24 小時營業\n星期五: 24 小時營業\n星期六: 24 小時營業\n星期日: 24 小時營業",
        "place_id": "ChIJIQ2dFQr-aDQR09zVNRbsXd4",
        "lat": 24.3672456,
        "lng": 120.9138209,
        "type": "nature"
    },
    {
        "id": 52,
        "name": "橫嶺山步道",
        "address": "424台灣台中市和平區",
        "city": "臺中市",
        "region": "和平區",
        "star": 4.5,
        "info": "橫嶺山自然步道，是日治時代大雪山社區居民用來搬運木材的木馬道，是當時大雪山林場的木馬古道之一，故又稱為橫嶺山木馬古道，沿途仍留有廢棄的運材木馬及荒廢的燒炭窯等遺跡，林道2.3K處的廢棄工寮僅剩下石頭地基，為當時伐木歷史留下見證。 \r\n\r\n步道全長6.6公里，沿途生態豐富，林相優美，起點為大雪山林道26.5K的橫嶺山隧道口前，終點至大雪山生態教室。前3.5K路況平緩，林木參天，踩踏在鋪滿松針落葉的林徑上，輕鬆好走愜意。3.5K後則較為陡峻且落差較大，一路陡下2000多階以枕木、沙包建構的生態階梯沿木階。4K附近有台灣特有種杜鵑林。若安排原路往返，則有2000多階的上坡，較為吃力，可安排二地接駁較為輕鬆。\r\n",
        "time": "星期一: 24 小時營業\n星期二: 24 小時營業\n星期三: 24 小時營業\n星期四: 24 小時營業\n星期五: 24 小時營業\n星期六: 24 小時營業\n星期日: 24 小時營業",
        "place_id": "ChIJwwDZoAbjaDQRR7uz2GJQKzg",
        "lat": 24.236846,
        "lng": 120.948607,
        "type": "nature"
    },
    {
        "id": 53,
        "name": "大雪山國家森林遊樂區步道群",
        "address": "424台灣台中市和平區台灣",
        "city": "臺中市",
        "region": "和平區",
        "star": 4.6,
        "info": "大雪山國家森林遊樂區在日治時期為台灣中部地區重要的伐木林場，據說當年此處的大草原風光宛如日本北海道的大雪山景色，因此日本人命名為「大雪山」。從東勢循大雪山林道向上攀升，沿途林相隨著海拔高度變化，逐漸由闊葉林、針闊葉混合林轉變為天然針葉林，由於位處雲霧帶，氣象變化萬千。園區規劃多條步道，隨四季更迭各有其獨特丰采，春夏高山花卉，秋冬變葉景觀；也是觀察星象的最佳地點。",
        "time": "星期一: 24 小時營業\n星期二: 24 小時營業\n星期三: 24 小時營業\n星期四: 24 小時營業\n星期五: 24 小時營業\n星期六: 24 小時營業\n星期日: 24 小時營業",
        "place_id": "ChIJe6HO_h77aDQRJ_KFUU89gOk",
        "lat": 24.2802472,
        "lng": 121.0304016,
        "type": "nature"
    },
    {
        "id": 54,
        "name": "德芙蘭步道",
        "address": "424台灣台中市和平區424",
        "city": "臺中市",
        "region": "和平區",
        "star": 4.1,
        "info": "德芙蘭步道位於博愛村松鶴德芙蘭部落後山附近，步行約3小時。步道大部分路段為台電保線道路，沿著東卯山東南面大崩壁裙裾修建，東臨大甲溪；沿途可見陡峭的大岩壁及散落的大、小落岩塊，步道上偶有大石堆疊，得手腳並用攀爬而上；而就地取材的石階，古意盎然。步道沿途可見大葉楠、櫸木及茄苳巨木，還有粗壯的爬藤植物，是步道最大的特色。",
        "time": "星期一: 24 小時營業\n星期二: 24 小時營業\n星期三: 24 小時營業\n星期四: 24 小時營業\n星期五: 24 小時營業\n星期六: 24 小時營業\n星期日: 24 小時營業",
        "place_id": "ChIJI2LRUljhaDQRcpPZJ5vyBQc",
        "lat": 24.1806732,
        "lng": 120.973859,
        "type": "nature"
    },
    {
        "id": 55,
        "name": "八仙山主峰步道",
        "address": "424台灣台中市和平區博愛里",
        "city": "臺中市",
        "region": "和平區",
        "star": 4.4,
        "info": "八仙山因海拔約八千日尺，原擬名「八千山」，之後以較典雅的「八仙山」名之，為谷關七雄之首，以健行的步伐來回約需8小時，步道前半段坡度較陡，上了稜線後較為平緩，全程走在林蔭中，植被由常綠闊葉林進入四季變化明顯的針闊葉混合林，四季景色繽紛多變。",
        "time": "星期一: 24 小時營業\n星期二: 24 小時營業\n星期三: 24 小時營業\n星期四: 24 小時營業\n星期五: 24 小時營業\n星期六: 24 小時營業\n星期日: 24 小時營業",
        "place_id": "ChIJ-ShkrT3kaDQR0OMF8pd0rKI",
        "lat": 24.188431,
        "lng": 121.0133278,
        "type": "nature"
    },
    {
        "id": 56,
        "name": "東卯山步道",
        "address": "424台灣台中市和平區Unnamed Road",
        "city": "臺中市",
        "region": "和平區",
        "star": 4.6,
        "info": "東卯山，海拔1,692公尺，谷關七雄排名第五，原為台電之保線道路。沿線風景秀麗，生態資源豐富多樣，登山路徑呈和緩的之字坡向上攀升，寬大好走，是座很容易親近的山。 登頂後腹地寬廣，設有大型微波反射板，視野遼闊，擁有360度絕佳的好風光，天氣良好時除可遠眺松鶴部落外，鳶嘴、稍來、馬崙山、八仙山稜脈、唐麻丹山之山巒美景盡收眼底。",
        "time": "星期一: 24 小時營業\n星期二: 24 小時營業\n星期三: 24 小時營業\n星期四: 24 小時營業\n星期五: 24 小時營業\n星期六: 24 小時營業\n星期日: 24 小時營業",
        "place_id": "ChIJx2enIZXhaDQRG1VgFOKWyts",
        "lat": 24.1750903,
        "lng": 120.9439574,
        "type": "nature"
    },
    {
        "id": 57,
        "name": "唐麻丹山步道",
        "address": "424台灣台中市和平區裡冷溪林道",
        "city": "臺中市",
        "region": "和平區",
        "star": 4.5,
        "info": "唐麻丹山步道位於大甲溪南岸，在谷關七雄中排行最末，也是七雄中海拔高度最矮的一座，雖然高度最矮，但由登山口至山頂的落差超過650公尺，仍然是相當挑戰的路線。 唐麻丹山登山口位於裡冷部落，山頂展望為七雄最佳，向東可以眺望八仙山及馬崙山，向西則是白毛山與阿冷山，向北則與東卯山及屋我尾山遙遙相望。往山頂的途中有一條通往蝴蝶谷瀑布的步道，可視體力及時間選擇是否順訪，唐麻丹山步道是谷關七雄中唯一一條具有瀑布景觀的步道。",
        "time": "星期一: 24 小時營業\n星期二: 24 小時營業\n星期三: 24 小時營業\n星期四: 24 小時營業\n星期五: 24 小時營業\n星期六: 24 小時營業\n星期日: 24 小時營業",
        "place_id": "ChIJTYzeOBPhaDQR-6XR9AYEdao",
        "lat": 24.1647495,
        "lng": 120.9573537,
        "type": "nature"
    },
    {
        "id": 58,
        "name": "波津加山步道",
        "address": "424台灣台中市和平區東關路一段溫泉巷",
        "city": "臺中市",
        "region": "和平區",
        "star": 4.6,
        "info": "波津加步道位於大甲溪北岸，在谷關七雄中排行第四，昔日為台電保線道路，林徑旁仍能見到倒臥的老舊木製電桿及固定用鋼索。「波津加」名稱的由來據說是因步道坡度陡峭，許多登山者形容其「坡真陡」（閩南語諧音）。由於高低差約1千公尺，全段幾乎都在爬升，來回時間需7～8小時。",
        "time": "星期一: 08:30 – 17:30\n星期二: 08:30 – 17:30\n星期三: 08:30 – 17:30\n星期四: 08:30 – 17:30\n星期五: 08:30 – 17:30\n星期六: 08:30 – 17:30\n星期日: 08:30 – 17:30",
        "place_id": "ChIJBWE1NGjkaDQRHwMoqAKhmMs",
        "lat": 24.2069178,
        "lng": 121.008549,
        "type": "nature"
    },
    {
        "id": 59,
        "name": "屋我尾山步道",
        "address": "424台灣台中市和平區大雪山林道",
        "city": "臺中市",
        "region": "和平區",
        "star": 4.3,
        "info": "屋我尾山位於大甲溪北岸，為谷關七雄中的老三。步道沿路環境多樣，有杜鵑林，稜線上矮密的風衝林、杉木造林地、針闊混合林與楠櫟林；林下潮濕的枯枝倒木與落葉層上有著成簇之蕈叢。天氣晴朗時，從步道的破空處可遠眺周圍群山。",
        "time": "星期一: 24 小時營業\n星期二: 24 小時營業\n星期三: 24 小時營業\n星期四: 24 小時營業\n星期五: 24 小時營業\n星期六: 24 小時營業\n星期日: 24 小時營業",
        "place_id": "ChIJlQxbIHbjaDQRgzpSSbUDpjY",
        "lat": 24.2264566,
        "lng": 120.9716978,
        "type": "nature"
    },
    {
        "id": 60,
        "name": "馬崙山步道",
        "address": "424台灣台中市和平區東關路一段台電巷",
        "city": "臺中市",
        "region": "和平區",
        "star": 4.3,
        "info": "馬崙山為雪山山脈白姑大山向西延伸之山岳，「谷關七雄」中排行老二，是中部著名的中級山。 步道0K至1.8K，以及通往八壯士神木的支線，過去合稱為「斯可巴步道」，是早期泰雅族原住民狩獵的場所之一，也是昔日新山林場之木馬道；而通往馬崙山的路徑則是早年新山分場員工運補生活用品修築的步道。\r\n先總統蔣介石先生曾到此視察，隨後下令將登山步道重新整修拓寬，保留伐木歷史遺跡，並新建涼亭、觀景台等設施。 \r\n馬崙山步道二葉松夾道，滿地松針與楓葉，走起來柔軟有彈性，秋季楓葉轉紅，更是有如紅地毯般的美麗。途經百年五葉松媽媽時，可聆聽松濤聲有如一波波海浪襲捲而來，伴隨著空氣中飄散著松香，令人心曠神怡。步道旁的展望平台可俯看谷關風光，遠眺山巒優美曲線，視野極佳，可說是谷關地區最優美的步道。\r\n",
        "time": "星期一: 24 小時營業\n星期二: 24 小時營業\n星期三: 24 小時營業\n星期四: 24 小時營業\n星期五: 24 小時營業\n星期六: 24 小時營業\n星期日: 24 小時營業",
        "place_id": "ChIJ5VfPPUXkaDQR-CQlrTDtaMY",
        "lat": 24.1969452,
        "lng": 121.0181579,
        "type": "nature"
    },
    {
        "id": 61,
        "name": "白毛山步道",
        "address": "424台灣台中市和平區",
        "city": "臺中市",
        "region": "和平區",
        "star": 4.5,
        "info": "白毛山位於大甲溪南岸，屬於谷關七雄中的老六，三角點約為1522公尺，擁有七雄中難得的展望。白毛山以闊葉次生林為主，及大面積的柳杉造林地，濃密的植被吸引許多大型哺乳動物和鳥類來此覓食。步道沿途多處陡峭地勢，三角點前的崩塌地可俯瞰大甲溪、谷關大道院，眺望東卯山、唐麻丹山等美景，山頂有木造涼亭可供休息。",
        "time": "星期一: 24 小時營業\n星期二: 24 小時營業\n星期三: 24 小時營業\n星期四: 24 小時營業\n星期五: 24 小時營業\n星期六: 24 小時營業\n星期日: 24 小時營業",
        "place_id": "ChIJl93z0rXhaDQR27OoFV3ce78",
        "lat": 24.157132,
        "lng": 120.9215,
        "type": "nature"
    },
    {
        "id": 62,
        "name": "鳶嘴稍來小雪山國家步道",
        "address": "424台灣台中市和平區鳶嘴山",
        "city": "臺中市",
        "region": "和平區",
        "star": 4.8,
        "info": "鳶嘴稍來國家步道為中部地區中海拔熱門登山路線，鳶嘴山、稍來山是可以分開走的兩條步道，其中鳶嘴山以險峻危崖出名，而稍來山以秋天滿佈的台灣紅榨槭為名，兩山連走沿途峭壁綿延、景觀秀麗。 船形山、鞍馬山位於大雪山森林遊樂區內，雪山山脈中末段稜脊，由稍來小雪山國家步道串連，從35.2k收票亭附近登山口起登，至49k小雪山遊客服務中心停車場，本路段長約10公里。",
        "time": "無",
        "place_id": "ChIJN0zHORDjaDQReNvCFreUDZU",
        "lat": 24.241127,
        "lng": 120.954847,
        "type": "nature"
    },
    {
        "id": 63,
        "name": "合歡尖山步道",
        "address": "546台灣南投縣仁愛鄉台14甲線",
        "city": "南投縣",
        "region": "仁愛鄉",
        "star": 4.6,
        "info": "合歡尖山，海拔高度3217公尺，屬於合歡群峰之一，但未在百岳之列。其數學課教具一般的角錐型外觀給人留下深刻印象。其特殊外型是冰河時期兩個或多個相鄰的冰河朝不同方向挖削而形成的，此種原因形成之地形稱為角峰，或稱冰斗峰。步道不長，但山勢拔地而起，坡度陡峭，北面為新建之階梯式木棧道，南面則以岩石及土徑為主，灰石嶙峋，箭竹夾道，沒有高聳的樹木遮蔭，部分路段需拉繩、手腳併用而上。山頂腹地小但展望佳，合歡群峰盡收眼底，亦可遠眺奇萊主、北等中央山脈群山。",
        "time": "星期一: 24 小時營業\n星期二: 24 小時營業\n星期三: 24 小時營業\n星期四: 24 小時營業\n星期五: 24 小時營業\n星期六: 24 小時營業\n星期日: 24 小時營業",
        "place_id": "ChIJzzE_uCKTaDQRXmAFMbBKAG4",
        "lat": 24.1426744,
        "lng": 121.2845616,
        "type": "nature"
    },
    {
        "id": 64,
        "name": "合歡東峰步道",
        "address": "972台灣花蓮縣秀林鄉",
        "city": "花蓮縣",
        "region": "秀林鄉",
        "star": 4.7,
        "info": "合歡東峰海拔3421公尺，百岳編號35號，登山口位於台14甲線33公里處的合歡山遊客中心附近。步道四季景色分明，春季野花綻放，夏季綠意盎然、秋季蕭瑟、冬季覆雪，景緻各有千秋。步道沿線為玉山杜鵑族群最為集中之處，每逢5、6月間，桃紅色花海點綴著山頭滿山的奼紫嫣紅。昔日在坡度較為平緩的東峰東側曾設有滑雪訓練場，因此步道沿途可見廢棄的纜車轉運站。",
        "time": "星期一: 24 小時營業\n星期二: 24 小時營業\n星期三: 24 小時營業\n星期四: 24 小時營業\n星期五: 24 小時營業\n星期六: 24 小時營業\n星期日: 24 小時營業",
        "place_id": "ChIJVSLdChaTaDQRnKmdpe9wnQ0",
        "lat": 24.1397605,
        "lng": 121.287364,
        "type": "nature"
    },
    {
        "id": 65,
        "name": "桃山瀑布步道",
        "address": "424台灣台中市和平區",
        "city": "臺中市",
        "region": "和平區",
        "star": 4.6,
        "info": "桃山瀑布名列全台六大瀑布之一，位於桃山之中，而桃山名稱的來由為遠看山形如桃子般。 \r\n\r\n步道散發著松枝的清香，全程林蔭幽幽，彷彿是童話故事般森林裡的場景。 步道緩緩而上，沿途經過的武陵吊橋在秋日染上一片火紅，而橋下的台灣國寶「櫻花鉤吻鮭」正悠游其中；途中的觀景點景色遼闊，可遠眺桃山、雪山山脈，並可俯瞰武陵全景。桃山瀑布於步道盡頭，原稱煙聲瀑布，海拔2500公尺，高約80公尺，雨季過後水量驚人壯觀，抵達瀑布底下，記得在山壁上找找日漸斑駁的「煙聲」二字。\r\n",
        "time": "星期一: 24 小時營業\n星期二: 24 小時營業\n星期三: 24 小時營業\n星期四: 24 小時營業\n星期五: 24 小時營業\n星期六: 24 小時營業\n星期日: 24 小時營業",
        "place_id": "ChIJB2D3y_5gaDQR88egZ0Ek93k",
        "lat": 24.410762,
        "lng": 121.3030009,
        "type": "nature"
    },
    {
        "id": 66,
        "name": "能高越嶺道",
        "address": "972台灣花蓮縣秀林鄉",
        "city": "南投縣",
        "region": "仁愛鄉",
        "star": 4.7,
        "info": "「能高越嶺道」是橫越能高山區、連接中央山脈兩側的路徑，西段位於南投縣仁愛鄉，東段位於花蓮縣秀林鄉，原先是賽德克族原住民遷徙及貿易的社路。\r\n\r\n日治時期，日本人為獲取台灣的山林資源，同時確保對山區的控制，決議開發「能高越嶺警備道路」。這條警備道路最初的路線是從霧社經由聯帶山鞍部通往初音，後改由能高山和南華山（能高山北峰）間的鞍部越嶺，成為現今大家熟悉的嶺道路線。 \r\n\r\n台灣光復以後，台電將能高越嶺道拓建成保線路以進行「東電西送」和電話線路架設之工程，對台灣西部的工業發展與民生有極大貢獻，為紀念此重大建設，台電特別在能高鞍部設置「光被八表」紀念碑，上頭刻有時任總統蔣介石的題字：「光被八表、利溥民生」。本路線於2002年後被林務局納入國家步道系統加以保護，近年來已經成為熱門的登山路線。\r\n",
        "time": "星期一: 24 小時營業\n星期二: 24 小時營業\n星期三: 24 小時營業\n星期四: 24 小時營業\n星期五: 24 小時營業\n星期六: 24 小時營業\n星期日: 24 小時營業",
        "place_id": "ChIJQ8lb5uO_aDQRBNqdC1GokYY",
        "lat": 24.0250858,
        "lng": 121.2792398,
        "type": "nature"
    },
    {
        "id": 67,
        "name": "能高越嶺道_東段(有關入山管制請向警政署做確認，入山許可與否請依警政署相關規定辦理。)",
        "address": "972台灣花蓮縣秀林鄉",
        "city": "花蓮縣",
        "region": "秀林鄉",
        "star": 4.7,
        "info": "能高越嶺道全長26.5公里，越嶺道里程數計算是以西段南投屯原登山口(0公里)開始，至東段登山口26.5公里處為步道終點，而光被八表碑位於越嶺道15.5公里處，是越嶺道經中央山脈的越嶺點，也是越嶺道西段與東段的分界點。故能高越嶺道東段是指從東段登山口海拔1582公尺至光被八表碑海拔2787公尺，全長11公里，海拔爬升1205公尺，途中經五甲崩山、檜林保線所及上檜林吊橋等路段。",
        "time": "星期一: 24 小時營業\n星期二: 24 小時營業\n星期三: 24 小時營業\n星期四: 24 小時營業\n星期五: 24 小時營業\n星期六: 24 小時營業\n星期日: 24 小時營業",
        "place_id": "ChIJQ8lb5uO_aDQRBNqdC1GokYY",
        "lat": 24.0250858,
        "lng": 121.2792398,
        "type": "nature"
    },
    {
        "id": 68,
        "name": "桃源里森林步道",
        "address": "500台灣彰化縣彰化市彰化縣彰化市",
        "city": "彰化縣",
        "region": "彰化市",
        "star": 4.2,
        "info": "桃源里森林步道位於八卦山大佛風景區南麓，毗臨三清宮、八卦禪寺、慈惠堂及東山禪院等廟宇，由森林步道、龍鳳谷步道、幽蘭谷步道、體適能區步道組合而成，是居民漫步與運動健身的後花園。\r\n\r\n沿線有吊索橋、體健設施休憩區、觀景平台等設施，景觀豐富。 步道植物多元，春季有白色油桐花，再由相思樹金黃花海接棒，夏季有楊桃林、龍眼林、荔枝林等果樹散發著芳香的氣味，以及歡喜生態園自然生態環境，吸引鳥類、昆蟲、蝴蝶等生物棲息繁殖。清明時節成群的灰面鵟鷹北返過境八卦山脈，得天獨厚的地理環境優勢，是觀賞野鳥與賞鷹的聖地。\r\n",
        "time": "星期一: 24 小時營業\n星期二: 24 小時營業\n星期三: 24 小時營業\n星期四: 24 小時營業\n星期五: 24 小時營業\n星期六: 24 小時營業\n星期日: 24 小時營業",
        "place_id": "ChIJ3zapV_k4aTQR_CLrbxvIAmo",
        "lat": 24.065018,
        "lng": 120.567634,
        "type": "nature"
    },
    {
        "id": 69,
        "name": "清水岩步道群",
        "address": "511台灣彰化縣社頭鄉",
        "city": "彰化縣",
        "region": "社頭鄉",
        "star": 4.2,
        "info": "清水岩步道群位於彰化縣社頭鄉清水岩寺旁，包含3條步道，分別是十八彎挑鹽古道、中央嶺造林步道及園區串連步道，林相優美，步道難易適中，構成路線完整、景觀多樣的步道系統。",
        "time": "星期一: 24 小時營業\n星期二: 24 小時營業\n星期三: 24 小時營業\n星期四: 24 小時營業\n星期五: 24 小時營業\n星期六: 24 小時營業\n星期日: 24 小時營業",
        "place_id": "ChIJ01cPYXk0aTQRnClv5qY4vbU",
        "lat": 23.88516049999999,
        "lng": 120.6136601,
        "type": "nature"
    },
    {
        "id": 70,
        "name": "麒麟山森林步道",
        "address": "520台灣彰化縣田中鎮台灣",
        "city": "彰化縣",
        "region": "田中鎮",
        "star": 4.3,
        "info": "麒麟山森林步道位於彰化縣田中鎮贊天宮與普興寺的後方，由南投縣林管處採自然工法整建而成，施工時刻意保留原有的大樹，從左右繞道而行，成了饒富趣味與巧思的離樹棧道。 \r\n\r\n沿途設有多處觀景平台、涼亭和露天體能設施，綠樹成蔭、景致優美，木棧道左鄰深壑、右望山谷，稜線上視野遼闊，能欣賞到南側壯觀的相思樹海和惡地地形的峭壁與深谷，西邊可俯瞰田中市區與彰化平原風光。 全程起伏落差不大，可一邊運動一邊賞景環繞一圈、返回起點，適合全家老小戶外踏青、扶老攜幼同遊山林。\r\n",
        "time": "無",
        "place_id": "ChIJ52uDn5k0aTQRvlFP5ed3AYo",
        "lat": 23.8616638,
        "lng": 120.6111982,
        "type": "nature"
    },
    {
        "id": 71,
        "name": "坑內坑森林步道",
        "address": "530台灣彰化縣二水鄉",
        "city": "彰化縣",
        "region": "二水鄉",
        "star": 4.2,
        "info": "坑內坑森林步道原為早先居民要上松柏嶺受天宮進香，因此走出的一條進香古道，串連彰化縣與南投縣兩地。沿途有生態工程展示區、生態觀察區、觀景平臺。每年三月黃金風鈴木開著金黃的花朵，化為延綿幾百公尺的黃金隧道，是一大特色。 ",
        "time": "星期一: 24 小時營業\n星期二: 24 小時營業\n星期三: 24 小時營業\n星期四: 24 小時營業\n星期五: 24 小時營業\n星期六: 24 小時營業\n星期日: 24 小時營業",
        "place_id": "ChIJ0-EKRlHLbjQRjjYw1qTauQ4",
        "lat": 23.828683,
        "lng": 120.6145885,
        "type": "nature"
    },
    {
        "id": 72,
        "name": "澀水森林步道",
        "address": "555台灣南投縣魚池鄉大雁巷25號",
        "city": "南投縣",
        "region": "魚池鄉",
        "star": 4.4,
        "info": "澀水森林步道位於中潭公路西南側大雁隧道旁澀水社區內，由旅客服務站旁開始進入森林步道，至水上平台為終點。水上平台處可越溪銜接水上步道，經澀水社區返回旅客服務站。步道沿途可見各式經濟作物、蓊鬱森林、天然溼地及瀑布溪流等棲地環境。因有桃米坑溪上游及澀水溪貫穿，所以擁有豐富多樣的蛙類、鳥類、哺乳類及昆蟲。",
        "time": "星期一: 24 小時營業\n星期二: 24 小時營業\n星期三: 24 小時營業\n星期四: 24 小時營業\n星期五: 24 小時營業\n星期六: 24 小時營業\n星期日: 24 小時營業",
        "place_id": "ChIJJVppsxLXaDQRZ_a7PLzrF5Q",
        "lat": 23.9229237,
        "lng": 120.9172041,
        "type": "nature"
    },
    {
        "id": 73,
        "name": "龍過脈森林步道",
        "address": "643台灣雲林縣林內鄉",
        "city": "雲林縣",
        "region": "林內鄉",
        "star": 4.4,
        "info": "龍過脈森林步道串連林內鄉的林中、林南及坪頂三村。林內山脈和草嶺、南投縣竹山鎮的層峰疊延，與觸口山、東甲山相連，相傳從草嶺、竹山交界處往低山俯瞰，林內境內山脈稜線狀似一條龍的背脊，到濁水溪與清水溪交會口時，又像是龍汲水，因此得名「龍過脈」。\r\n\r\n步道有豐富多元的自然與人文景觀。 從鐵管坑段入口進入，首先經過林內公園，公園的前身是神社，因此有鳥居靜靜矗立。 登上龍脊，稜線上的展望很好，可眺望雲林地區，也可以看見八卦山山脈。下稜線進入林蔭間，天然的低海拔次生林生態資源相當豐富，可能會遇到大冠鷲和台灣獼猴，或是珍貴的八色鳥。春天時可以遇見美麗的紫斑蝶群。這條龍平易近人，兼具人文歷史和自然美景，適合親子同遊。\r\n",
        "time": "星期一: 24 小時營業\n星期二: 24 小時營業\n星期三: 24 小時營業\n星期四: 24 小時營業\n星期五: 24 小時營業\n星期六: 24 小時營業\n星期日: 24 小時營業",
        "place_id": "ChIJt-dxlwDMbjQRXPKYdcYDmBM",
        "lat": 23.752307,
        "lng": 120.620771,
        "type": "nature"
    },
    {
        "id": 74,
        "name": "二崙自然步道",
        "address": "649台灣雲林縣二崙鄉",
        "city": "雲林縣",
        "region": "二崙鄉",
        "star": 3.5,
        "info": "二崙自然步道位於台19線西邊27公頃的保安林地內，日治時期名為四番地，河床的沙土經年累月積沙成丘，如今規劃成為綠意盎然的生態步道園區。\r\n\r\n步道順著沙丘地形起伏，走在鬆軟金黃的沙地上，非常特別。沿途規劃設置了文竹棧道、吊橋、觀湖平臺、戶外昆蟲教室、會呼吸的涼亭以及休憩區等。 其中文竹棧道兩旁種滿俗稱新娘草的文竹，充滿浪漫氛圍，步道設有植物生態解說牌，健行之餘增長見聞，步道至底有觀湖平臺，眺望湖面風光明媚，由另一條路回程環形一圈，十分悠閒輕鬆，老少咸宜。 \r\n",
        "time": "星期一: 24 小時營業\n星期二: 24 小時營業\n星期三: 24 小時營業\n星期四: 24 小時營業\n星期五: 24 小時營業\n星期六: 24 小時營業\n星期日: 24 小時營業",
        "place_id": "ChIJLdc9m8mzbjQRxpQ_OwBO594",
        "lat": 23.815794,
        "lng": 120.3942892,
        "type": "nature"
    },
    {
        "id": 75,
        "name": "塔山步道",
        "address": "嘉義縣阿里山鄉",
        "city": "嘉義縣",
        "region": "阿里山鄉",
        "star": 0,
        "info": "大塔山是阿里山山脈中的最高峰，與西邊的小塔山及其數座山岳合稱為塔山山系，是鄒族心目中的聖山。塔山步道起點為姊妹潭之妹潭旁，前段與阿里山森林鐵路併行，走在鐵道上饒富趣味，前2公里枕木棧道平緩好走，欣賞高聳的檜木林，享受芬多精森林浴，最後1.5公里較為陡升。終點是塔山頂觀景台，擁有360度視野，可欣賞阿里山森林遊樂區全景，以及遠眺玉山群峰壯麗優美的景緻。",
        "time": "無",
        "type": "nature"
    },
    {
        "id": 76,
        "name": "特富野古道",
        "address": "556台灣嘉義縣阿里山鄉",
        "city": "嘉義縣",
        "region": "阿里山鄉",
        "star": 4.5,
        "info": "特富野古道位於嘉義縣阿里山鄉，原為鄒族人早年開闢的獵徑，日治時期古道後段改建成運送林木的「水山線」鐵路，至今仍留有許多鐵道遺跡。\r\n步道前段鐵道較為平緩，沿途遍植柳杉，景色非常美麗；後段則是陡下的枕木階梯步道，為闊葉原始森林，四季景觀變化多端，動植物生態豐富，是極佳的賞鳥步道。\r\n",
        "time": "星期一: 24 小時營業\n星期二: 24 小時營業\n星期三: 24 小時營業\n星期四: 24 小時營業\n星期五: 24 小時營業\n星期六: 24 小時營業\n星期日: 24 小時營業",
        "place_id": "ChIJL-Xmq37ebjQR_SQ5A8MAkpk",
        "lat": 23.4840479,
        "lng": 120.8300103,
        "type": "nature"
    },
    {
        "id": 77,
        "name": "嘉南雲峰步道",
        "address": "Unnamed Rd,, 古坑鄉雲林縣台灣 646",
        "city": "雲林縣",
        "region": "古坑鄉",
        "star": 4.3,
        "info": "因位於嘉義、南投、雲林三縣交界故名「嘉南雲峰」。翠綠的孟宗竹林，十分優美，全程幾乎曬不到太陽，石壁山及好望角視野極佳，展望層疊的山巒，蜿蜒曲折的清水溪。",
        "time": "無",
        "place_id": "ChIJV0f1387abjQRaRFt-4h8QuI",
        "lat": 23.6131179,
        "lng": 120.7206195,
        "type": "nature"
    },
    {
        "id": 78,
        "name": "瑞太古道",
        "address": "603台灣嘉義縣梅山鄉",
        "city": "嘉義縣",
        "region": "梅山鄉",
        "star": 4.3,
        "info": "瑞太古道舊稱幼哈林道，為連結瑞里及太和之山道，至今超過百年歷史。\r\n\r\n清光緒年間，漢人以獵槍、鐮刀等日常生活用品，和當地原住民交換土地，移入的住民增加，因而開闢瑞太古道方便各聚落間的聯繫，是早期先民遷徙入墾與農產運輸的主要交通要道。 後來日治時期，為方便瑞里、太和地區居民擔送農產與通學，1931年古道進行修改工程。抹油坑、英雄坡、魔窟石洞到回頭嶺這一段，是始建於清代1870年代的古道，而抹油坑、望天崖到回頭嶺這段，是1931年改建的古道。 古道全程行走在孟宗竹林之中，當陽光穿透間隙灑下光束時，特別寧靜，而一路竹林聲沙沙作響。\r\n",
        "time": "星期一: 24 小時營業\n星期二: 24 小時營業\n星期三: 24 小時營業\n星期四: 24 小時營業\n星期五: 24 小時營業\n星期六: 24 小時營業\n星期日: 24 小時營業",
        "place_id": "ChIJj-qTd2vDbjQR-LfwS3Mx2YQ",
        "lat": 23.54329199999999,
        "lng": 120.683513,
        "type": "nature"
    },
    {
        "id": 79,
        "name": "四大天王山步道",
        "address": "604台灣嘉義縣竹崎鄉",
        "city": "嘉義縣",
        "region": "竹崎鄉",
        "star": 4.4,
        "info": "四大天王是由四天皇山、青園山、篤鼻山、知鳥山等四座山峰的統稱，象徵如四位山王守護著水社寮、交力坪一帶的山區，又稱為「四季平安山」。\r\n\r\n由水社寮火車站登山口起登，涓涓小溪相伴，茂密的孟宗竹林夾道，蒼鬱翠綠，十分幽靜，時而光影婆娑，時而雲霧飄渺，有如世外桃源，步道環繞著四天皇山，高點海拔1458公尺，無三角點，有一座休憩平台座落竹林之中，途中可觀賞阿里山森林鐵道、古樸的水社寮車站、茶園、山巒層疊、雲海翻騰等美麗景緻。\r\n",
        "time": "星期一: 24 小時營業\n星期二: 24 小時營業\n星期三: 24 小時營業\n星期四: 24 小時營業\n星期五: 24 小時營業\n星期六: 24 小時營業\n星期日: 24 小時營業",
        "place_id": "ChIJERy59svCbjQRfd0IEKjWhDQ",
        "lat": 23.5001439,
        "lng": 120.7123875,
        "type": "nature"
    },
    {
        "id": 80,
        "name": "獨立山步道",
        "address": "604台灣嘉義縣竹崎鄉緞繻村",
        "city": "嘉義縣",
        "region": "竹崎鄉",
        "star": 4.5,
        "info": "嘉義縣內群山連綿，唯有獨立山行單影孤，孑然而立，因而得名。獨立山步道前身為獨立山古道，最早為先民運送山下日常必需物品至山區而闢的古道。日治時期為運送林產而修建阿里山鐵路，在獨立山環繞三週而達山頂。 \r\n獨立山古道規劃為獨立山國家步道，難易度低，適合親子共遊。沿途可見溪谷、鐵道、隧道、吊橋，景觀多變。螺旋三次而上的鐵道更是特有的景觀。\r\n",
        "time": "星期一: 24 小時營業\n星期二: 24 小時營業\n星期三: 24 小時營業\n星期四: 24 小時營業\n星期五: 24 小時營業\n星期六: 24 小時營業\n星期日: 24 小時營業",
        "place_id": "ChIJAQAAAPDBbjQRq_6BYJ9qLgo",
        "lat": 23.53293099999999,
        "lng": 120.6027033,
        "type": "nature"
    },
    {
        "id": 81,
        "name": "獨立山_大巃頂步道",
        "address": "603台灣嘉義縣梅山鄉太平村",
        "city": "嘉義縣",
        "region": "梅山鄉",
        "star": 4.4,
        "info": "獨立山至大巃頂步道又名紅南坑森林古道，步道起點為紅南坑的奉天岩（H874m）到大巃頂山頂的大巃頂休閒民宿附近，步道長約1550公尺左右，沿途會經過檳榔園、孟宗竹林，單程約需一小時的步程。雖是獨立山古道中最長的一段，但站在坪頂上，放眼望去皆為茶園，視野遼闊，展望極佳。",
        "time": "星期一: 24 小時營業\n星期二: 24 小時營業\n星期三: 24 小時營業\n星期四: 24 小時營業\n星期五: 24 小時營業\n星期六: 24 小時營業\n星期日: 24 小時營業",
        "place_id": "ChIJR9hCIWnBbjQRnkH4C3Bsqlg",
        "lat": 23.5533301,
        "lng": 120.6063468,
        "type": "nature"
    },
    {
        "id": 82,
        "name": "太平雲梯_獨立山大巃頂步道",
        "address": "603台灣嘉義縣梅山鄉太平村",
        "city": "嘉義縣",
        "region": "梅山鄉",
        "star": 4.4,
        "info": "連結獨立山步道及太平親子步道，將來亦可連絡太平雲梯。",
        "time": "星期一: 24 小時營業\n星期二: 24 小時營業\n星期三: 24 小時營業\n星期四: 24 小時營業\n星期五: 24 小時營業\n星期六: 24 小時營業\n星期日: 24 小時營業",
        "place_id": "ChIJR9hCIWnBbjQRnkH4C3Bsqlg",
        "lat": 23.5533301,
        "lng": 120.6063468,
        "type": "nature"
    },
    {
        "id": 83,
        "name": "石夢谷步道",
        "address": "605台灣嘉義縣阿里山鄉",
        "city": "嘉義縣",
        "region": "阿里山鄉",
        "star": 4.5,
        "info": "石夢谷步道位於阿里山鄉豐山村，為清水溪支流的石鼓盤溪上游，砂質岩塊河床因溪水沖刷而形成壺穴，終點為一平整之大石盤，景觀非常獨特。\r\n\r\n步道前段較平坦好走，行至情人谷可觀瀑布。因山區多雨多霧，沿途林木多有地衣及松蘿附著生長，林木幽深蓊鬱，富有原始森林氣息。",
        "time": "星期一: 24 小時營業\n星期二: 24 小時營業\n星期三: 24 小時營業\n星期四: 24 小時營業\n星期五: 24 小時營業\n星期六: 24 小時營業\n星期日: 24 小時營業",
        "place_id": "ChIJZ-fCG3XcbjQRPb5BZWP9_DQ",
        "lat": 23.5738345,
        "lng": 120.7717847,
        "type": "nature"
    },
    {
        "id": 84,
        "name": "茶之道步道",
        "address": "605台灣嘉義縣阿里山鄉樂野村",
        "city": "嘉義縣",
        "region": "阿里山鄉",
        "star": 4.5,
        "info": "茶之道步道是「頂石棹步道群」的一員，漫步其上，可以欣賞茶園風光與柳杉林、轎蒿竹與孟宗竹林交錯銜接的奇特景緻。 步道前段主要以轎篙竹林及孟宗竹林為主，漫步於竹林小徑，聽竹葉隨風搖曳與蟲鳴合奏，心情的舒暢無以言喻，令人陶醉其中不想離去。 \r\n\r\n茶之道步道中段主要以茶園風光為特色，沿途崇山峻嶺，綠意盎然。 高聳挺拔的柳杉是森林浴的主角，原產於日本，由於生長快速且具經濟價值，在日治時期是重要的造林樹種。漫步於柳杉林中，微風徐徐，蟲鳴鳥叫合奏著森林交響曲，一面接受芬多精的洗禮，一面聆賞山林自然天籟，頓覺神清氣爽通體舒暢。 穿過竹林，走過茶園，映入眼簾的是步道制高點樂野山(九層巃坪山)，海拔約1696公尺，讓人心思開闊，是石棹觀賞日出最佳的地點。",
        "time": "星期一: 24 小時營業\n星期二: 24 小時營業\n星期三: 24 小時營業\n星期四: 24 小時營業\n星期五: 24 小時營業\n星期六: 24 小時營業\n星期日: 24 小時營業",
        "place_id": "ChIJn-tjWKnCbjQRXY0INLt7Tj8",
        "lat": 23.4776292,
        "lng": 120.706191,
        "type": "nature"
    },
    {
        "id": 85,
        "name": "對高岳森林浴步道",
        "address": "605台灣嘉義縣阿里山鄉",
        "city": "嘉義縣",
        "region": "阿里山鄉",
        "star": 4.4,
        "info": "對高岳森林步道位於阿里山國家森林遊樂區內，是一條風景宜人的森林生態步道。\r\n\r\n由祝山林道3.2公里與祝山線鐵路交會處的入口起登，步道終點為對高岳。 步道前段徜徉在針葉樹的環抱裡，一片優美的柳杉林，途中可展望對高岳的斷崖、遠眺下方的信義鄉神木村和陳有蘭溪一帶，穿過一片台灣冷杉造林地，最後抵達對高岳，周遭是茂密的台灣紅榨楓。秋冬時節，或淺或深的紅葉渲染了整個山頭，耀眼奪目。 步道終點對高岳山頂設置一處觀景台，遠眺諸山，隱約可見玉山群峰、祝山和塔山。\r\n",
        "time": "星期一: 24 小時營業\n星期二: 24 小時營業\n星期三: 24 小時營業\n星期四: 24 小時營業\n星期五: 24 小時營業\n星期六: 24 小時營業\n星期日: 24 小時營業",
        "place_id": "ChIJj2h3q73ebjQRrE4Pn3b54nE",
        "lat": 23.5192695,
        "lng": 120.8190202,
        "type": "nature"
    },
    {
        "id": 86,
        "name": "二萬坪步道",
        "address": "605台灣嘉義縣阿里山鄉二萬坪106號",
        "city": "嘉義縣",
        "region": "阿里山鄉",
        "star": 4.5,
        "info": "二萬坪步道，又稱作黑森林步道，柳杉高聳入天，林相十分優美，途經「進藤熊之助」、「二宮英雄」二座紀念碑。整片的柳杉是阿里山伐木時期結束後，植樹時期所種。杉林濃密，即便在中午時分也只有一半的日光照射進來，稍早或稍晚都很昏暗，故有黑森林之稱。",
        "time": "星期一: 24 小時營業\n星期二: 24 小時營業\n星期三: 24 小時營業\n星期四: 24 小時營業\n星期五: 24 小時營業\n星期六: 24 小時營業\n星期日: 24 小時營業",
        "place_id": "ChIJHZtLmTrcbjQRdLnXW8fJpLI",
        "lat": 23.5085359,
        "lng": 120.790734,
        "type": "nature"
    },
    {
        "id": 87,
        "name": "十字路來吉古道",
        "address": "605台灣嘉義縣阿里山鄉十字村",
        "city": "嘉義縣",
        "region": "阿里山鄉",
        "star": 0,
        "info": "十字路來吉古道，入口位於十字路車站旁，海拔高度約1500公尺，古道原長5.4公里，為過去來吉居民對外聯繫道路，擁有重要歷史意義。\r\n林務局修繕十字路附近0.7公里長的自然步道，以山徑與石階為主，其餘4.6公里為產業道路，由此下坡可至海拔800公尺的來吉。步道沿途有柳杉林、桂竹林與小橋流水，自然生態非常豐富。\r\n",
        "time": "星期一: 24 小時營業\n星期二: 24 小時營業\n星期三: 24 小時營業\n星期四: 24 小時營業\n星期五: 24 小時營業\n星期六: 24 小時營業\n星期日: 24 小時營業",
        "place_id": "ChIJFbkKhyLdbjQR0wOQ6H2ZUjs",
        "lat": 23.4922262,
        "lng": 120.7547417,
        "type": "nature"
    },
    {
        "id": 88,
        "name": "里佳_山美步道",
        "address": "605台灣嘉義縣阿里山鄉",
        "city": "嘉義縣",
        "region": "阿里山鄉",
        "star": 4.2,
        "info": "里佳-山美步道又名里美古道或鬼山古道，位於嘉義縣阿里山鄉，連接里佳到山美兩處鄒族部落，早在清代就被漢人通事利用為原漢交易的重要路線，是過去里佳、山美、新美部落在無公路之前唯一往來的路徑。\r\n\r\n步道原本途經里佳峽谷、里佳瀑布、龍鳳谷、象山、曾文溪及達娜伊谷，總長約5.6公里，但經歷多次風災地震後部分路段已崩毀中斷，目前僅可從里佳通行至1.2公里處的里佳瀑布觀瀑亭。 \r\n\r\n里佳瀑布高達100公尺，由觀瀑亭欣賞涓涓白練掛在石壁上，直瀉溪谷，沿途可遠眺象山，風景秀麗、涼爽怡人，輕鬆好走，適合全家同遊。 除步道本身外，還可順遊里佳部落。",
        "time": "星期一: 24 小時營業\n星期二: 24 小時營業\n星期三: 24 小時營業\n星期四: 24 小時營業\n星期五: 24 小時營業\n星期六: 24 小時營業\n星期日: 24 小時營業",
        "place_id": "ChIJxf77kSLmbjQR1FvKpdjq27E",
        "lat": 23.406622,
        "lng": 120.7211915,
        "type": "nature"
    },
    {
        "id": 89,
        "name": "奮瑞古道",
        "address": "604台灣嘉義縣梅山鄉",
        "city": "嘉義縣",
        "region": "梅山鄉",
        "star": 4.4,
        "info": "奮瑞古道銜接奮起湖和瑞里兩處著名風景區，清朝時期先民挑擔往來通商，至今仍保存悶柴窯的遺跡、陰陽廟、神社等遺址。步道自火車站前紅磚階道而上，銜接環村生態步道與巨木山徑，後接奮太及瑞太古道，一路上在茂密原始林與孟宗竹林間穿梭，沿途還有參天聳立、丰姿互異的櫧櫟巨木群。",
        "time": "星期一: 24 小時營業\n星期二: 24 小時營業\n星期三: 24 小時營業\n星期四: 24 小時營業\n星期五: 24 小時營業\n星期六: 24 小時營業\n星期日: 24 小時營業",
        "place_id": "ChIJZ_hn_tjCbjQRrOe4FM1WSwo",
        "lat": 23.5059365,
        "lng": 120.6934518,
        "type": "nature"
    },
    {
        "id": 90,
        "name": "奮起湖大凍山步道",
        "address": "604台灣嘉義縣竹崎鄉",
        "city": "嘉義縣",
        "region": "竹崎鄉",
        "star": 4.4,
        "info": "奮起湖大凍山山頂擁有近2千公尺的觀景亭，在天氣晴朗時視野寬廣，能遠眺阿里山、玉山、曾文水庫、草嶺等嘉義縣四周的風景名勝，更可以觀日出、雲海及晚霞。",
        "time": "星期一: 24 小時營業\n星期二: 24 小時營業\n星期三: 24 小時營業\n星期四: 24 小時營業\n星期五: 24 小時營業\n星期六: 24 小時營業\n星期日: 24 小時營業",
        "place_id": "ChIJERy59svCbjQRfd0IEKjWhDQ",
        "lat": 23.5001439,
        "lng": 120.7123875,
        "type": "nature"
    },
    {
        "id": 91,
        "name": "土匪山步道",
        "address": "602台灣嘉義縣番路鄉觸口村",
        "city": "嘉義縣",
        "region": "番路鄉",
        "star": 4.7,
        "info": "土匪山又稱番路山，海拔高度794公尺。而土匪山步道則位於嘉義縣番路鄉公興社區至台18線36.5公里處間，長約1.8公里。步道南登山口在公興社區（外腦寮），最高海拔約700公尺，台18線的北登山口海拔約360公尺，上下落差約340公尺。",
        "time": "星期一: 24 小時營業\n星期二: 24 小時營業\n星期三: 24 小時營業\n星期四: 24 小時營業\n星期五: 24 小時營業\n星期六: 24 小時營業\n星期日: 24 小時營業",
        "place_id": "ChIJjyCwgAnrbjQRZBscOqbaqPg",
        "lat": 23.4248357,
        "lng": 120.6016817,
        "type": "nature"
    },
    {
        "id": 92,
        "name": "龍銀山步道",
        "address": "602台灣嘉義縣番路鄉巃頭602號",
        "city": "嘉義縣",
        "region": "番路鄉",
        "star": 3.8,
        "info": "龍銀山步道位於竹崎鄉和番路鄉的交界，相傳曾有盜匪在此藏銀，因而得名。經常雲霧繚繞的步道，適合觀賞雲海、竹林和茶園風光。 步道位於海拔約1300公尺處，夏季氣溫涼爽宜人，沿途有杉林、竹林遮蔭，並設有觀景台、涼亭、長椅讓旅客休憩，走來頗為舒適，適合親子同遊。 一路上，茵綠的森林、片片茶園風光，還有稜線上遼闊的展望，玉山、隙頂、奮起湖、光華、石桌和曾文水庫全都一覽無遺，秋冬來訪，甚至有機會看到壯觀的雲瀑呢！",
        "time": "星期一: 24 小時營業\n星期二: 24 小時營業\n星期三: 24 小時營業\n星期四: 24 小時營業\n星期五: 24 小時營業\n星期六: 24 小時營業\n星期日: 24 小時營業",
        "place_id": "ChIJ-TTVTk7objQR6NUHu0ZQ8bM",
        "lat": 23.44461399999999,
        "lng": 120.6721058,
        "type": "nature"
    },
    {
        "id": 93,
        "name": "關仔嶺大凍山步道",
        "address": "732台灣台南市白河區棲霞路435號",
        "city": "臺南市",
        "region": "白河區",
        "star": 4.4,
        "info": "大凍山，又名大棟山，為台南縣白河鎮與嘉義縣大埔鄉交界處的一座山峰，標高1241公尺，山勢雄偉廣大，西壁峭崖壯麗，為台南縣的第一高峰，也是台灣小百岳之一。一路可遠眺白河、鹿寮水庫及嘉義縣仁義潭、蘭潭水庫等，山頂有座早期為防範森林火災所設置之防火瞭望台，視野廣闊，可以觀賞關仔嶺群山交疊、蒼蒼鬱鬱的景致與關仔嶺溫泉區及嘉南平原。 步道沿途為低海拔闊葉林，溫暖潮濕的氣候使植物高大茂盛，生態豐富，冬日來此可賞清新脫俗的寒梅，片片白瓣紛飛，與落日餘暉相映、美不勝收。 ",
        "time": "星期一: 24 小時營業\n星期二: 24 小時營業\n星期三: 24 小時營業\n星期四: 24 小時營業\n星期五: 24 小時營業\n星期六: 24 小時營業\n星期日: 24 小時營業",
        "place_id": "ChIJ_X1SLjKNbjQRhFg3SzVXdgw",
        "lat": 23.3109849,
        "lng": 120.5225914,
        "type": "nature"
    },
    {
        "id": 94,
        "name": "關仔嶺碧雲寺_水火同源登山步道",
        "address": "732台灣台南市白河區關嶺里18號",
        "city": "臺南市",
        "region": "白河區",
        "star": 4,
        "info": "關仔嶺碧雲寺-水火同源登山步道自碧雲寺三寶殿出發，健行至「水火同源」，步道間不時可見蒼翠山巒之景，而水火同源更是臺南白河區著名景點之一。",
        "time": "星期一: 24 小時營業\n星期二: 24 小時營業\n星期三: 24 小時營業\n星期四: 24 小時營業\n星期五: 24 小時營業\n星期六: 24 小時營業\n星期日: 24 小時營業",
        "place_id": "ChIJDVzTQ4uNbjQRszyuCGYsW1s",
        "lat": 23.3221314,
        "lng": 120.4850429,
        "type": "nature"
    },
    {
        "id": 95,
        "name": "崁頂步道",
        "address": "732台灣台南市白河區南寮111號",
        "city": "臺南市",
        "region": "白河區",
        "star": 4.2,
        "info": "崁頂步道僅有500公尺左右，來回往返約半小時即可走完，位於崁頂福安宮廟宇後方植物園內，區內樹木林立，環境優雅，鳥類資源亦相當豐富。",
        "time": "星期一: 06:00 – 18:00\n星期二: 06:00 – 18:00\n星期三: 06:00 – 18:00\n星期四: 06:00 – 18:00\n星期五: 06:00 – 18:00\n星期六: 06:00 – 18:00\n星期日: 06:00 – 18:00",
        "place_id": "ChIJgVZFzuCMbjQR948YVD8636w",
        "lat": 23.29734,
        "lng": 120.5028745,
        "type": "nature"
    },
    {
        "id": 96,
        "name": "雞巃山步道",
        "address": "732台灣台南市白河區關嶺里",
        "city": "臺南市",
        "region": "白河區",
        "star": 4.4,
        "info": "雞籠山屬於關嶺群峰之一，因山頂形似雞籠而得名。距登山口約2公里路程，步道沿途有多處角落可遠眺嘉南平原，視野極佳。山頂設有木造涼亭一座，登頂前的一小段，種植有許多梅樹，春寒時節走在這片梅花樹下，可見雪白色正散發著清香的花朵。",
        "time": "星期一: 24 小時營業\n星期二: 24 小時營業\n星期三: 24 小時營業\n星期四: 24 小時營業\n星期五: 24 小時營業\n星期六: 24 小時營業\n星期日: 24 小時營業",
        "place_id": "ChIJneq8tzeNbjQRDU1vccTvcz4",
        "lat": 23.3191406,
        "lng": 120.5187859,
        "type": "nature"
    },
    {
        "id": 97,
        "name": "崁頭山步道",
        "address": "733台灣台南市東山區",
        "city": "臺南市",
        "region": "東山區",
        "star": 4.3,
        "info": "崁頭山位居曾文水庫集水區周邊群山之內，標高844公尺，步道屬低海拔闊葉林，林蔭茂密、植被豐富，還有四公頃餘的樟樹林。沿路及山頂可眺望東山之聚落景觀、嘉南平原，天氣晴朗時還可看到嘉南的濱海地區，雨後常有雲海、雲瀑，美不勝收。",
        "time": "星期一: 24 小時營業\n星期二: 24 小時營業\n星期三: 24 小時營業\n星期四: 24 小時營業\n星期五: 24 小時營業\n星期六: 24 小時營業\n星期日: 24 小時營業",
        "place_id": "ChIJf_RR6piMbjQRtJvQ9YyO_lc",
        "lat": 23.2659169,
        "lng": 120.5045708,
        "type": "nature"
    },
    {
        "id": 98,
        "name": "大埔大巃三角點步道",
        "address": "607台灣嘉義縣大埔鄉",
        "city": "嘉義縣",
        "region": "大埔鄉",
        "star": 4,
        "info": "大埔大巃三角點步道沿途風景美麗，大冠鷲不時於天空盤旋，脊線更可遠眺仁義潭、蘭潭、曾文水庫、白河水庫等水庫之湖光景色。",
        "time": "星期一: 24 小時營業\n星期二: 24 小時營業\n星期三: 24 小時營業\n星期四: 24 小時營業\n星期五: 24 小時營業\n星期六: 24 小時營業\n星期日: 24 小時營業",
        "place_id": "ChIJSyKv9XX0bjQRBa7LFN2rmW4",
        "lat": 23.2405834,
        "lng": 120.5924835,
        "type": "nature"
    },
    {
        "id": 99,
        "name": "鈺鼎步道",
        "address": "Unnamed Rd, 南化區台南市台灣 716",
        "city": "臺南市",
        "region": "南化區",
        "star": 4.4,
        "info": "臺南鈺鼎步道位於臺南市南化區北寮里，步道全長1.6公里，約有1,470個階梯，從標高170公尺爬升到430公尺，全程幾乎都是由石階和原木棧道所鋪成。\r\n鈺鼎步道由天豔宮起登，沿途林木扶疏，景色優美環境清幽，保有原始林自然生態，其中更以原生的月橘樹群最為珍貴，還有徑幹粗大且數量眾多的百年月橘老樹，是鈺鼎步道最具特色的自然景觀。漫步幽林中能洗滌心靈、安撫身心，是一條新興熱門且休閒的健康步道。",
        "time": "星期一: 24 小時營業\n星期二: 24 小時營業\n星期三: 24 小時營業\n星期四: 24 小時營業\n星期五: 24 小時營業\n星期六: 24 小時營業\n星期日: 24 小時營業",
        "place_id": "ChIJ5WwolUtnbjQRiMUPa72d_8A",
        "lat": 23.0830885,
        "lng": 120.5093715,
        "type": "nature"
    },
    {
        "id": 100,
        "name": "北大武山步道",
        "address": "921台灣屏東縣泰武鄉",
        "city": "屏東縣",
        "region": "泰武鄉",
        "star": 4.6,
        "info": "北大武山為中央山脈南端最後一座海拔超過3千公尺以上的高山，名列台灣五嶽之一，當地排灣族視為聖山，稱之為「kavulungan」。擁有全臺面積最大的原始林，蘊藏著豐富的生物資源。從舊登山口沿途行經檜谷山莊、大武祠至北大武山頂，共約9公里，海拔變化約有1549公尺，都在南臺灣自然美景的最精華區域「雙鬼湖野生動物重要棲息環境」內。而最令人驚豔的著名美景則是秋冬季的雲海。",
        "time": "星期一: 24 小時營業\n星期二: 24 小時營業\n星期三: 24 小時營業\n星期四: 24 小時營業\n星期五: 24 小時營業\n星期六: 24 小時營業\n星期日: 24 小時營業",
        "place_id": "ChIJU8R7M6w6bjQRMAjp0TYLshA",
        "lat": 22.6145008,
        "lng": 120.7017865,
        "type": "nature"
    },
    {
        "id": 101,
        "name": "六龜警備道_藤枝段",
        "address": "848台灣高雄市桃源區寶山巷150號",
        "city": "高雄市",
        "region": "桃源區",
        "star": 4.3,
        "info": "六龜警備線道是日治時期南部興建的第一條警備線，主要為防堵原住民出草阻礙日本政府樟腦事業的發展，遂設置隘勇線及通電鐵絲網以保護採樟腦的工人及日人；並駐防高密度的軍事武力，沿線共設置53座分駐所、4處監督所，至今仍留有許多遺跡。",
        "time": "星期一: 08:00 – 17:00\n星期二: 08:00 – 17:00\n星期三: 08:00 – 17:00\n星期四: 08:00 – 17:00\n星期五: 08:00 – 17:00\n星期六: 08:00 – 17:00\n星期日: 08:00 – 17:00",
        "place_id": "ChIJBbU9UZFMLzcR_lcJSGlmCh8",
        "lat": 23.0677024,
        "lng": 120.754703,
        "type": "nature"
    },
    {
        "id": 102,
        "name": "浸水營古道_西段",
        "address": "942台灣屏東縣春日鄉大漢林道",
        "city": "屏東縣",
        "region": "春日鄉",
        "star": 4.5,
        "info": "入口位於大漢林道約23.6k，至州廳界間，約2.7公里為浸水營步道（西段）。在104年間經屏東縣政府依文化資產保存法公告為文化景觀。",
        "time": "星期一: 24 小時營業\n星期二: 24 小時營業\n星期三: 24 小時營業\n星期四: 24 小時營業\n星期五: 24 小時營業\n星期六: 24 小時營業\n星期日: 24 小時營業",
        "place_id": "ChIJi2T3WcnecTQRanhLy71CGyY",
        "lat": 22.407632,
        "lng": 120.7565448,
        "type": "nature"
    },
    {
        "id": 103,
        "name": "美濃雙溪樹木園步道",
        "address": "843台灣高雄市美濃區",
        "city": "高雄市",
        "region": "美濃區",
        "star": 4.2,
        "info": "雙溪樹木園位於美濃區東北隅的廣林里，鄰近著名的黃蝶翠谷，為美濃溪上游，由二溪匯流包圍而得名，前身為1935年日人設立的「竹頭角熱帶樹木園」，面積達7.56公頃，引進、搜集並培育熱帶珍貴或具經濟價值的樹種；光復後因鮮少進行補植，再加上人為干擾較少，因此除原本的熱帶樹種自行更新外，尚可見部分臺灣次生樹種逐漸進入。\r\n\r\n步道設施及指標完善，步道的盡頭是最高點的觀景平台。行走在高大的林蔭下，可感受濃密綠蔭的沁涼，放慢腳步，保持愉悅的心，將是一趟很棒的森林之旅。\r\n",
        "time": "星期一: 24 小時營業\n星期二: 24 小時營業\n星期三: 24 小時營業\n星期四: 24 小時營業\n星期五: 24 小時營業\n星期六: 24 小時營業\n星期日: 24 小時營業",
        "place_id": "ChIJXRV6n6NDbjQRZ4r4LSarzVw",
        "lat": 22.9248025,
        "lng": 120.594582,
        "type": "nature"
    },
    {
        "id": 104,
        "name": "美濃靈山登山步道",
        "address": "843台灣高雄市美濃區高雄市美濃區",
        "city": "高雄市",
        "region": "美濃區",
        "star": 4.4,
        "info": "靈山屬月光山系，為玉山山脈尾稜，山勢形如大冠鷲，位於高雄市旗山區、美濃區交界處，靈山山麓下的村庄也是三百年前美濃區開庄的發源地。靈山步道為美濃區之熱門步道，多為在地人運動休閒之好去處。 靈山步道入口位於雷音寺旁，沿途林蔭茂密、林相優美，登頂有座福德祠，可遠眺旗山市區及美濃平原，登高望遠使人心曠神怡！從山上福德祠後可走到人斗山三角點，沿途竹木錯落，行走來相當愜意。",
        "time": "星期一: 24 小時營業\n星期二: 24 小時營業\n星期三: 24 小時營業\n星期四: 24 小時營業\n星期五: 24 小時營業\n星期六: 24 小時營業\n星期日: 24 小時營業",
        "place_id": "ChIJGxMxtQNqbjQRRdPEHgCfcA0",
        "lat": 22.910525,
        "lng": 120.520593,
        "type": "nature"
    },
    {
        "id": 105,
        "name": "六義山步道",
        "address": "Unnamed Rd, 甲仙區高雄市台灣 847",
        "city": "高雄市",
        "region": "甲仙區",
        "star": 4.3,
        "info": "六義山海拔約784公尺，屬阿里山山脈烏山山系，為高雄甲仙與台南南化的界山，日治時期就是熱門的登山路線。步道沿山脊開發，仿日治時期古道開鑿而成，採用自然生態工法設仿木紋樁路面；共有四處登山入口，由北至南分別為四德、公館、百葉與紫霞入口，縱走單程約花費三小時。 六義山步道周遭為租地造林地，步道沿途林蔭鬱蔽，樹種繁多，四季呈現不同風貌，尤其冬季一片梅樹開花，香味撲鼻、美麗夢幻。往西、東、南方向可眺望南化水庫、中央山脈及阿里山烏山山系，視野遼闊十分適合觀賞夕照。",
        "time": "星期一: 24 小時營業\n星期二: 24 小時營業\n星期三: 24 小時營業\n星期四: 24 小時營業\n星期五: 24 小時營業\n星期六: 24 小時營業\n星期日: 24 小時營業",
        "place_id": "ChIJM7EMPe9ebjQRBTUnjbBfpjY",
        "lat": 23.0885299,
        "lng": 120.5722603,
        "type": "nature"
    },
    {
        "id": 106,
        "name": "尾寮山登山步道",
        "address": "906台灣屏東縣高樹鄉泰山村",
        "city": "屏東縣",
        "region": "高樹鄉",
        "star": 4.4,
        "info": "尾寮山位在屏東縣三地門鄉及高雄縣茂林區交界， 步道前半段為產業道路，循之字形緩坡向上，四、五月油桐花開時，朵朵白花如雪花飄落山徑，鋪成一條浪漫的白地毯；六月相思樹開花時，一朵朵鮮黃色如小粉撲的花綴滿山頭，甚是美麗。 \r\n之後，步道轉為較原始之登山山徑，景觀也搖身變為低海拔闊葉林，間有數株高大的山黃麻佇立其間，還有一叢叢的刺竹及麻竹，有時還能遇著山地的主人巡山採筍。後段路徑長、坡度陡，偶有需拉繩攀登地形，在小百岳中是挑戰級路線。 雖然山頂為二等三角點無展望，但沿路即有許多不錯的展望點，可將附近茂林、六龜及高樹鄉的恬靜田園景色盡收眼裡。 \r\n",
        "time": "星期一: 24 小時營業\n星期二: 24 小時營業\n星期三: 24 小時營業\n星期四: 24 小時營業\n星期五: 24 小時營業\n星期六: 24 小時營業\n星期日: 24 小時營業",
        "place_id": "ChIJUzqG5JhGbjQRsf3QjEuuzHg",
        "lat": 22.8655284,
        "lng": 120.652602,
        "type": "nature"
    },
    {
        "id": 107,
        "name": "筏灣泰武步道",
        "address": "921台灣屏東縣泰武鄉",
        "city": "屏東縣",
        "region": "泰武鄉",
        "star": 4.6,
        "info": "筏灣泰武步道舊稱「平和古道」，由北大武山舊登山口叉路左轉進入，步道終點為四叉路口，往右可通往舊平和，直走可通往舊筏灣，四叉路口至舊筏灣間路段均為私有地。沿途森林鬱閉，附生植物繁盛，途中可遠眺壯闊的北大武山。",
        "time": "星期一: 24 小時營業\n星期二: 24 小時營業\n星期三: 24 小時營業\n星期四: 24 小時營業\n星期五: 24 小時營業\n星期六: 24 小時營業\n星期日: 24 小時營業",
        "place_id": "ChIJU8R7M6w6bjQRMAjp0TYLshA",
        "lat": 22.6145008,
        "lng": 120.7017865,
        "type": "nature"
    },
    {
        "id": 108,
        "name": "里龍山步道",
        "address": "943台灣屏東縣獅子鄉",
        "city": "屏東縣",
        "region": "獅子鄉",
        "star": 4,
        "info": "高約1,062公尺的里龍山又稱里瀧山，為臺灣小百岳之一，為中央山脈南端的延伸，也是恆春半島上唯一一座海拔超過1千公尺的中級山。里龍山地質多為厚層砂岩，不時可見高聳陡直的山壁及巨石林立的景觀。山頂視野展望良好，是條極具多樣景觀的登山路線。",
        "time": "星期一: 24 小時營業\n星期二: 24 小時營業\n星期三: 24 小時營業\n星期四: 24 小時營業\n星期五: 24 小時營業\n星期六: 24 小時營業\n星期日: 24 小時營業",
        "place_id": "ChIJAQAAANAZbjQRkw1BgmDpLC4",
        "lat": 22.1590962,
        "lng": 120.7116384,
        "type": "nature"
    },
    {
        "id": 109,
        "name": "石門山步道",
        "address": "945台灣屏東縣牡丹鄉石門山",
        "city": "屏東縣",
        "region": "牡丹鄉",
        "star": 4.2,
        "info": "石門山（又稱虱母山）海拔384公尺，早期為軍事基地，步道前半段已增編為原住民保留地，後半段為為林務局屏東林區管理處轄管之林班地，為防止土砂崩坍流失及四重溪治理，於民國18年第36告示編入土砂扞止保安林，撫育造林，以保有良好林相之天然原貌。 \r\n石門山步道沿途林蔭遮蔽，白榕谷可看到白榕氣根的柱根，形成「一樹成林」的壯觀場面。從登山口步行至觀景平台約需半小時，至山頂三角點則約需一小時，接近山頂的兩百公尺十分陡峭，幾乎需攀爬前行。步道沿線可盡覽石門村與四重溪風光，每年四至七月時，適逢野牡丹花盛開期，紫花開滿山野，熱鬧繽紛。\r\n",
        "time": "星期一: 24 小時營業\n星期二: 24 小時營業\n星期三: 24 小時營業\n星期四: 24 小時營業\n星期五: 24 小時營業\n星期六: 24 小時營業\n星期日: 24 小時營業",
        "place_id": "ChIJE5oOsDXIcTQRHZozbm_SNhs",
        "lat": 22.112815,
        "lng": 120.754326,
        "type": "nature"
    },
    {
        "id": 110,
        "name": "高士佛步道",
        "address": "945台灣屏東縣牡丹鄉高士佛29號",
        "city": "屏東縣",
        "region": "牡丹鄉",
        "star": 4.5,
        "info": "高士佛山位於屏東縣牡丹鄉，標高海拔514公尺，與老佛山，因同位於恆春半島上，且山名皆有「佛」字，故岳界稱為「恆春二佛」。\r\n\r\n高士佛步道長約2.5公里，全程坡緩無危險地形。步道前500公尺坡度較陡，需耗費較多體力，過後漸緩，可專心欣賞沿途豐富的動植物資源。 沿途山林原始自然，生態豐富，分布多種恆春半島特有植物，也是條賞蝶秘境，適合親子同遊。山頂有三角點，山頂平坦但周圍有大頭茶純林，視野稍受阻礙。可順遊附近的牡丹水庫、石門古戰場步道、屏東石門山步道等景點。 \r\n",
        "time": "星期一: 24 小時營業\n星期二: 24 小時營業\n星期三: 24 小時營業\n星期四: 24 小時營業\n星期五: 24 小時營業\n星期六: 24 小時營業\n星期日: 24 小時營業",
        "place_id": "ChIJ2VbYjK3LcTQRBa_zz_R5dnQ",
        "lat": 22.122528,
        "lng": 120.8389385,
        "type": "nature"
    },
    {
        "id": 111,
        "name": "嘉明湖國家步道",
        "address": "957台灣台東縣海端鄉台東縣海端鄉",
        "city": "臺東縣",
        "region": "海端鄉",
        "star": 4.9,
        "info": "嘉明湖國家步道為中央山脈南二段的一部分，步道全程路徑明顯，高山生態景觀豐富多變，穿越台灣鐵杉林、台灣冷杉林、高山深谷、斷崖崩壁、箭竹草原及山頂稜線；而空谷鹿鳴、相連群峰、冬日雪景、皎潔月色和滿天星子是長久以來吸引登山客的美景。\r\n\r\n步道所經的向陽山和三叉山兩座台灣百岳生態景觀各具特色，向陽山為中央山脈高山寒原生態分布的最南界限，三叉山則以廣闊壯麗的高山草原及不遠處如藍寶石般的嘉明湖聞名。 \r\n",
        "time": "星期一: 24 小時營業\n星期二: 24 小時營業\n星期三: 24 小時營業\n星期四: 24 小時營業\n星期五: 24 小時營業\n星期六: 24 小時營業\n星期日: 24 小時營業",
        "place_id": "ChIJP_9umKkcbzQRvil6Z-ORoe0",
        "lat": 23.25093069999999,
        "lng": 120.9830192,
        "type": "nature"
    },
    {
        "id": 112,
        "name": "都蘭山步道",
        "address": "959台灣台東縣東河鄉都蘭村成功所 (VB1013)鳩力岸段2地號",
        "city": "臺東縣",
        "region": "東河鄉",
        "star": 4.3,
        "info": "臺東縣縣山都蘭山是海岸山脈南段最高峰，是臺灣小百岳之一，矗立於卑南平原上，山勢宏偉，形態巍巍。由於受到太平洋水氣影響，都蘭山終年雲霧繚繞，孕育出繁盛鬱密的森林景觀，植物生態相當多樣豐富，蕨類生長尤其豐茂，神祕空靈的氣氛，更讓都蘭山有「美人山」之稱。都蘭山是當地原住民卑南族及阿美族的聖山，沿途可見「普悠瑪」碑石及許多原住民遺址，稜線上視野遼闊，一邊可見巍然高聳的海岸山脈，一邊是浩瀚無際的太平洋，如幸運遇天晴，可遠望蘭嶼、綠島。 ",
        "time": "星期一: 24 小時營業\n星期二: 24 小時營業\n星期三: 24 小時營業\n星期四: 24 小時營業\n星期五: 24 小時營業\n星期六: 24 小時營業\n星期日: 24 小時營業",
        "place_id": "ChIJYyvtn1ujbzQRYwvwdP3_zik",
        "lat": 22.8724501,
        "lng": 121.1795402,
        "type": "nature"
    },
    {
        "id": 113,
        "name": "麻荖漏步道",
        "address": "961台灣台東縣成功鎮三民產業道路",
        "city": "臺東縣",
        "region": "成功鎮",
        "star": 4.5,
        "info": "麻老漏步道是成功鎮集水區的取水路徑，因此步道的鋪設以不汙染水源且民眾容易親近為原則，採用生態工法修築而成。\r\n\r\n步道前三分之一平緩好走，之後則較具挑戰性，需攀爬陡坡、彎腰穿越巨石和山洞，全程大約有五至六次要跨越溪流水潭，加上沿途豐富的動植物生態，適合慢慢走慢慢玩。 終點的彩虹瀑布，名列臺灣十大名瀑之一，飛瀉水流在陽光的照射下映出彩虹，美麗至極。\r\n",
        "time": "星期一: 24 小時營業\n星期二: 24 小時營業\n星期三: 24 小時營業\n星期四: 24 小時營業\n星期五: 24 小時營業\n星期六: 24 小時營業\n星期日: 24 小時營業",
        "place_id": "ChIJLYg_WS9ybzQRNr_a6OC9FSU",
        "lat": 23.1298971,
        "lng": 121.3474542,
        "type": "nature"
    },
    {
        "id": 114,
        "name": "鯉魚山步道",
        "address": "950台灣台東縣台東市",
        "city": "臺東縣",
        "region": "臺東市",
        "star": 4.2,
        "info": "「鯉魚山」因其外形與鯉魚相似而得名，又名卑南山，原名鰲魚山，是位於台東市舊火車站後方的公園，園中設有登山步道，並依地形規劃有鯉首、鯉眼、背嶺及鯉尾等觀景平台，視野極佳，可俯瞰台東市區與太平洋、北眺卑南族聖山都蘭山、猴子山、石頭山、虎頭山、利吉惡地及卑南山斷層崖（俗稱小黃山），當天氣晴朗時，甚至連綠島及蘭嶼島皆可盡收眼底，看山又看海，令人大飽眼福。 步道沿途林蔭幽森，老樹林立，鳥語花香，可謂台東市的綠肺，並有紀念碑、防空洞、忠烈祠、碉堡、砲臺等歷史遺跡，是台東市極佳的健行步道。",
        "time": "星期一: 07:00 – 19:00\n星期二: 07:00 – 19:00\n星期三: 07:00 – 19:00\n星期四: 07:00 – 19:00\n星期五: 07:00 – 19:00\n星期六: 07:00 – 19:00\n星期日: 07:00 – 19:00",
        "place_id": "ChIJsSgLABS5bzQRbAi_STdd1uM",
        "lat": 22.755565,
        "lng": 121.142427,
        "type": "nature"
    },
    {
        "id": 115,
        "name": "大武觀海步道",
        "address": "965台灣台東縣大武鄉",
        "city": "臺東縣",
        "region": "大武鄉",
        "star": 4.2,
        "info": "大武觀海步道坡度平緩，約30分鐘即可輕鬆走完全程，素有「大武後花園」之稱，離海不遠，全程有海濤相伴，背山面海的地勢，可登高望遠，於賞景亭上俯瞰太平洋與大武溪入海口。山林主要為低海拔闊葉林生態系，沿途設置植物解說牌與鳥巢箱，讓民眾親近自然外，還能對生態有更進一步的瞭解。",
        "time": "星期一: 24 小時營業\n星期二: 24 小時營業\n星期三: 24 小時營業\n星期四: 24 小時營業\n星期五: 24 小時營業\n星期六: 24 小時營業\n星期日: 24 小時營業",
        "place_id": "ChIJLbTnMCkrcDQRGAmHI2NQq0U",
        "lat": 22.3581218,
        "lng": 120.9035881,
        "type": "nature"
    },
    {
        "id": 116,
        "name": "月眉山步道",
        "address": "974台灣花蓮縣壽豐鄉花38-1鄉道",
        "city": "花蓮縣",
        "region": "壽豐鄉",
        "star": 4.4,
        "info": "民國50年月眉山上的居民，為種植農作物而開闢的產業道路，成為月眉步道部分路段的前身。林相屬低海拔闊葉林，因水氣充足而有許多附生植物；具有臺灣少有的典型活斷層斷錯景觀，記錄著海岸山脈的造山運動。山頂的三角點因環境開闊、蝴蝶群聚，是賞蝶的最佳地點；觀景平台可俯瞰花東縱谷地區，及眺望綿延的海岸山脈。",
        "time": "星期一: 24 小時營業\n星期二: 24 小時營業\n星期三: 24 小時營業\n星期四: 24 小時營業\n星期五: 24 小時營業\n星期六: 24 小時營業\n星期日: 24 小時營業",
        "place_id": "ChIJs9E_NgmmaDQRitgqZLnVZLo",
        "lat": 23.8126298,
        "lng": 121.5416424,
        "type": "nature"
    },
    {
        "id": 117,
        "name": "安通越嶺道_西段",
        "address": "981台灣花蓮縣玉里鎮樂合里",
        "city": "花蓮縣",
        "region": "玉里鎮",
        "star": 4.1,
        "info": "是第一條跨越海岸山脈連通東部海岸及花東縱谷的道路，為清朝至日治時期通婚、傳教、挑貨的重要道路。安通越嶺古道自1970年代荒廢後，鮮少人跡，直到2002年之後林務局重修安通越嶺古道，聘請專家勘查；東段地處偏僻因此不再修復，西段因具有人文與生態旅遊價值，於2008年重修完成。",
        "time": "星期一: 24 小時營業\n星期二: 24 小時營業\n星期三: 24 小時營業\n星期四: 24 小時營業\n星期五: 24 小時營業\n星期六: 24 小時營業\n星期日: 24 小時營業",
        "place_id": "ChIJTf__G55pbzQRLXm5e-Hg93k",
        "lat": 23.2847132,
        "lng": 121.372387,
        "type": "nature"
    },
    {
        "id": 118,
        "name": "八通關越道_鹿鳴吊橋段",
        "address": "982台灣花蓮縣卓溪鄉卓清村",
        "city": "花蓮縣",
        "region": "卓溪鄉",
        "star": 4.5,
        "info": "八通關古道鹿鳴吊橋段步道位於花蓮縣卓溪鄉，為日治時期八通關越嶺道的一部份。全程都在闊葉林中，緩坡好走，沿途可觀賞亞熱帶植物，欣賞拉庫拉庫溪壯闊之美，體驗特殊吊索橋。",
        "time": "星期一: 24 小時營業\n星期二: 24 小時營業\n星期三: 24 小時營業\n星期四: 24 小時營業\n星期五: 24 小時營業\n星期六: 24 小時營業\n星期日: 24 小時營業",
        "place_id": "ChIJpTv4ay4VbzQRlmCP5fNiRnU",
        "lat": 23.3180529,
        "lng": 121.2543815,
        "type": "nature"
    },
    {
        "id": 119,
        "name": "佐倉步道",
        "address": "972台灣花蓮縣秀林鄉",
        "city": "花蓮縣",
        "region": "秀林鄉",
        "star": 4.4,
        "info": "佐倉步道位於花蓮市西郊，原為台泥採礦道路，經花蓮林區管理處整修規劃為適合民眾健走休憩的生態步道，交通便利，路緩好走，沿途植栽豐富，草地綠意盎然，隨著山勢蜿蜒而上，能逐漸俯瞰整個奇萊平原及壯闊的太平洋。\r\n停車場旁還有撒固兒步道，環形一圈約1~1.5小時，如時間允許，可一併順遊。",
        "time": "星期一: 24 小時營業\n星期二: 24 小時營業\n星期三: 24 小時營業\n星期四: 24 小時營業\n星期五: 24 小時營業\n星期六: 24 小時營業\n星期日: 24 小時營業",
        "place_id": "ChIJf-SzH_CeaDQRJKODXBo2uDs",
        "lat": 24.0185644,
        "lng": 121.5765521,
        "type": "nature"
    },
    {
        "id": 120,
        "name": "鯉魚山步道群",
        "address": "974台灣花蓮縣壽豐鄉鯉魚山",
        "city": "花蓮縣",
        "region": "壽豐鄉",
        "star": 4.2,
        "info": "鯉魚山狀似鯉魚蜷臥而得名，鯉魚山步道系統計有健身、賞鳥、野趣、登山、遠眺、野餐觀景等數條步道，遊客可依體力及時間安排行程。步道旁的鯉魚潭，山光水色、碧波萬頃，「澄潭躍鯉」為花蓮八景之一。步道沿途為低海拔闊葉林及人造林，春天的櫻花及秋季的台灣欒樹盛開時，把山頭妝點得熱鬧繽紛。4-5月螢火蟲大發生時，是花蓮熱門的賞螢地點。",
        "time": "無",
        "place_id": "ChIJy1vrzcWjaDQRGf1LN5UCFmk",
        "lat": 23.91906699999999,
        "lng": 121.520656,
        "type": "nature"
    },
    {
        "id": 121,
        "name": "虎頭山步道",
        "address": "978台灣花蓮縣瑞穗鄉花蓮縣瑞穗鄉",
        "city": "花蓮縣",
        "region": "瑞穗鄉",
        "star": 4.5,
        "info": "虎頭山步道路線呈「Y」字形，可分為溫泉步道（0.84km）、山頂步道（0.90km）以及健康步道（0.24km），步道平緩漫步於蒼翠的闊葉林中，第一休息平台綠意環繞，蟲鳴鳥囀不絕於耳，第二休息區視野極佳，可遠眺縱谷景觀、秀姑巒溪、海岸山脈、舞鶴台地及瑞穗街景。\r\n\r\n步道入口周圍種滿阿勃勒，夏天時有一片黃澄澄的花海；春夏之際，階梯上則佈滿白色油桐花；登上階梯至觀景平台，即為日治時代的神社所在地。步道前半段穿梭在青翠的桂竹林中，每年四至五月時，桂竹冒新筍，爭相從竹林下與步道邊冒出頭來。\r\n",
        "time": "星期一: 24 小時營業\n星期二: 24 小時營業\n星期三: 24 小時營業\n星期四: 24 小時營業\n星期五: 24 小時營業\n星期六: 24 小時營業\n星期日: 24 小時營業",
        "place_id": "ChIJhTeI7gZGbzQReS98-UljKS0",
        "lat": 23.49509699999999,
        "lng": 121.350285,
        "type": "nature"
    },
    {
        "id": 122,
        "name": "森阪步道",
        "address": "975台灣花蓮縣鳳林鎮林森路99巷99號",
        "city": "花蓮縣",
        "region": "鳳林鎮",
        "star": 4.2,
        "info": "林田山林場曾是台灣第四大的林場，有「小上海」之美稱，日治時期稱為「摩里薩卡」（日語「森坂」），意為山坡上長滿森林之地。政府實行禁伐政策後，在林務局與當地文史工作者共同努力下，保存當時的伐木設備及歷史文物，成為現今的「林田山林業文化園區」。 \r\n\r\n民國100年時，花蓮林區管理處整修早年當地居民自行興建的朝聖步道，並取名為「森坂步道」，為維護自然生態環境，步道施工材料皆以木材及石材為主，是一條結合自然及恬靜適意的山林步道。 \r\n\r\n沿途可見台灣櫸、扁柏、紅檜等珍貴的山林植物，綠意盎然，踏上森坂步道，漫步於森林之中，聆聽鳥囀蟲鳴，享受芬多精的洗禮，景觀平台俯瞰園區聚落全貌，以及萬里溪、西寶大橋、海岸山脈，美麗風光一覽無遺。\r\n",
        "time": "星期一: 休息\n星期二: 09:00 – 17:00\n星期三: 09:00 – 17:00\n星期四: 09:00 – 17:00\n星期五: 09:00 – 17:00\n星期六: 09:00 – 17:00\n星期日: 09:00 – 17:00",
        "place_id": "ChIJ3-vwJLOzaDQRHnPlTZ31RsQ",
        "lat": 23.7180886,
        "lng": 121.3989548,
        "type": "nature"
    },
    {
        "id": 123,
        "name": "九九峰森林步道",
        "address": "542台灣南投縣草屯鎮",
        "city": "南投縣",
        "region": "草屯鎮",
        "star": 4.3,
        "info": "九九峰，又稱「九九尖山」、「火炎山」，由99座尖銳的獨立山峰所組成的，遠遠望去像是跳耀的火焰而得名，特殊的地質景觀，與三義火炎山、六龜十八羅漢山並稱為「台灣三大火炎山地形」，亦為草屯第一名景。 \r\n\r\n步道有北端、南端二個入口，南端是木棧道，北端是水泥產業道路，可環繞一圈。步道隨著稜線蜿蜒而上，沿途有高大樹林夾道，山頂開闊處可遠眺霧峰、草屯、雙冬、平林等地，以及烏溪風光、國道六號穿流的車潮，山頂的涼亭是最佳展望點，可以欣賞整個「九九峰自然保留區」，峰峰相連的景色，令人嘆為觀止。 健行完畢，可順遊九九峰生態藝術園區展覽館、毓繡美術館，欣賞藝術家豐富的作品。\r\n",
        "time": "星期一: 24 小時營業\n星期二: 24 小時營業\n星期三: 24 小時營業\n星期四: 24 小時營業\n星期五: 24 小時營業\n星期六: 24 小時營業\n星期日: 24 小時營業",
        "place_id": "ChIJL3qi_JclaTQR4uIHL5SfbhY",
        "lat": 23.9943397,
        "lng": 120.7716826,
        "type": "nature"
    },
    {
        "id": 124,
        "name": "檜木原始林步道",
        "address": "267台灣宜蘭縣大同鄉太平巷58之1號",
        "city": "宜蘭縣",
        "region": "大同鄉",
        "star": 4.5,
        "info": "檜木原始林步道位在太平山森林遊樂區，為太平山莊後方一片原始檜木森林，需經由植滿紫葉槭的紅葉步道，至鎮安宮後開始行走。\r\n\r\n步道多為木棧道，沿途古木參天、蓊鬱蔽日、空氣氤氳，炎炎夏日於此享受森林浴非常沁涼。步道中途可連接至鐵杉林自然步道。\r\n",
        "time": "星期一: 06:00 – 20:00\n星期二: 06:00 – 20:00\n星期三: 06:00 – 20:00\n星期四: 06:00 – 20:00\n星期五: 06:00 – 20:00\n星期六: 06:00 – 20:00\n星期日: 06:00 – 20:00",
        "place_id": "ChIJVZLcBrNwaDQRpO0oo7a3SrQ",
        "lat": 24.494218,
        "lng": 121.5349374,
        "type": "nature"
    },
    {
        "id": 125,
        "name": "關山紅石步道",
        "address": "957台灣台東縣關山鎮紅石林道",
        "city": "臺東縣",
        "region": "關山鎮",
        "star": 4.5,
        "info": "關山紅石步道位於關山鎮與海端鄉交界的紅石部落，與紅石林道相連，林務局台東林區管理處為讓民眾容易親近林道，整建步道並與關山鎮豐泉社區居民施作的「888相思林步道」串聯，合稱為「關山紅石步道」。\r\n\r\n步道沿途設有解說牌及休憩座椅，為林務局推薦的百條步道之一，亦為縱谷規劃最完整的步道之一，適合親子共遊的休憩步道。 步道起點位於關山環鎮自行車道與東5線交叉口，步道大致分為三段，第一段為起點至紅石林道1.3公里處，沿途為茂密的相思樹林，第二段為紅石林道1.3至3.2公里處，坡度平緩，第三段紅石林道3.2至4.6公里處，圓木階梯蜿蜒於稜線之上，較有陡度，最高點設有涼亭，途中開闊處可欣賞關山縱谷綠野平疇及海岸山脈。\r\n",
        "time": "星期一: 24 小時營業\n星期二: 24 小時營業\n星期三: 24 小時營業\n星期四: 24 小時營業\n星期五: 24 小時營業\n星期六: 24 小時營業\n星期日: 24 小時營業",
        "place_id": "ChIJzTmkH7AJbzQR3MAqbqPUj2g",
        "lat": 23.0698459,
        "lng": 121.1353594,
        "type": "nature"
    },
    {
        "id": 126,
        "name": "浸水營國家步道東段",
        "address": "942台灣屏東縣春日鄉大漢林道",
        "city": "屏東縣",
        "region": "春日鄉",
        "star": 4.5,
        "info": "浸水營國家步道西起屏東縣枋寮鄉的水底寮，終至東端的台東縣大武鄉的加羅板部落，為台灣所有橫越中央山脈古道中，越嶺點最低、使用頻率最高，且使用時間最長的古道。沿途仍留有許多古道遺跡，生物歧異度之高、稀有植物之多堪稱全台數一數二，其中又以蕨類及蘭科植物最為豐盛精彩，是一條富含人文史跡與特殊自然生態景觀。",
        "time": "星期一: 24 小時營業\n星期二: 24 小時營業\n星期三: 24 小時營業\n星期四: 24 小時營業\n星期五: 24 小時營業\n星期六: 24 小時營業\n星期日: 24 小時營業",
        "place_id": "ChIJi2T3WcnecTQRanhLy71CGyY",
        "lat": 22.407632,
        "lng": 120.7565448,
        "type": "nature"
    },
    {
        "id": 127,
        "name": "鎮南宮步道",
        "address": "734台灣台南市六甲區734",
        "city": "臺南市",
        "region": "六甲區",
        "star": 4,
        "info": "鎮南宮步道舊稱赤山步道，位於台南市六甲區珊瑚路鎮南宮的後方。全程約990公尺，步道寬廣坡度平緩起伏不大，極適合中、老年人健走。步道沿途指標清楚、林相優美豐富，除可鳥瞰烏山頭水庫風光，還可將六甲地區平原盡收眼底，為一條老少咸宜的休閒步道。尤其中途有筆直漂亮的檸檬桉樹林。",
        "time": "星期一: 24 小時營業\n星期二: 24 小時營業\n星期三: 24 小時營業\n星期四: 24 小時營業\n星期五: 24 小時營業\n星期六: 24 小時營業\n星期日: 24 小時營業",
        "place_id": "ChIJ0wR9hBWIbjQREFVSsORnpsI",
        "lat": 23.2218944,
        "lng": 120.3677916,
        "type": "nature"
    },
    {
        "id": 128,
        "name": "福山步道",
        "address": "605台灣嘉義縣阿里山鄉",
        "city": "嘉義縣",
        "region": "阿里山鄉",
        "star": 4.2,
        "info": "福山步道位於嘉義縣阿里山鄉福山聚落上方，入口由台18線69公里處進入，海拔高約1,270～1,360公尺。步道入口處有一涼亭，於430公尺有一休憩平台，平台右側有一條向下的階梯步道可通往福山聚落，亦可直行之後右轉，再銜接此階梯步道繞回此平台，由平台再走回步道入口處，若如此繞回原點的路程全長約1,850公尺，是條輕鬆且前後段景致迥異的步道。此條步道有幾處可見到樹木燒焦的痕跡，係由於民國98年2月該處附近發生火災，為避免火勢延燒至福山聚落因而將此處闢為防火線。火災過後，於兩旁植樹並加以整理成為一條生態步道。",
        "time": "星期一: 24 小時營業\n星期二: 24 小時營業\n星期三: 24 小時營業\n星期四: 24 小時營業\n星期五: 24 小時營業\n星期六: 24 小時營業\n星期日: 24 小時營業",
        "place_id": "ChIJURKkkuTnbjQRtPrK7tiqZLs",
        "lat": 23.4573153,
        "lng": 120.7186908,
        "type": "nature"
    },
    {
        "id": 129,
        "name": "里美避難步道",
        "address": "605台灣嘉義縣阿里山鄉121",
        "city": "嘉義縣",
        "region": "阿里山鄉",
        "star": 4.1,
        "info": "步道原先即為鄒族原住民遷徒及來往聯絡的古道，2009年八八風災重創里美步道後，部落村民意識到古道可以充做緊急救難之用，便向林務局提出修復建議。此步道總長約1.6公里，因具緊急救難之用，故定名 為「里美避難步道」。\r\n\r\n步道上部多為天然原始林，林相豐富完整，下部進入低海拔，逐漸出現開墾的痕跡，沿途設有3處原住民風格的木製獵寮可供休息、還有幾座特別的三角吊橋，另有可遠眺達娜伊谷的觀景台，視野非常良好。\r\n",
        "time": "無",
        "place_id": "ChIJHUYSFzrvbjQRs1e3I1N0K9Q",
        "lat": 23.3818262,
        "lng": 120.682442,
        "type": "nature"
    },
    {
        "id": 130,
        "name": "龍麟山步道",
        "address": "716台灣台南市南化區",
        "city": "臺南市",
        "region": "南化區",
        "star": 4.3,
        "info": "臺南龍麟山步道舊稱桶頭山步道，位於臺南市最東邊內烏山山脈上，是臺南市南化區與高雄市內門區的交界處，屬於烏山步道的一部份。龍麟山步道全程2.3公里，是一條環狀登山路線，步道延著山脊線蜿蜒，因山脊線上的巨石就像龍鱗般一片接著一片綿延展開，所以又稱為龍麟山步道。岩石構成龍麟般的瘦稜櫛比鱗次，宛如蟠龍攀附在山稜脊背上，登山健行充滿險趣與兼具挑戰性，這是龍麟山步道最大的特色。",
        "time": "星期一: 24 小時營業\n星期二: 24 小時營業\n星期三: 24 小時營業\n星期四: 24 小時營業\n星期五: 24 小時營業\n星期六: 24 小時營業\n星期日: 24 小時營業",
        "place_id": "ChIJIwTC4r1nbjQRY-URQL-TQWQ",
        "lat": 23.029359,
        "lng": 120.504071,
        "type": "nature"
    },
    {
        "id": 131,
        "name": "月光山登山步道",
        "address": "843台灣高雄市美濃區中圳里",
        "city": "高雄市",
        "region": "美濃區",
        "star": 4.2,
        "info": "月光山是美濃山系的最高主山，標高649公尺。美濃山系屬於旗尾山系，位處中央山脈支系的尾端，月光山也是玉山山脈最後一座超過600公尺的山峰。向西面可見旗山溪蜿蜒流經大林、圓潭等區，遠眺內門區；向東南面則可以俯瞰美濃市區。",
        "time": "無",
        "place_id": "ChIJHcxX8RFDbjQR6Ozj3jMNEd8",
        "lat": 22.9204873,
        "lng": 120.5359519,
        "type": "nature"
    },
    {
        "id": 132,
        "name": "奮起湖肖楠母樹林",
        "address": "604台灣嘉義縣竹崎鄉",
        "city": "嘉義縣",
        "region": "竹崎鄉",
        "star": 4.4,
        "info": "位於嘉義縣竹崎鄉境內的奮起湖肖楠母樹林步道，海拔高度約1,400公尺，區內主要為百年肖楠木組成，蓊鬱茂盛且環境清靜幽雅。嘉義林管處為提供更完善的服務，已於105年11月整修完成一條約100公尺的木棧道與三座觀景平台連結原肖楠步道，以不破壞原有生態環境的高架式木棧道及平台施作，讓遊客更能體驗母樹林的清幽寂靜。",
        "time": "星期一: 24 小時營業\n星期二: 24 小時營業\n星期三: 24 小時營業\n星期四: 24 小時營業\n星期五: 24 小時營業\n星期六: 24 小時營業\n星期日: 24 小時營業",
        "place_id": "ChIJcd_Xb8TCbjQRbijag84MxH0",
        "lat": 23.5040836,
        "lng": 120.6954727,
        "type": "nature"
    },
    {
        "id": 133,
        "name": "水山步道",
        "address": "605台灣嘉義縣阿里山鄉",
        "city": "嘉義縣",
        "region": "阿里山鄉",
        "star": 4.7,
        "info": "阿里山國家森林遊樂區內的新秘境-水山步道，是一條結合昔日阿里山森林鐵道文化與探訪水山紅檜巨木的步道，漫步其中彷彿走進森林時光隧道，體驗不同鐵道歷史回憶，歡迎大家前來體驗豐富身心靈之旅。",
        "time": "星期一: 24 小時營業\n星期二: 24 小時營業\n星期三: 24 小時營業\n星期四: 24 小時營業\n星期五: 24 小時營業\n星期六: 24 小時營業\n星期日: 24 小時營業",
        "place_id": "ChIJO_xPEIvebjQR6vE4x5Wdu8A",
        "lat": 23.50522849999999,
        "lng": 120.8034874,
        "type": "nature"
    },
    {
        "id": 134,
        "name": "安通越嶺古道東段",
        "address": "981台灣花蓮縣玉里鎮樂合里",
        "city": "花蓮縣",
        "region": "玉里鎮",
        "star": 4.1,
        "info": "安通越嶺古道，在清朝統治台灣末年，扮演重要的軍事地位。自清代以後，安通越嶺道成為璞石閣與成廣澳間往來的主要交通孔道，來往商賈、墾民、傳教士絡繹不絕。日治時期，日人略加修築，改稱紅莝越，東段全長約3.8公里。\r\n安通越嶺古道東段位於海岸山脈中段，由台東縣長濱鄉竹湖村南竹湖社區（位於台11線92.5公里）竹湖圳產業道路進入，車程約10分鐘可抵登山口 ，由登山口開始步行，至西段終點長約6.1公里。",
        "time": "星期一: 24 小時營業\n星期二: 24 小時營業\n星期三: 24 小時營業\n星期四: 24 小時營業\n星期五: 24 小時營業\n星期六: 24 小時營業\n星期日: 24 小時營業",
        "place_id": "ChIJTf__G55pbzQRLXm5e-Hg93k",
        "lat": 23.2847132,
        "lng": 121.372387,
        "type": "nature"
    },
    {
        "id": 135,
        "name": "浸水營步道_前段",
        "address": "942台灣屏東縣春日鄉大漢林道",
        "city": "屏東縣",
        "region": "春日鄉",
        "star": 4.5,
        "info": "浸水營古道全線西起屏東縣枋寮，東至臺東縣大武，全長約47公里，原為清代撫番道路，後來古道西段多被大漢林道新路取代。 浸水營步道前段入口靠近新開苗圃，終點至大漢林道5.2K處，接上今日大漢林道的路徑。 \r\n\r\n步道全程好走，途中會經過砌石駁坎、質樸木橋，沿途綠蔭濃密，且有涼亭可供休憩，成為新開村居民健身的好地方。 古道附近仍留有許多清代及日治的遺跡。\r\n",
        "time": "星期一: 24 小時營業\n星期二: 24 小時營業\n星期三: 24 小時營業\n星期四: 24 小時營業\n星期五: 24 小時營業\n星期六: 24 小時營業\n星期日: 24 小時營業",
        "place_id": "ChIJi2T3WcnecTQRanhLy71CGyY",
        "lat": 22.407632,
        "lng": 120.7565448,
        "type": "nature"
    },
    {
        "id": 136,
        "name": "綠島阿眉山步道",
        "address": "951台灣台東縣綠島鄉",
        "city": "臺東縣",
        "region": "綠島鄉",
        "star": 4.6,
        "info": "阿眉山位於台東縣綠島鄉，島嶼的中央位置，海拔276尺，為綠島第二高峰，僅比火燒山少了4公尺，是島上數條河流的發源地，向四周放射狀奔流入海。 \r\n\r\n緩上階梯路及泥土路十分好走，沿途蟲鳴鳥叫、蝴蝶飛舞，生態豐富，設有里程指標，山頂無基石，站在觀景平台上欣賞360度視野，可眺望火燒山、牛子山等山峰，天氣晴朗時甚至可看到台灣本島的中央山脈南段，俯瞰綠島全島及海岸線風光，景觀極佳。\r\n",
        "time": "星期一: 24 小時營業\n星期二: 24 小時營業\n星期三: 24 小時營業\n星期四: 24 小時營業\n星期五: 24 小時營業\n星期六: 24 小時營業\n星期日: 24 小時營業",
        "place_id": "ChIJDTdNEuGMbzQRGrFsUCf9AqU",
        "lat": 22.6512732,
        "lng": 121.4870055,
        "type": "nature"
    },
    {
        "id": 137,
        "name": "綠島觀海步道",
        "address": "951台灣台東縣綠島鄉環島公路",
        "city": "臺東縣",
        "region": "綠島鄉",
        "star": 4.6,
        "info": "觀海步道位於綠島東海岸大湖聚落旁，與過山步道東登山口重疊一小段路，步道長度僅220公尺，是一段陡峭的木棧道，雖然有點辛苦，但立即可登高望遠，視野一極棒，觀海步道終點至鞍部展望涼亭，視野循著稜線可一路眺望大烏石、帆船鼻，俯瞰寧靜的港口、大湖聚落的原貌，以及睡美人和哈巴狗的另一個角度，沿途可見原生植物、蕨類等，生態豐富，綠意盎然。",
        "time": "星期一: 24 小時營業\n星期二: 24 小時營業\n星期三: 24 小時營業\n星期四: 24 小時營業\n星期五: 24 小時營業\n星期六: 24 小時營業\n星期日: 24 小時營業",
        "place_id": "ChIJL0da1-WMbzQRqDei1LU6gAA",
        "lat": 22.6445556,
        "lng": 121.4997564,
        "type": "nature"
    },
    {
        "id": 138,
        "name": "撒固兒步道",
        "address": "970台灣花蓮縣花蓮市佐倉街369號",
        "city": "花蓮縣",
        "region": "花蓮市",
        "star": 4.4,
        "info": "撒固兒步道是花蓮市郊最易親近的一條步道，採用碎石與自然土徑，以尊重自然生態工法整建，坡度平緩好走，沿途都有樹蔭遮蓋，行走其間聽聽蟲鳴鳥叫，感受森林的氣味，相當宜人。\r\n步道設計為環狀，無論從哪一邊開始走，都可以輕鬆抵達步道中點的觀景台，近距離觀賞約18公尺高的撒固兒瀑布，瀑布下的溪水清澈見底，高能量負離子更洗清都市中的喧囂。",
        "time": "星期一: 24 小時營業\n星期二: 24 小時營業\n星期三: 24 小時營業\n星期四: 24 小時營業\n星期五: 24 小時營業\n星期六: 24 小時營業\n星期日: 24 小時營業",
        "place_id": "ChIJuyt1tfaeaDQRa-LDf5oAFuo",
        "lat": 24.0188659,
        "lng": 121.5771287,
        "type": "nature"
    },
    {
        "id": 139,
        "name": "鰲鼓濕地森林園區",
        "address": "614台灣嘉義縣東石鄉嘉義縣東石鄉",
        "city": "嘉義縣",
        "region": "東石鄉",
        "star": 4.3,
        "info": "鰲鼓濕地森林園區早期為台灣糖業公司填海造陸從事農、漁、牧事業及種植甘蔗的大本營，但由於地層嚴重下陷、海水入侵地下水層，農場逐漸沒落荒廢。地勢低窪加上周邊海堤圍繞，大雨過後，魚塭及舊有農地形成天然的蓄水池，久而久之，這些水塘濕地之棲地，越來越多候鳥與留鳥棲身及停留於此，成為現今之鰲鼓濕地森林園區。\r\n\r\n大面積的造林地十年或是二十年後將茁壯成林，鰲鼓濕地將會成為具有多樣林相及豐富濕地生態資源之國際級生態環境。鰲鼓濕地森林園區以「濕地保育」與「環境教育」做為園區主要發展定位，使鰲鼓濕地森林園區成為生態旅遊及教學研究的基地。",
        "time": "開放時間為：09:00-16:30，「東石自然生態展示館」(旅客服務中心)與「觀海樓」星期二至星期日開館",
        "place_id": "ChIJ_____0snbDQRr8VOpppz874",
        "lat": 23.5072438,
        "lng": 120.1477433,
        "type": "nature"
    },
    {
        "id": 140,
        "name": "林後四林平地森林園區",
        "address": "920台灣屏東縣潮州鎮潮義路221-1號",
        "city": "屏東縣",
        "region": "潮州鎮",
        "star": 4.4,
        "info": "「林後四林平地森林園區」位處屏東縣潮州鎮，為政府愛台12建設─綠色造林計畫中，所評選出三處平地森林園區的地點之一。園區期望運用森林遊憩結合綠色造林的概念，搭配符合生態、節能、減碳、健康的低密度、綠建築設計，創造一個能作為環境教育的完整生態體系，教導民眾及學童對資源環境的尊重、對生態的概念及對生活的態度；並融合屏東當地的環境特色、歷史文化、地方產業，帶動屏東地區的發展，促進區域的經濟效益並提昇傳統農業生產的價值，打造出具地方特色、導向之多元生態的知性園區，發展生態教學及深度旅遊的遊憩型態，達到綠色造林的價值。",
        "time": "園區24小時開放，遊客中心服務時間08:00~17:00。",
        "place_id": "ChIJ86VLNp0hbjQRMoJG83pE5nM",
        "lat": 22.5386812,
        "lng": 120.590396,
        "type": "nature"
    },
    {
        "id": 141,
        "name": "大農大富平地森林園區",
        "address": "976台灣花蓮縣光復鄉農場路32號",
        "city": "花蓮縣",
        "region": "光復鄉",
        "star": 4.3,
        "info": "「大農大富平地森林園區」位於花蓮縣光復鄉，地處花東縱谷，兩側是中央山脈與海岸山脈。從縱谷一路南下，約莫到了中段，過花蓮糖廠煙囪，緊接著就是一大片連綿不絕的森林。\r\n\r\n森林的外圍，有多元民族共同書寫的歷史。台灣是一座處處森林的美麗島嶼，但數百年的開發讓原始森林退出平野。21世紀開始，林務局積極推動平地造林，十年樹木，花蓮人擁有了全國第一座平地森林--大農大富平地森林園區。\r\n\r\n位於中央山脈與海岸山脈之間，1,250公頃的園區，相當於48座大安森林公園，可說是名副其實的超級吸碳造氧機。這裡種了近20種，逾百萬株低海拔常見的樹種，好看、好用，與人類的生活息息相關。涵養大地，供應人類與其他動物日常所需，它們的丰姿、色彩，是大地最美的一頁詩篇。整體大農大富平地森林園區的規劃以結合周邊農業、城鄉文化、社區營造及環境教育等產業與資源，打造符合生態、節能、減碳、健康導向的規劃與設計，企圖形成多元知性旅遊場域，且與縱谷內遊憩景點連線，提供優質遊憩服務，同時希冀可為平地森林、在地生態景觀、地方居民生活、國人身心健康與環境產業的永續再創新機。",
        "time": "週二～週日：08:00-17:00，中午不休息。",
        "place_id": "ChIJ-b_-vgFNbzQR8qkajZZrKqU",
        "lat": 23.6148548,
        "lng": 121.4177281,
        "type": "nature"
    }
]